name,country_code,subdivision,unlocode,location,asciiname,coordinates,latitude,longitude,timezone,modification date
Andorra la Vella,AD,,ADALV,ALV,Andorra la Vella,4230N 00131E,42.5078,1.5211,Europe/Andorra,2020-03-03
Arandis,,,ADI,ADI,Arandis Airport,,-22.4622,14.9800,Africa/Windhoek,2020-10-25
Al Ain,AE,,AEAAN,AAN,Al Ain City,,24.1917,55.7606,Asia/Dubai,2019-05-29
Abu Dhabi,AE,AZ,AEAUH,AUH,Abu Dhabi,2428N 05422E,24.4512,54.3970,Asia/Dubai,2019-09-05
Al Dhafra,AE,,AEDHF,DHF,Al Dhafra Air Base,2414N 05432E,24.2484,54.5485,Asia/Dubai,2013-05-18
Dubai World Central Apt,AE,,AEDWC,DWC,Dubai World Central - Al Maktoum International Airport,2453N 05510E,24.8978,55.1591,Asia/Dubai,2014-04-15
Dubai,AE,DU,AEDXB,DXB,Dubai,2515N 05516E,25.0772,55.3093,Asia/Dubai,2019-08-28
Al Fujayrah,AE,FU,AEFJR,FJR,Al Fujairah City,2507N 05620E,25.1164,56.3414,Asia/Dubai,2019-05-29
Minhad,AE,,AENHD,NHD,Al Minhad Air Base,,25.0267,55.3695,Asia/Dubai,2013-06-16
Ras Al Khor,AE,DU,AERAK,RAK,Ras Al Khaimah City,2517N 05534E,25.7895,55.9432,Asia/Dubai,2019-09-09
Ras al Khaimah,AE,,AERKT,RKT,Ras Al Khaimah City,2547N 05557E,25.7895,55.9432,Asia/Dubai,2019-09-09
Sharjah,AE,SH,AESHJ,SHJ,Sharjah,2521N 05523E,25.3374,55.4121,Asia/Dubai,2019-09-05
Bamian,AF,,AFBIN,BIN,Bamiyan Airport,,34.8086,67.8182,Asia/Kabul,2018-02-17
Bost,AF,,AFBST,BST,Lashkar Gah,,31.5938,64.3716,Asia/Kabul,2020-06-09
Chaghcharan,AF,,AFCCN,CCN,Fayroz Koh,3431N 06515E,34.5195,65.2509,Asia/Kabul,2020-06-09
Darwaz,AF,,AFDAZ,DAZ,Darwaz Airport,,38.4611,70.8825,Asia/Kabul,2018-02-17
Farah,AF,,AFFAH,FAH,Farah,,32.3745,62.1164,Asia/Kabul,2018-02-17
Faizabad,AF,,AFFBD,FBD,Fayzabad,,37.1166,70.5800,Asia/Kabul,2018-02-17
Gardez,AF,,AFGRG,GRG,Gardez Old Airfield,,33.6283,69.2377,Asia/Kabul,2018-02-13
Ghazni,AF,,AFGZI,GZI,Ghazni,,33.5539,68.4210,Asia/Kabul,2018-02-17
Herat,AF,,AFHEA,HEA,Herat International Airport,,34.2111,62.2285,Asia/Kabul,2018-02-17
Jalalabad,AF,,AFJAA,JAA,Jalalabad,,34.4265,70.4515,Asia/Kabul,2020-06-09
Kabul,AF,,AFKBL,KBL,Kabul,,34.5281,69.1723,Asia/Kabul,2019-09-05
Kandahar,AF,,AFKDH,KDH,Ahmad Shah Baba International Airport,,31.5074,65.8504,Asia/Kabul,2020-07-28
Khost,AF,,AFKHT,KHT,Khost,,33.3395,69.9204,Asia/Kabul,2020-06-09
Kuran-O-Munjan,AF,,AFKUR,KUR,Kuran wa Munjan,,36.0287,70.7726,Asia/Kabul,2018-02-17
Khwahan,AF,,AFKWH,KWH,Deh Khwahan,,37.8897,70.2188,Asia/Kabul,2020-06-09
Qala Nau,AF,,AFLQN,LQN,Qala i Naw,,34.9873,63.1289,Asia/Kabul,2018-02-17
Maimana,AF,,AFMMZ,MMZ,Maymana,,35.9214,64.7836,Asia/Kabul,2018-02-17
Mazar-i-Sharif,AF,,AFMZR,MZR,Mazar-e Sharif,3642N 06706E,36.7090,67.1109,Asia/Kabul,2020-06-09
Sardeh Band,AF,,AFSBF,SBF,Sardeh Band,,33.2989,68.6311,Asia/Kabul,2018-02-17
Sheghnan,AF,,AFSGA,SGA,Shighnan District,,37.6167,71.4500,Asia/Kabul,2018-02-13
Tirinkot,AF,,AFTII,TII,Tarinkot,,32.6300,65.8781,Asia/Kabul,2018-02-13
Taluqan,AF,,AFTQN,TQN,Taloqan,,36.7360,69.5345,Asia/Kabul,2018-02-17
Kunduz,AF,,AFUND,UND,Kunduz,,36.7289,68.8570,Asia/Kabul,2019-02-26
Urgoon,AF,,AFURN,URN,Urgun,,32.9515,69.1828,Asia/Kabul,2018-02-17
Uruzgan,AF,,AFURZ,URZ,Uruzgan,,32.9020,66.6340,Asia/Kabul,2018-02-17
Zaranj,AF,,AFZAJ,ZAJ,Zaranj,,30.9596,61.8604,Asia/Kabul,2018-02-13
Antigua,AG,,AGANU,ANU,V. C. Bird International Airport,,17.1367,-61.7927,America/Antigua,2016-11-29
Barbuda,AG,,AGBBQ,BBQ,Barbuda Codrington Airport,,17.6361,-61.8263,America/Antigua,2013-06-30
Anguilla,AI,,AIAXA,AXA,Clayton J. Lloyd International Airport,,18.2048,-63.0551,America/Anguilla,2013-03-31
Ai-Ais,,,AIW,AIW,Ai-Ais,,-27.9167,17.4833,Africa/Windhoek,2012-01-17
Tirana,AL,,ALTIA,TIA,Tirana International Airport Nene Tereza,,41.4219,19.7130,Europe/Tirane,2018-03-20
Yerevan,AM,ER,AMEVN,EVN,Zvartnots International Airport,4011N 04431E,40.1525,44.4022,Asia/Yerevan,2013-05-11
Gyumri,AM,,AMLWN,LWN,Gyumri,4048N 04350E,40.7942,43.8453,Asia/Yerevan,2019-09-05
Andulo,AO,,AOANL,ANL,Andulo Airport,,-11.4725,16.7113,Africa/Luanda,2013-06-07
N'Zeto,AO,,AOARZ,ARZ,N'zeto,,-7.2312,12.8666,Africa/Luanda,2017-07-07
Ambriz,AO,,AOAZZ,AZZ,Ambriz Airport,,-7.8622,13.1161,Africa/Luanda,2011-03-17
Benguela,AO,,AOBUG,BUG,Monbaca Benguela,,-12.6090,13.4037,Africa/Luanda,2007-01-03
Cabinda,AO,,AOCAB,CAB,Cabinda Airport,,-5.5970,12.1883,Africa/Luanda,2011-03-28
Cazombo,AO,,AOCAV,CAV,Cazombo Airport,,-11.8931,22.9164,Africa/Luanda,2011-03-17
Catumbela,AO,,AOCBT,CBT,Catumbela Airport,,-12.4792,13.4869,Africa/Luanda,2016-10-25
Waku Kungo,AO,,AOCEO,CEO,Uacu Cungo,1121S 01507E,-11.3567,15.1172,Africa/Luanda,2015-04-24
Cafunfo,AO,,AOCFF,CFF,Cafunfo Airport,,-8.7836,17.9897,Africa/Luanda,2011-03-17
Cangamba,AO,,AOCNZ,CNZ,Cangamba,,-13.6833,19.8667,Africa/Luanda,2018-10-09
Cuito Cuanavale,AO,,AOCTI,CTI,Cuito Cuanavale Airport,,-15.1603,19.1561,Africa/Luanda,2011-03-17
Dirico,AO,,AODRC,DRC,Dirico Airport,,-17.9819,20.7681,Africa/Luanda,2011-03-17
Dundo,AO,,AODUE,DUE,Dundo,,-7.3664,20.8156,Africa/Luanda,2017-05-07
Lumbala,AO,,AOGGC,GGC,Lumbala Nguimbo,,-14.1016,21.4353,Africa/Luanda,2013-06-16
Negage,AO,,AOGXG,GXG,Mbanza Negage,,-7.7887,15.2721,Africa/Luanda,2012-01-17
Jamba,AO,,AOJMB,JMB,Ndjamba,,-14.6873,16.0342,Africa/Luanda,2012-01-17
Capanda,AO,,AOKNP,KNP,Capanda,,-9.7731,15.4486,Africa/Luanda,2012-05-05
Luanda,AO,,AOLAD,LAD,Luanda,,-8.8368,13.2343,Africa/Luanda,2019-09-05
Lukapa,AO,,AOLBZ,LBZ,Lucapa Airport,,-8.4415,20.7320,Africa/Luanda,2013-05-13
Luena,AO,,AOLUO,LUO,Luena Airport,,-11.7681,19.8977,Africa/Luanda,2011-02-17
Luzamba,AO,,AOLZM,LZM,Luzamba Airport,,-9.1159,18.0489,Africa/Luanda,2014-04-13
Malange,AO,,AOMEG,MEG,Malanje Airport,,-9.5251,16.3124,Africa/Luanda,2011-02-17
Namibe,AO,,AOMSZ,MSZ,Mocamedes,,-15.1961,12.1522,Africa/Luanda,2020-08-01
Sumbe,AO,,AONDD,NDD,Sumbe Airport,,-11.1679,13.8475,Africa/Luanda,2011-02-17
N'dalatando,AO,CNO,AONDF,NDF,N'dalatando,0918S 01455E,-9.2978,14.9116,Africa/Luanda,2017-05-07
Huambo,AO,,AONOV,NOV,Albano Machado Airport,,-12.8089,15.7606,Africa/Luanda,2013-05-12
Nzagi,AO,,AONZA,NZA,Nzagi Airport,,-7.7166,21.3583,Africa/Luanda,2012-04-01
Porto Amboim,AO,,AOPBN,PBN,Porto Amboim Airport,,-10.7220,13.7655,Africa/Luanda,2014-08-16
Chitato,AO,,AOPGI,PGI,Chitato Airport,,-7.3587,20.8050,Africa/Luanda,2013-05-09
Lubango,AO,,AOSDD,SDD,Lubango Airport,,-14.9247,13.5750,Africa/Luanda,2014-08-15
Menongue,AO,,AOSPP,SPP,Menongue Airport,,-14.6576,17.7198,Africa/Luanda,2011-02-17
M'banza Congo,AO,,AOSSY,SSY,Mbanza Kongo,,-6.2667,14.2383,Africa/Luanda,2020-07-08
Kuito,AO,,AOSVP,SVP,Bie Silva Porto,,-12.4046,16.9474,Africa/Luanda,2007-01-03
Soyo,AO,,AOSZA,SZA,Soio,,-6.1349,12.3689,Africa/Luanda,2018-01-15
Luau,AO,,AOUAL,UAL,Luau Airport,,-10.7158,22.2311,Africa/Luanda,2011-02-17
Uíge,AO,,AOUGO,UGO,Uige,0737S 01503E,-7.6087,15.0613,Africa/Luanda,2017-05-07
Saurimo,AO,,AOVHC,VHC,Saurimo Airport,,-9.6891,20.4319,Africa/Luanda,2011-02-17
Ongiva,AO,,AOVPE,VPE,Ondjiva,,-17.0667,15.7333,Africa/Luanda,2012-01-17
Xangongo,AO,,AOXGN,XGN,Xangongo,,-16.7500,14.9833,Africa/Luanda,2012-01-17
Teniente R. Marsh,AQ,,AQTNM,TNM,King George Island,6213S 05855W,-62.0000,-58.1000,Antarctica/Palmer,2017-07-02
Jorge Newbury Apt/Buenos Aires,AR,B,ARAEP,AEP,Jorge Newbery Airport,,-34.5592,-58.4156,America/Argentina/Buenos_Aires,2017-05-08
San Rafael,AR,M,ARAFA,AFA,San Rafael,,-34.6177,-68.3301,America/Argentina/Mendoza,2016-01-30
Paso de los Libres,AR,W,ARAOL,AOL,Paso de los Libres,,-29.7125,-57.0877,America/Argentina/Cordoba,2015-04-22
Zapala,AR,Q,ARAPZ,APZ,Zapala,,-38.8992,-70.0544,America/Argentina/Salta,2015-04-22
Alto Río Senguerr,AR,U,ARARR,ARR,Alto Rio Senguer,4502S 07050W,-45.0410,-70.8198,America/Argentina/Catamarca,2020-06-10
Bahía Blanca,AR,B,ARBHI,BHI,Comandante Espora Airport,3843S 06217W,-38.7287,-62.1530,America/Argentina/Buenos_Aires,2015-09-05
San Carlos de Bariloche,AR,R,ARBRC,BRC,Bariloche Aerodrome,4109S 07118W,-41.1512,-71.1575,America/Argentina/Salta,2015-04-22
Buenos Aires,AR,C,ARBUE,BUE,Buenos Aires,3435S 05840W,-34.6131,-58.3772,America/Argentina/Buenos_Aires,2019-09-05
Caballito,AR,B,ARCAB,CAB,Ciudad Autonoma de Buenos Aires,3437S 05827W,-34.6000,-58.4500,America/Argentina/Buenos_Aires,2019-03-14
Colonia Catriel,AR,R,ARCCT,CCT,Catriel,,-37.8791,-67.7956,America/Argentina/Salta,2016-03-06
Clorinda,AR,F,ARCLX,CLX,Clorinda,,-25.2848,-57.7185,America/Argentina/Cordoba,2016-01-30
Corrientes,AR,W,ARCNQ,CNQ,Corrientes,,-27.4678,-58.8344,America/Argentina/Cordoba,2019-09-05
Charata,AR,H,ARCNT,CNT,Charata,,-27.2144,-61.1880,America/Argentina/Cordoba,2016-01-30
Concordia,AR,E,ARCOC,COC,Concordia,,-31.3930,-58.0209,America/Argentina/Cordoba,2016-01-30
Córdoba,AR,X,ARCOR,COR,Cordoba,3124S 06411W,-31.4135,-64.1810,America/Argentina/Cordoba,2019-09-05
San Martín de los Andes,AR,Q,ARCPC,CPC,San Martin de los Andes,4010S 07121W,-40.1579,-71.3534,America/Argentina/Salta,2015-04-22
Carmen de Patagones,AR,B,ARCPG,CPG,Carmen de Patagones,,-40.7983,-62.9810,America/Argentina/Buenos_Aires,2016-01-30
Comodoro Rivadavia,AR,U,ARCRD,CRD,Comodoro Rivadavia,,-45.8641,-67.4966,America/Argentina/Rio_Gallegos,2019-09-09
Ceres,AR,S,ARCRR,CRR,Ceres,,-29.8810,-61.9450,America/Argentina/Cordoba,2020-04-05
Coronel Suarez,AR,B,ARCSZ,CSZ,Coronel Suarez,3728S 06155W,-37.4547,-61.9334,America/Argentina/Buenos_Aires,2016-03-06
Catamarca,AR,K,ARCTC,CTC,San Fernando del Valle de Catamarca,,-28.4696,-65.7852,America/Argentina/Catamarca,2016-01-30
Cutral-Có,AR,Q,ARCUT,CUT,Cutral-Co,3856S 06914W,-38.9342,-69.2305,America/Argentina/Salta,2015-12-09
Caviahue,AR,Q,ARCVH,CVH,Caviahue Airport,,-37.8514,-71.0092,America/Argentina/Salta,2016-01-30
Caleta Olivia,AR,Z,ARCVI,CVI,Caleta Olivia Airport,,-46.3722,-67.5855,America/Argentina/Rio_Gallegos,2016-01-30
Ensenada,AR,B,AREEA,EEA,Instituto Nacional de Tecnologia Agropecuaria Estacion Experimental Agropecuaria Delta del Parana,3452S 05753W,-34.1749,-58.8630,America/Argentina/Buenos_Aires,2016-06-22
El Bolsón,AR,R,AREHL,EHL,El Bolson,4158S 07131W,-41.9605,-71.5334,America/Argentina/Salta,2016-01-30
Eldorado,AR,N,ARELO,ELO,Eldorado,,-26.4048,-54.6248,America/Argentina/Cordoba,2015-04-22
El Maitén,AR,U,AREMX,EMX,El Maiten,4203S 07110W,-42.0492,-71.1669,America/Argentina/Catamarca,2017-03-25
El Palomar,AR,B,AREPA,EPA,El Palomar,3432S 05836W,-34.5417,-58.6153,America/Argentina/Buenos_Aires,2017-03-24
Esquel,AR,U,AREQS,EQS,Esquel,,-42.9115,-71.3195,America/Argentina/Catamarca,2015-04-22
Ministro Pistarini Apt/Buenos Aires,AR,B,AREZE,EZE,Buenos Aires - Ministro Pistarini International Airport,3450S 05831W,-34.8222,-58.5358,America/Argentina/Buenos_Aires,2017-09-21
Formosa,AR,P,ARFMA,FMA,Formosa,,-26.1849,-58.1731,America/Argentina/Cordoba,2018-11-30
El Calafate,AR,Z,ARFTE,FTE,El Calafate,5016S 07203W,-50.3407,-72.2768,America/Argentina/Rio_Gallegos,2017-07-20
Gobernador Gregores,AR,Z,ARGGS,GGS,Gobernador Gregores,,-48.7506,-70.2474,America/Argentina/Rio_Gallegos,2016-01-30
Gualeguaychú,AR,E,ARGHU,GHU,Gualeguaychu,3301S 05831W,-33.0094,-58.5172,America/Argentina/Cordoba,2016-01-30
General Roca,AR,R,ARGNR,GNR,General Roca,3902S 06735W,-39.0333,-67.5833,America/Argentina/Salta,2015-04-22
General Pico,AR,L,ARGPO,GPO,General Pico,,-35.6566,-63.7568,America/Argentina/Salta,2016-01-30
Chos Malal,AR,Q,ARHOS,HOS,Chos Malal,,-37.3781,-70.2708,America/Argentina/Salta,2020-07-14
Ingeniero Jacobacci,AR,R,ARIGB,IGB,Ingeniero Jacobacci,,-41.3292,-69.5502,America/Argentina/Salta,2016-01-30
Iguazú,AR,N,ARIGR,IGR,Puerto Iguazu,2534S 05434W,-25.5991,-54.5735,America/Argentina/Cordoba,2015-04-22
Lago Argentino,AR,Z,ARING,ING,Lago Argentino Aerodrome,,-50.3333,-72.3000,America/Argentina/Rio_Gallegos,2017-09-16
La Rioja,AR,F,ARIRJ,IRJ,La Rioja,,-29.4110,-66.8507,America/Argentina/La_Rioja,2019-09-05
Junín,AR,B,ARJNI,JNI,Junin,3435S 06058W,-34.5838,-60.9433,America/Argentina/Buenos_Aires,2015-04-22
José de San Martín,AR,U,ARJSM,JSM,Jose de San Martin,4402S 07029W,-44.0503,-70.4697,America/Argentina/Catamarca,2017-03-25
Jujuy,AR,Y,ARJUJ,JUJ,San Salvador de Jujuy,,-24.1946,-65.2971,America/Argentina/Jujuy,2019-09-05
La Cumbre,AR,X,ARLCM,LCM,La Cumbre,,-30.9820,-64.4914,America/Argentina/Cordoba,2016-01-30
Loncopué,AR,Q,ARLCP,LCP,Loncopue,3804S 07037W,-38.0728,-70.6161,America/Argentina/Salta,2017-03-25
Malargüe,AR,M,ARLGS,LGS,Malarguee,3528S 06935W,-35.4755,-69.5843,America/Argentina/Mendoza,2016-01-30
Las Heras,AR,Z,ARLHS,LHS,Las Heras,,-46.5419,-68.9359,America/Argentina/Rio_Gallegos,2016-01-30
Las Lomitas,AR,P,ARLLS,LLS,Las Lomitas,,-24.7096,-60.5930,America/Argentina/Cordoba,2016-01-30
Los Menucos,AR,R,ARLMD,LMD,Los Menucos,,-40.8440,-68.0872,America/Argentina/Salta,2016-01-30
La Plata,AR,B,ARLPG,LPG,La Plata,3451S 05753W,-34.9215,-57.9545,America/Argentina/Buenos_Aires,2019-09-05
San Luis,AR,D,ARLUQ,LUQ,San Luis,3318S 06621W,-33.2950,-66.3356,America/Argentina/San_Luis,2016-09-05
Monte Caseros,AR,W,ARMCS,MCS,Monte Caseros,,-30.2536,-57.6363,America/Argentina/Cordoba,2015-04-22
Mar del Plata,AR,B,ARMDQ,MDQ,Mar del Plata,3803S 05732W,-38.0004,-57.5562,America/Argentina/Buenos_Aires,2019-09-05
Mercedes,AR,W,ARMDX,MDX,Mercedes,,-29.1842,-58.0752,America/Argentina/Cordoba,2015-06-15
Mendoza,AR,M,ARMDZ,MDZ,Mendoza,,-32.8908,-68.8272,America/Argentina/Mendoza,2020-07-08
Miramar,AR,B,ARMJR,MJR,Miramar,,-38.2716,-57.8389,America/Argentina/Buenos_Aires,2016-01-30
Maquinchao,AR,R,ARMQD,MQD,Maquinchao,,-41.2491,-68.7032,America/Argentina/Salta,2019-03-24
Necochea,AR,B,ARNEC,NEC,Necochea,,-38.5545,-58.7396,America/Argentina/Buenos_Aires,2016-01-27
Neuquén,AR,Q,ARNQN,NQN,Neuquen,3857S 06804W,-38.9516,-68.0591,America/Argentina/Salta,2020-06-10
San Antonio Oeste,AR,R,AROES,OES,San Antonio Oeste,,-40.7319,-64.9477,America/Argentina/Salta,2016-01-30
Colonia Sarmiento,AR,U,AROLN,OLN,Sarmiento,,-45.5881,-69.0700,America/Argentina/Catamarca,2017-02-07
Oran,AR,A,ARORA,ORA,San Ramon de la Nueva Oran,,-23.1370,-64.3243,America/Argentina/Salta,2016-01-30
Goya,AR,W,AROYA,OYA,Goya,,-29.1399,-59.2634,America/Argentina/Cordoba,2018-11-30
Tres Arroyos,AR,B,AROYO,OYO,Tres Arroyos,3823S 06017W,-38.3739,-60.2798,America/Argentina/Buenos_Aires,2015-04-22
Pehuajó,AR,B,ARPEH,PEH,Pehuajo,3549S 06154W,-35.8108,-61.8968,America/Argentina/Buenos_Aires,2015-04-22
Perito Moreno,AR,Z,ARPMQ,PMQ,Perito Moreno,,-46.5900,-70.9297,America/Argentina/Rio_Gallegos,2016-01-30
Puerto Madryn,AR,U,ARPMY,PMY,Puerto Madryn,4245S 06502W,-42.7692,-65.0385,America/Argentina/Catamarca,2016-01-30
Paraná,AR,E,ARPRA,PRA,Parana,3144S 06032W,-31.7327,-60.5290,America/Argentina/Cordoba,2018-11-30
Presidente Roque Sáenz Peña,AR,H,ARPRQ,PRQ,Presidencia Roque Saenz Pena,3433S 05830W,-26.7852,-60.4388,America/Argentina/Cordoba,2016-10-30
Posadas,AR,N,ARPSS,PSS,Posadas,,-27.3671,-55.8961,America/Argentina/Cordoba,2015-04-22
Puerto Deseado,AR,Z,ARPUD,PUD,Puerto Deseado,4745S 06554W,-47.7503,-65.8938,America/Argentina/Rio_Gallegos,2016-01-30
Olivos,AR,B,ARQLV,QLV,Olivos,,-34.5075,-58.4870,America/Argentina/Buenos_Aires,2015-04-22
Pinamar,AR,B,ARQPQ,QPQ,Pinamar,,-37.1080,-56.8614,America/Argentina/Buenos_Aires,2016-01-30
Rafaela,AR,S,ARRAF,RAF,Rafaela Airport,3116S 06129W,-31.2833,-61.5000,America/Argentina/Cordoba,2016-01-30
Reconquista,AR,S,ARRCQ,RCQ,Reconquista,2909S 05939W,-29.1500,-59.6500,America/Argentina/Cordoba,2018-03-27
Río Cuarto,AR,X,ARRCU,RCU,Rio Cuarto,3308S 06421W,-33.1307,-64.3499,America/Argentina/Cordoba,2015-04-22
Rincón de los Sauces,AR,Q,ARRDS,RDS,Rincon De Los Sauces Airport,,-37.3906,-68.9042,America/Argentina/Salta,2016-01-30
Trelew,AR,U,ARREL,REL,Trelew,,-43.2490,-65.3050,America/Argentina/Catamarca,2016-01-30
Resistencia,AR,H,ARRES,RES,Resistencia,,-27.4606,-58.9839,America/Argentina/Cordoba,2016-01-30
Río Grande,AR,V,ARRGA,RGA,Rio Grande,5347S 06742W,-53.7877,-67.7095,America/Argentina/Ushuaia,2017-12-21
Río Gallegos,AR,Z,ARRGL,RGL,Rio Gallegos,5138S 06913W,-51.6226,-69.2181,America/Argentina/Rio_Gallegos,2020-06-10
Río Hondo,AR,G,ARRHD,RHD,Termas de Rio Hondo,2734S 06457W,-27.4936,-64.8597,America/Argentina/Cordoba,2017-03-25
Merlo,AR,D,ARRLO,RLO,Merlo,3221S 06501W,-32.3429,-65.0140,America/Argentina/San_Luis,2019-03-24
Rosario,AR,S,ARROS,ROS,Rosario International Airport,3257S 06039W,-32.9036,-60.7850,America/Argentina/Cordoba,2016-01-30
Río Mayo,AR,U,ARROY,ROY,Rio Mayo,4541S 07016W,-45.6857,-70.2580,America/Argentina/Catamarca,2020-06-10
Santa Rosa,AR,L,ARRSA,RSA,Santa Rosa,,-36.6167,-64.2833,America/Argentina/Salta,2016-01-30
Río Turbio,AR,Z,ARRYO,RYO,Rio Turbio Airport,5132S 07218W,-51.6055,-72.2176,America/Argentina/Rio_Gallegos,2016-01-30
Santa Cruz,AR,Z,ARRZA,RZA,Puerto Santa Cruz,5001S 06825W,-50.0191,-68.5232,America/Argentina/Rio_Gallegos,2017-03-25
San Antonio de Arredondo,AR,X,ARSAA,SAA,Rosario International Airport,3129S 06431W,-32.9036,-60.7850,America/Argentina/Cordoba,2016-01-30
San Antonio Este,AR,R,ARSAE,SAE,Buenos Aires - Ministro Pistarini International Airport,4048S 06444W,-34.8222,-58.5358,America/Argentina/Buenos_Aires,2017-09-21
Santa Ana,AR,N,ARSAN,SAN,Coronel Felipe Varela International Airport,2720S 05535W,-28.5932,-65.7509,America/Argentina/Catamarca,2016-10-22
San Antonio de Areco,AR,B,ARSAO,SAO,Rio Tercero,3415S 05928W,-32.1667,-64.0833,America/Argentina/Cordoba,2016-01-30
Sarandi,AR,B,ARSAR,SAR,Corrientes International Airport,3440S 05820W,-27.4455,-58.7619,America/Argentina/Cordoba,2016-11-29
San Martin,AR,B,ARSAT,SAT,Clorinda Airport,3434S 05831W,-25.3000,-57.7333,America/Argentina/Cordoba,2020-04-05
Santiago del Estero,AR,G,ARSDE,SDE,Santiago del Estero,,-27.7951,-64.2615,America/Argentina/Cordoba,2019-09-05
San Fernando,AR,B,ARSFE,SFE,Suipacha y 1 de Mayo", SFE,,-31.6393,-60.7085,America/Argentina/Cordoba,2016-03-17
Santa Fe,AR,S,ARSFN,SFN,Santa Fe,3136S 06041W,-31.6488,-60.7087,America/Argentina/Cordoba,2019-03-21
Sierra Grande,AR,R,ARSGV,SGV,Sierra Grande,,-41.6060,-65.3557,America/Argentina/Salta,2016-01-30
Salta,AR,A,ARSLA,SLA,Salta,,-24.7859,-65.4117,America/Argentina/Salta,2019-09-05
Santa Teresita,AR,B,ARSST,SST,Santa Teresita,,-36.5413,-56.7011,America/Argentina/Buenos_Aires,2016-01-30
Sáenz Peña,AR,B,ARSZQ,SZQ,Presidencia Roque Saenz Pena,3436S 05832W,-26.7852,-60.4388,America/Argentina/Cordoba,2016-10-30
Tandil,AR,B,ARTDL,TDL,Tandil,,-37.3217,-59.1332,America/Argentina/Buenos_Aires,2015-04-22
Tartagal,AR,A,ARTTG,TTG,Tartagal,,-22.5164,-63.8013,America/Argentina/Salta,2016-01-30
Tucumán,AR,T,ARTUC,TUC,San Miguel de Tucuman,2649S 06513W,-26.8241,-65.2226,America/Argentina/Tucuman,2019-09-05
San Juan,AR,J,ARUAQ,UAQ,San Juan,,-31.5375,-68.5364,America/Argentina/San_Juan,2019-09-05
San Julian,AR,Z,ARULA,ULA,San Julian,4918S 06743W,-49.3055,-67.7274,America/Argentina/Rio_Gallegos,2016-01-30
Ushuaia,AR,V,ARUSH,USH,Ushuaia,5448S 06818W,-54.8108,-68.3159,America/Argentina/Ushuaia,2019-09-05
Curuzú Cuatiá,AR,W,ARUZU,UZU,Curuzu Cuatia,2947S 05803W,-29.7917,-58.0546,America/Argentina/Cordoba,2016-01-30
Valcheta,AR,R,ARVCF,VCF,Valcheta,,-40.6799,-66.1628,America/Argentina/Salta,2019-03-24
Viedma,AR,R,ARVDM,VDM,Viedma,,-40.8135,-62.9967,America/Argentina/Salta,2016-01-30
Villa Dolores,AR,X,ARVDR,VDR,Villa Dolores,,-31.9459,-65.1896,America/Argentina/Cordoba,2016-01-30
General Villegas,AR,B,ARVGS,VGS,General Villegas,,-35.0329,-63.0125,America/Argentina/Buenos_Aires,2016-11-29
Villa Gesell,AR,B,ARVLG,VLG,Villa Gesell,,-37.2639,-56.9730,America/Argentina/Buenos_Aires,2016-01-30
Villa Mercedes,AR,D,ARVME,VME,Villa Reynolds Airport,3340S 06528W,-33.7251,-65.3781,America/Argentina/San_Luis,2016-01-30
Pichanal,AR,A,ARXMV,XMV,Pichanal,,-23.3164,-64.2183,America/Argentina/Salta,2016-01-30
Ledesma,AR,Y,ARXMX,XMX,Ledesma,,-23.8333,-64.7500,America/Argentina/Jujuy,2016-01-30
Mosconi,AR,A,ARXOS,XOS,General Mosconi,,-22.5959,-63.8126,America/Argentina/Salta,2020-04-05
San Pedro,AR,Y,ARXPD,XPD,San Pedro de Jujuy,,-24.2313,-64.8661,America/Argentina/Jujuy,2020-04-05
Embarcacíon,AR,A,ARZAI,ZAI,Embarcacion,2313S 06406W,-23.2100,-64.0996,America/Argentina/Salta,2015-05-23
Fitiuta,AS,,ASFTI,FTI,Fitiuta,,-14.2167,-169.4249,Pacific/Pago_Pago,2015-05-02
Ofu,AS,,ASOFU,OFU,Ofu,,-14.1753,-169.6775,Pacific/Pago_Pago,2012-02-03
Pago Pago,AS,,ASPPG,PPG,Pago Pago,1416N 17042W,-14.2781,-170.7025,Pacific/Pago_Pago,2019-09-05
Tau,AS,,ASTAV,TAV,Tau Airport,,-14.2292,-169.5111,Pacific/Pago_Pago,2017-10-14
Sankt Anton,AT,7,ATANT,ANT,St Anton am Arlberg,4707N 01016E,47.1275,10.2637,Europe/Vienna,2018-07-29
Gloggnitz,AT,3,ATGGZ,GGZ,Graz Hauptbahnhof,4740N 01556E,47.0732,15.4164,Europe/Vienna,2015-12-05
Graz,AT,6,ATGRZ,GRZ,Graz,4704N 01527E,47.0667,15.4500,Europe/Vienna,2019-09-05
Hohenems,AT,8,ATHOH,HOH,Hohenems,4722N 00941E,47.3667,9.6831,Europe/Vienna,2018-07-28
Innsbruck,AT,7,ATINN,INN,Innsbruck,4716N 01124E,47.2627,11.3945,Europe/Vienna,2019-09-05
Klagenfurt,AT,2,ATKLU,KLU,Klagenfurt Airport,4637N 01418E,46.6450,14.3267,Europe/Vienna,2015-12-06
Linz,AT,4,ATLNZ,LNZ,Linz,4818N 01418E,48.3064,14.2861,Europe/Vienna,2019-09-05
Loimersdorf,AT,,ATLOI,LOI,Hohenems-Dornbirn Airport,4810N 01650E,47.3833,9.6988,Europe/Vienna,2018-07-29
Losenstein,AT,4,ATLOS,LOS,Mauterndorf Airport,4755N 01426E,47.1320,13.6958,Europe/Vienna,2014-05-04
Micheldorf am Kienberge,AT,4,ATMAK,MAK,MAK-Austrian Museum of applied arts,4751N 01408E,48.2078,16.3814,Europe/Vienna,2013-08-12
Wörgl,AT,,ATQXZ,QXZ,Woergl,4729N 01204E,47.4891,12.0617,Europe/Vienna,2018-07-28
Salzburg,AT,5,ATSZG,SZG,Salzburg Airport,4748N 01302E,47.7933,13.0043,Europe/Vienna,2018-07-29
Wien,AT,9,ATVIE,VIE,Vienna International Airport,4812N 01622E,48.1221,16.5575,Europe/Vienna,2017-06-16
Arrabury,AU,QLD,AUAAB,AAB,Arrabury,,-26.7641,141.0285,Australia/Brisbane,2020-10-25
Beulah,AU,VIC,AUABC,ABC,ABC Bore,3556S 14225E,-31.6131,138.6962,Australia/Adelaide,2014-04-09
Abingdon,AU,QLD,AUABG,ABG,Abingdon Downs,,-17.6044,143.1808,Australia/Brisbane,2020-10-25
Alpha,AU,QLD,AUABH,ABH,Alpha,,-23.6491,146.6398,Australia/Brisbane,2019-07-18
Bamaga,AU,QLD,AUABM,ABM,Bamaga,,-10.8920,142.3893,Australia/Brisbane,2019-07-18
Albury,AU,NSW,AUABX,ABX,Albury,3605S 14655E,-36.0748,146.9240,Australia/Sydney,2020-10-25
Adelaide,AU,SA,AUADL,ADL,Adelaide,3455S 13835E,-34.9287,138.5986,Australia/Adelaide,2020-06-19
Andamooka,AU,SA,AUADO,ADO,Andamooka Airport,,-30.4383,137.1370,Australia/Adelaide,2020-10-25
Agnew,AU,QLD,AUAGW,AGW,Agnew Airport,,-12.1456,142.1490,Australia/Brisbane,2013-12-15
Albany,AU,WA,AUALH,ALH,Albany,,-35.0269,117.8837,Australia/Perth,2019-07-21
Amata,AU,NT,AUAMT,AMT,Amata,,-26.1581,131.1483,Australia/Adelaide,2019-07-18
Ammaroo,AU,NT,AUAMX,AMX,Ammaroo,,-21.7365,135.2563,Australia/Darwin,2017-08-19
Angus Downs,AU,NT,AUANZ,ANZ,Angus Downs Stn,,-25.0833,132.1670,Australia/Darwin,2012-05-18
Armidale,AU,NSW,AUARM,ARM,Armidale,,-30.5012,151.6655,Australia/Sydney,2019-07-18
Ararat,AU,VIC,AUARY,ARY,Ararat,,-37.2854,142.9273,Australia/Melbourne,2019-07-18
Alice Springs,AU,NT,AUASP,ASP,Alice Springs,,-23.6975,133.8836,Australia/Darwin,2019-07-20
Augustus Downs,AU,QLD,AUAUD,AUD,Augustus Downs,,-18.5447,139.8705,Australia/Brisbane,2020-09-17
Aurukun Mission,AU,QLD,AUAUU,AUU,Aurukun,,-13.3558,141.7271,Australia/Brisbane,2019-07-18
Auvergne,AU,NT,AUAVG,AVG,Auvergne Station,,-15.6836,130.0097,Australia/Darwin,2019-05-22
Avalon,AU,VIC,AUAVV,AVV,Avalon Airport,,-38.0394,144.4694,Australia/Melbourne,2017-09-02
Austral Downs,AU,NT,AUAWP,AWP,Austral Downs,,-20.5019,137.7737,Australia/Darwin,2017-04-29
Aramac,AU,QLD,AUAXC,AXC,Aramac,,-22.9683,145.2450,Australia/Brisbane,2019-07-18
Alexandria,AU,NT,AUAXL,AXL,Alexandria,,-19.0571,136.7068,Australia/Darwin,2017-08-25
Alroy Downs,AU,NT,AUAYD,AYD,Alroy Downs,,-19.2961,136.0713,Australia/Darwin,2017-08-17
Anthony Lagoon,AU,NT,AUAYL,AYL,Anthony Lagoon,,-17.9768,135.5317,Australia/Darwin,2017-08-19
Ayers Rock,AU,NT,AUAYQ,AYQ,Ayers Rock Airport,,-25.1891,130.9775,Australia/Darwin,2013-11-02
Ayr,AU,QLD,AUAYR,AYR,Ayr,,-19.5739,147.4067,Australia/Brisbane,2019-07-18
Big Bell,AU,WA,AUBBE,BBE,Big Bell Airport,,-27.3286,117.6730,Australia/Perth,2012-04-21
Beelbangera,AU,NSW,AUBBL,BBL,Ballera Airport,3416S 14606E,-27.4000,141.8126,Australia/Brisbane,2013-09-22
Barcaldine,AU,QLD,AUBCI,BCI,Barcaldine,,-23.5535,145.2854,Australia/Brisbane,2019-07-18
Bolwarra,AU,QLD,AUBCK,BCK,Bolwarra,,-17.4000,144.1833,Australia/Brisbane,2019-05-22
Bickerton Island,AU,NT,AUBCZ,BCZ,Bickerton Island,,-13.7553,136.2025,Australia/Darwin,2020-06-26
Bundaberg,AU,QLD,AUBDB,BDB,Bundaberg,,-24.8662,152.3479,Australia/Brisbane,2013-06-25
Badu Island,AU,QLD,AUBDD,BDD,Badu Island,,-10.1156,142.1447,Australia/Brisbane,2017-07-18
Beagle Bay,AU,WA,AUBEE,BEE,Beagle Bay Airport,,-17.0162,122.6471,Australia/Perth,2017-10-28
Belmont,AU,NSW,AUBEO,BEO,Aeropelican Airport,,-33.0667,151.6480,Australia/Sydney,2011-06-04
Bedourie,AU,QLD,AUBEU,BEU,Bedourie,,-24.3637,139.4653,Australia/Brisbane,2019-07-18
Bloomfield,AU,QLD,AUBFC,BFC,Bloomfield Airport,,-15.8736,145.3300,Australia/Brisbane,2017-10-28
Broken Hill,AU,NSW,AUBHQ,BHQ,Broken Hill,,-31.9652,141.4512,Australia/Broken_Hill,2019-07-18
Bathurst,AU,NSW,AUBHS,BHS,Bathurst,,-33.4166,149.5806,Australia/Sydney,2019-07-20
Brighton Downs,AU,QLD,AUBHT,BHT,Brighton Downs,,-23.3606,141.5624,Australia/Brisbane,2017-09-27
Billiluna,AU,WA,AUBIW,BIW,Mindibungu,,-19.5558,127.6613,Australia/Perth,2017-06-30
Blackall,AU,QLD,AUBKQ,BKQ,Blackall,,-24.4233,145.4630,Australia/Brisbane,2019-07-18
Benalla,AU,VIC,AUBLN,BLN,Benalla,,-36.5511,145.9843,Australia/Melbourne,2019-07-18
Bollon,AU,QLD,AUBLS,BLS,Bollon,,-28.0333,147.4833,Australia/Brisbane,2019-07-18
Blackwater,AU,QLD,AUBLT,BLT,Blackwater,,-23.5835,148.8791,Australia/Brisbane,2019-07-18
Broome,AU,WA,AUBME,BME,Broome,,-17.9554,122.2392,Australia/Perth,2019-07-18
Brampton,AU,QLD,AUBMP,BMP,Brampton Island,,-20.8079,149.2734,Australia/Brisbane,2018-10-10
Brisbane,AU,QLD,AUBNE,BNE,Brisbane,2728S 15301E,-27.4679,153.0281,Australia/Brisbane,2019-09-05
Ballina,AU,NSW,AUBNK,BNK,Ballina,,-28.8641,153.5654,Australia/Sydney,2019-07-18
Borroloola,AU,NT,AUBOX,BOX,Borroloola,,-16.0697,136.3080,Australia/Darwin,2019-07-18
Boulia,AU,QLD,AUBQL,BQL,Boulia,,-22.9114,139.9093,Australia/Brisbane,2019-07-18
Balgo Hills,AU,WA,AUBQW,BQW,Balgo Hill,,-20.1429,127.9840,Australia/Perth,2013-05-08
Bourke,AU,NSW,AUBRK,BRK,Bourke,,-30.0901,145.9365,Australia/Sydney,2020-01-17
Bathurst Island,AU,NT,AUBRT,BRT,Bathurst Island,,-11.7356,130.4345,Australia/Darwin,2016-11-27
Bairnsdale,AU,VIC,AUBSJ,BSJ,Bairnsdale,,-37.8229,147.6104,Australia/Melbourne,2020-08-07
Brunette Downs,AU,NT,AUBTD,BTD,Brunette Downs,,-18.6395,135.9482,Australia/Darwin,2017-09-05
Betoota,AU,QLD,AUBTX,BTX,Betoota,,-25.6971,140.7465,Australia/Brisbane,2013-11-09
Burketown,AU,QLD,AUBUC,BUC,Burketown,1744S 13932E,-17.7411,139.5477,Australia/Brisbane,2019-07-18
Bunbury,AU,WA,AUBUY,BUY,Bunbury,,-33.3271,115.6414,Australia/Perth,2019-07-20
Birdsville,AU,QLD,AUBVI,BVI,Birdsville,,-25.8980,139.3517,Australia/Brisbane,2019-07-18
Batavia Downs,AU,QLD,AUBVW,BVW,Batavia Downs Airport,,-12.6592,142.6750,Australia/Brisbane,2017-08-04
Beverley Springs,AU,WA,AUBVZ,BVZ,Beverley Springs Airport,,-16.7333,125.4330,Australia/Perth,2011-06-04
Barrow Island,AU,WA,AUBWB,BWB,Barrow Island,,-20.7799,115.4031,Australia/Perth,2017-07-18
Brewarrina,AU,NSW,AUBWQ,BWQ,Brewarrina,,-29.9607,146.8599,Australia/Sydney,2019-07-18
Burnie,AU,TAS,AUBWT,BWT,Burnie,,-41.0558,145.9038,Australia/Hobart,2019-07-21
Bankstown,AU,NSW,AUBWU,BWU,Bankstown,,-33.9167,151.0333,Australia/Sydney,2019-07-18
Bowen Hills,AU,QLD,AUBWW,BWW,Toowoomba Wellcamp Airport,2726S 15302E,-27.5589,151.7959,Australia/Brisbane,2017-11-03
Beauty Point,AU,TAS,AUBYP,BYP,Barimunya,,-22.7057,119.1167,Australia/Perth,2013-06-15
Baniyala,AU,NT,AUBYX,BYX,Baniyala Airport,,-13.1981,136.2270,Australia/Darwin,2011-06-04
Balranald,AU,NSW,AUBZD,BZD,Balranald,,-34.6365,143.5614,Australia/Sydney,2019-07-18
Bizant,AU,QLD,AUBZP,BZP,Bizant,,-15.2167,144.6330,Australia/Brisbane,2012-05-18
Caloundra Head,AU,QLD,AUCAL,CAL,McCALLUM PARK,,-30.5153,142.9021,Australia/Sydney,2014-04-09
Cobar,AU,NSW,AUCAZ,CAZ,Cobar,,-31.4967,145.8344,Australia/Sydney,2019-07-18
Cherrabun,AU,WA,AUCBC,CBC,Cherrabun Airfield,,-18.9173,125.5365,Australia/Perth,2017-08-06
Carabooda,AU,WA,AUCBD,CBD,Sydney Central Business District,3136S 11542E,-33.8648,151.2077,Australia/Sydney,2019-07-20
Cape Barren Island,AU,TAS,AUCBI,CBI,Cape Barren Island Airport,,-40.3902,148.0180,Australia/Hobart,2016-11-27
Canberra,AU,ACT,AUCBR,CBR,Canberra,,-35.2835,149.1281,Australia/Sydney,2019-09-05
Condobolin,AU,NSW,AUCBX,CBX,Condobolin,,-33.0888,147.1514,Australia/Sydney,2019-07-18
Canobie,AU,QLD,AUCBY,CBY,Canobie,,-19.4833,140.9333,Australia/Brisbane,2017-06-18
Chinchilla,AU,QLD,AUCCL,CCL,Chinchilla,,-26.7379,150.6297,Australia/Brisbane,2019-07-18
Cowell,AU,SA,AUCCW,CCW,Cowell,,-33.6823,136.9212,Australia/Adelaide,2019-07-18
Cooinda,AU,NT,AUCDA,CDA,Cooinda Airport,,-12.9033,132.5320,Australia/Darwin,2011-06-04
Croydon,AU,QLD,AUCDQ,CDQ,Croydon,,-18.2043,142.2446,Australia/Brisbane,2019-07-18
Camden,AU,NSW,AUCDU,CDU,Camden,,-34.0540,150.6962,Australia/Sydney,2019-07-18
Ceduna,AU,SA,AUCED,CED,Ceduna,,-32.1266,133.6727,Australia/Adelaide,2019-07-18
Cessnock,AU,NSW,AUCES,CES,Cessnock,,-32.8321,151.3562,Australia/Sydney,2019-07-18
Clifton Hills,AU,SA,AUCFH,CFH,Clifton Hills Station,,-27.0180,138.8940,Australia/Adelaide,2017-09-17
Camfield,AU,NT,AUCFI,CFI,Camfield Airport,,-17.0217,131.3270,Australia/Darwin,2019-05-22
Carpentaria Downs,AU,QLD,AUCFP,CFP,Carpentaria Downs,,-18.7181,144.3178,Australia/Brisbane,2017-10-29
Coffs Harbour,AU,NSW,AUCFS,CFS,Coffs Harbour,,-30.2963,153.1135,Australia/Sydney,2019-07-18
Caiguna,AU,WA,AUCGV,CGV,Caiguna Airport,,-32.2810,125.4780,Australia/Perth,2017-09-08
Collie,AU,WA,AUCIE,CIE,Collie,,-33.3621,116.1562,Australia/Perth,2019-07-18
Croker Island,AU,NT,AUCKI,CKI,Croker Island,,-11.1727,132.5267,Australia/Darwin,2020-06-26
Coolah,AU,NSW,AUCLH,CLH,Coolah,,-31.8279,149.7156,Australia/Sydney,2019-07-18
Cunnamulla,AU,QLD,AUCMA,CMA,Cunnamulla,,-28.0677,145.6844,Australia/Brisbane,2019-07-18
Cootamundra,AU,NSW,AUCMD,CMD,Cootamundra,,-34.6409,148.0284,Australia/Sydney,2019-07-18
Camooweal,AU,QLD,AUCML,CML,Camooweal,,-19.9215,138.1201,Australia/Brisbane,2019-07-18
Clermont,AU,QLD,AUCMQ,CMQ,Clermont,,-22.8241,147.6363,Australia/Brisbane,2019-07-18
Coonamble,AU,NSW,AUCNB,CNB,Coonamble,,-30.9539,148.3888,Australia/Sydney,2019-07-18
Coconut Island,AU,QLD,AUCNC,CNC,Coconut Island,,-10.0501,143.0690,,2018-10-11
Cloncurry,AU,QLD,AUCNJ,CNJ,Cloncurry,,-20.7072,140.5130,Australia/Brisbane,2019-07-18
Cairns,AU,QLD,AUCNS,CNS,Cairns,,-16.9237,145.7661,Australia/Brisbane,2019-05-22
Coonabarabran,AU,NSW,AUCOJ,COJ,Coonabarabran,,-31.2773,149.2790,Australia/Sydney,2019-07-18
Coolawanyah,AU,WA,AUCOY,COY,Coolawanyah,,-21.8051,117.8061,Australia/Perth,2014-01-25
Coober Pedy,AU,SA,AUCPD,CPD,Coober Pedy,,-29.0142,134.7550,Australia/Adelaide,2019-07-18
Cape Flattery,AU,QLD,AUCQP,CQP,Cape Flattery Airport,,-14.9710,145.3110,Australia/Brisbane,2017-10-28
Collarenebri,AU,NSW,AUCRB,CRB,Collarenebri,,-29.5438,148.5759,Australia/Sydney,2019-07-18
Cherribah,AU,QLD,AUCRH,CRH,Cherrabah,,-27.6500,151.9500,Australia/Brisbane,2012-05-18
Coorabie,AU,SA,AUCRJ,CRJ,Coorabie,,-31.8998,132.2953,Australia/Adelaide,2014-04-08
Carlton Hill,AU,WA,AUCRY,CRY,Carlton Hill,,-15.4866,128.5349,Australia/Perth,2019-05-23
Cresswell Downs,AU,NT,AUCSD,CSD,Cresswell Downs Airport,,-17.9480,135.9160,Australia/Darwin,2011-06-04
Casino,AU,NSW,AUCSI,CSI,Casino,,-28.8582,153.0475,Australia/Sydney,2019-07-18
Charleville,AU,QLD,AUCTL,CTL,Charleville,,-26.4054,146.2427,Australia/Brisbane,2019-07-18
Cooktown,AU,QLD,AUCTN,CTN,Cooktown,,-15.4657,145.2498,Australia/Brisbane,2019-07-18
Cattle Creek,AU,NT,AUCTR,CTR,Cattle Creek Airport,,-17.6070,131.5490,Australia/Darwin,2019-05-22
Caloundra,AU,QLD,AUCUD,CUD,Caloundra,,-26.8035,153.1219,Australia/Brisbane,2019-07-18
Cudal,AU,NSW,AUCUG,CUG,Cudal,,-33.2856,148.7407,Australia/Sydney,2019-07-18
Coen,AU,QLD,AUCUQ,CUQ,Coen,,-13.9456,143.1990,Australia/Brisbane,2019-07-18
Cue,AU,WA,AUCUY,CUY,Cue,,-27.4240,117.8974,Australia/Perth,2019-07-18
Cleve,AU,SA,AUCVC,CVC,Cleve,,-33.7000,136.5000,Australia/Adelaide,2019-07-18
Carnarvon,AU,WA,AUCVQ,CVQ,Carnarvon,,-24.8826,113.6571,Australia/Perth,2019-07-21
Cowarie,AU,SA,AUCWR,CWR,Cowarie,,-27.7025,138.3357,Australia/Adelaide,2017-08-09
Cowra,AU,NSW,AUCWT,CWT,Cowra,,-33.8355,148.6966,Australia/Sydney,2019-07-18
Corowa,AU,NSW,AUCWW,CWW,Corowa,,-35.9970,146.3855,Australia/Sydney,2019-07-18
Christmas Creek,AU,WA,AUCXQ,CXQ,Christmas Creek Airport,,-18.8722,125.9366,Australia/Perth,2016-03-19
Charters Towers,AU,QLD,AUCXT,CXT,Charters Towers,,-20.0767,146.2635,Australia/Brisbane,2012-02-28
Corryong,AU,VIC,AUCYG,CYG,Corryong,,-36.1970,147.9026,Australia/Melbourne,2019-07-18
Cluny,AU,QLD,AUCZY,CZY,Cluny,,-24.5053,139.5866,Australia/Brisbane,2017-09-26
Dauan Island,AU,QLD,AUDAJ,DAJ,Dauan Island,,-9.4232,142.5361,Pacific/Port_Moresby,2018-02-07
Dubbo,AU,NSW,AUDBO,DBO,Dubbo,,-32.2430,148.6048,Australia/Sydney,2019-07-18
Dalby,AU,QLD,AUDBY,DBY,Dalby,,-27.1817,151.2620,Australia/Brisbane,2019-07-18
RAAF Curtin,AU,WA,AUDCN,DCN,Derby RAAF Curtin Base,1734S 12349E,-17.5794,123.8253,Australia/Perth,2013-03-16
Daydream Is,AU,QLD,AUDDI,DDI,Daydream Island,,-20.2567,148.8140,Australia/Lindeman,2019-04-16
Delta Downs,AU,QLD,AUDDN,DDN,Delta Downs,,-17.0000,141.3167,Australia/Brisbane,2017-07-20
Drumduff,AU,QLD,AUDFP,DFP,Drumduff,,-16.0500,143.0167,Australia/Brisbane,2017-09-11
Mudgee,AU,NSW,AUDGE,DGE,Mudgee,,-32.5943,149.5871,Australia/Sydney,2019-07-18
Durham Downs,AU,QLD,AUDHD,DHD,Durham Downs,,-27.0842,141.9061,Australia/Brisbane,2017-08-19
Dajarra,AU,QLD,AUDJR,DJR,Dajarra,2141S 13931E,-21.6959,139.5163,Australia/Brisbane,2019-07-18
Dunk Island,AU,QLD,AUDKI,DKI,Dunk Island,,-17.9437,146.1567,Australia/Brisbane,2018-11-26
Docker River,AU,NT,AUDKV,DKV,Docker River Airport,,-24.8596,129.1193,Australia/Darwin,2017-09-13
Dulkaninna,AU,SA,AUDLK,DLK,Dulkaninna,,-29.0179,138.4575,Australia/Adelaide,2017-06-25
Delissaville,AU,NT,AUDLV,DLV,Delissaville Airport,,-12.5500,130.6850,Australia/Darwin,2011-06-04
Doomadgee,AU,QLD,AUDMD,DMD,Doomadgee Airport,,-17.9401,138.8202,Australia/Brisbane,2015-11-22
Dunbar,AU,QLD,AUDNB,DNB,Dunbar Airport,,-16.0500,142.4000,Australia/Brisbane,2011-06-04
Denham,AU,WA,AUDNM,DNM,Denham,,-25.9268,113.5333,Australia/Perth,2019-07-18
Deniliquin,AU,NSW,AUDNQ,DNQ,Deniliquin,,-35.5324,144.9536,Australia/Sydney,2019-07-18
Dongara,AU,WA,AUDOX,DOX,Dongara,,-29.2582,114.9328,Australia/Perth,2019-07-18
Devonport,AU,TAS,AUDPO,DPO,Devonport,,-41.1769,146.3515,Australia/Hobart,2019-07-18
Derby,AU,WA,AUDRB,DRB,Derby,,-17.3029,123.6286,Australia/Perth,2019-07-18
Dorunda Station,AU,QLD,AUDRD,DRD,Dorunda Airport,,-16.5530,141.8230,Australia/Brisbane,2017-07-16
Dirranbandi,AU,QLD,AUDRN,DRN,Dirranbandi,,-28.5854,148.2255,Australia/Brisbane,2019-07-18
Durrie,AU,QLD,AUDRR,DRR,Durrie,,-25.6486,140.2422,Australia/Brisbane,2017-06-25
Darwin,AU,NT,AUDRW,DRW,Darwin,1227S 13050E,-12.4611,130.8418,Australia/Darwin,2019-09-05
Davenport Downs,AU,QLD,AUDVP,DVP,Davenport Downs,,-24.1526,141.1037,Australia/Brisbane,2017-09-11
Daly River,AU,NT,AUDVR,DVR,Daly River Airport,,-13.7498,130.6939,Australia/Darwin,2019-05-22
Dixie,AU,QLD,AUDXD,DXD,Dixie,,-15.1139,143.3135,Australia/Brisbane,2019-07-18
Dysart,AU,QLD,AUDYA,DYA,Dysart Airport,,-22.6222,148.3640,Australia/Brisbane,2016-10-25
Diamantina Lakes,AU,QLD,AUDYM,DYM,Diamantina Lakes Station,,-23.7636,141.1414,Australia/Brisbane,2017-07-14
Daly Waters,AU,NT,AUDYW,DYW,Daly Waters,,-16.2533,133.3693,Australia/Darwin,2019-07-18
Echuca,AU,VIC,AUECH,ECH,Echuca,,-36.1406,144.7518,Australia/Melbourne,2019-07-18
Erldunda,AU,NT,AUEDD,EDD,Erldunda,,-25.2288,133.1961,Australia/Darwin,2017-09-23
Edward River,AU,QLD,AUEDR,EDR,Pormpuraaw Airport,,-14.8967,141.6090,Australia/Brisbane,2011-06-04
Einasleigh,AU,QLD,AUEIH,EIH,Einasleigh,,-18.5167,144.1000,Australia/Brisbane,2019-07-18
Elkedra,AU,NT,AUEKD,EKD,Elkedra,,-21.1664,135.4464,Australia/Darwin,2017-07-14
Elcho Island,AU,NT,AUELC,ELC,Elcho Island,,-11.9592,135.7427,Australia/Darwin,2020-06-26
Emerald,AU,QLD,AUEMD,EMD,Emerald,,-23.5230,148.1578,Australia/Brisbane,2019-07-18
Eneabba West,AU,WA,AUENB,ENB,Eneabba Airport,,-29.8325,115.2460,Australia/Perth,2011-06-04
Esperance,AU,WA,AUEPR,EPR,Esperance,,-33.8592,121.8916,Australia/Perth,2019-07-18
Ernabella,AU,SA,AUERB,ERB,Pukatja,,-26.2542,132.1915,Australia/Adelaide,2017-07-14
Etadunna,AU,SA,AUETD,ETD,Etadunna Airport,,-28.7408,138.5890,Australia/Adelaide,2013-08-27
Eucla,AU,WA,AUEUC,EUC,Eucla,,-31.6769,128.8883,Australia/Eucla,2019-07-18
Eva Downs,AU,NT,AUEVD,EVD,Eva Downs,,-18.0010,134.8618,Australia/Darwin,2017-09-16
Evans Head,AU,NSW,AUEVH,EVH,Evans Head Aerodrome,,-29.0933,153.4200,Australia/Sydney,2011-06-04
Exmouth Gulf,AU,WA,AUEXM,EXM,Exmouth,,-21.9306,114.1209,Australia/Perth,2019-07-18
Finke,AU,NT,AUFIK,FIK,Finke,,-25.5862,134.5751,Australia/Darwin,2019-07-18
Falls Creek,AU,VIC,AUFLC,FLC,Falls Creek,,-36.8653,147.2778,Australia/Melbourne,2020-04-18
Flinders Island,AU,TAS,AUFLS,FLS,Flinders Island,,-40.0167,148.0333,Australia/Hobart,2017-08-28
Finley,AU,NSW,AUFLY,FLY,Finley,,-35.6550,145.5711,Australia/Sydney,2019-07-18
Forrest,AU,WA,AUFOS,FOS,Forrest,,-30.8510,128.1000,Australia/Perth,2013-06-01
Forster,AU,NSW,AUFOT,FOT,Forster,,-32.1814,152.5171,Australia/Sydney,2019-07-18
Forbes,AU,NSW,AUFRB,FRB,Forbes,,-33.3844,148.0076,Australia/Sydney,2019-07-18
Fossil Downs,AU,WA,AUFSL,FSL,Fossil Downs Stn,,-18.1350,125.7815,Australia/Perth,2017-11-06
Gayndah,AU,QLD,AUGAH,GAH,Gayndah,,-25.6252,151.6114,Australia/Brisbane,2019-07-18
Goulburn Island,AU,NT,AUGBL,GBL,South Goulburn Island,,-11.6184,133.4042,Australia/Darwin,2017-07-03
Gamboola,AU,QLD,AUGBP,GBP,Gamboola,,-16.5415,143.6695,Australia/Brisbane,2019-05-22
Gibb River,AU,WA,AUGBV,GBV,Gibb River Airport,,-16.4233,126.4450,Australia/Perth,2019-05-23
Gordon Downs,AU,WA,AUGDD,GDD,Gordon Downs,,-18.7500,128.5857,Australia/Perth,2017-08-18
George Town,AU,TAS,AUGEE,GEE,George Town,,-41.1056,146.8261,Australia/Hobart,2019-09-20
Geraldton,AU,WA,AUGET,GET,Geraldton,,-28.7790,114.6146,Australia/Perth,2019-07-20
Geelong,AU,VIC,AUGEX,GEX,Geelong,,-38.1471,144.3607,Australia/Melbourne,2019-07-20
Grenfell,AU,NSW,AUGFE,GFE,Grenfell,,-33.8955,148.1644,Australia/Sydney,2019-07-18
Griffith,AU,NSW,AUGFF,GFF,Griffith,,-34.2885,146.0509,Australia/Sydney,2019-07-18
Grafton,AU,NSW,AUGFN,GFN,Grafton,,-29.6810,152.9339,Australia/Sydney,2019-07-18
Gregory Downs,AU,QLD,AUGGD,GGD,Gregory Downs,,-18.6333,139.2500,Australia/Brisbane,2017-08-08
Boigu Island,AU,QLD,AUGIC,GIC,Boigu Island,,-9.2603,142.2136,Pacific/Port_Moresby,2017-02-28
Great Keppel Island,AU,QLD,AUGKL,GKL,Great Keppel Island,,-23.1789,150.9594,Australia/Brisbane,2017-08-25
Glengyle,AU,QLD,AUGLG,GLG,Glengyle,,-24.7848,139.5972,Australia/Brisbane,2017-02-13
Glen Innes,AU,NSW,AUGLI,GLI,Glen Innes,,-29.7349,151.7385,Australia/Sydney,2019-07-18
Glenormiston,AU,QLD,AUGLM,GLM,Glenormiston Station,,-22.9160,138.8035,Australia/Brisbane,2017-09-10
Gladstone,AU,QLD,AUGLT,GLT,Gladstone,,-23.8485,151.2577,Australia/Brisbane,2019-07-20
Goldsworthy,AU,WA,AUGLY,GLY,Goldsworthy,,-20.3500,119.5333,Australia/Perth,2013-07-15
Goondiwindi,AU,QLD,AUGOO,GOO,Goondiwindi,,-28.5471,150.3055,Australia/Brisbane,2019-07-18
Gosford,AU,NSW,AUGOS,GOS,Gosford,,-33.4244,151.3440,Australia/Sydney,2019-07-18
Gove,AU,NT,AUGOV,GOV,Nhulunbuy,,-12.1816,136.7784,Australia/Darwin,2019-07-18
Garden Point,AU,NT,AUGPN,GPN,Garden Point,,-11.3893,130.4246,Australia/Darwin,2017-04-23
Gascoyne Junction,AU,WA,AUGSC,GSC,Gascoyne Junction,,-25.0499,115.2091,Australia/Perth,2019-07-18
Mount Gunson,AU,SA,AUGSN,GSN,Mount Gunson,,-31.4340,137.1026,Australia/Adelaide,2013-08-24
Groote Eylandt,AU,NT,AUGTE,GTE,Groote Eylandt,,-13.9647,136.5934,Australia/Darwin,2018-11-20
Granites,AU,NT,AUGTS,GTS,The Granites Mine,,-20.5391,130.3119,Australia/Darwin,2016-10-30
Georgetown,AU,QLD,AUGTT,GTT,Georgetown,,-18.2920,143.5458,Australia/Brisbane,2019-07-18
Gunnedah,AU,NSW,AUGUH,GUH,Gunnedah,,-30.9807,150.2584,Australia/Sydney,2019-07-18
Goulburn,AU,NSW,AUGUL,GUL,Goulburn,,-34.7516,149.7209,Australia/Sydney,2019-07-18
Greenvale,AU,QLD,AUGVP,GVP,Greenvale,,-18.9988,144.9787,Australia/Brisbane,2016-11-21
Argyle,AU,WA,AUGYL,GYL,Argyle Airport,,-16.6369,128.4510,Australia/Perth,2019-05-23
Gympie,AU,QLD,AUGYP,GYP,Gympie,,-26.1898,152.6650,Australia/Brisbane,2019-07-18
Kersbrook,AU,SA,AUGYZ,GYZ,Gruyere Mine Camp,3447S 13851E,-28.0320,123.8118,Australia/Perth,2019-12-08
Long Island,AU,QLD,AUHAP,HAP,Long Island Heliport,,-20.3358,148.8525,Australia/Brisbane,2019-04-17
Heathlands,AU,QLD,AUHAT,HAT,Heathlands Airport,,-11.7369,142.5770,Australia/Brisbane,2017-09-01
Hobart,AU,TAS,AUHBA,HBA,Hobart,4252S 14718E,-42.8794,147.3294,Australia/Hobart,2019-09-05
Halls Creek,AU,WA,AUHCQ,HCQ,Halls Creek,,-18.2248,127.6665,Australia/Perth,2019-07-18
Hughenden,AU,QLD,AUHGD,HGD,Hughenden,,-20.8440,144.2003,Australia/Brisbane,2019-07-18
Horn Island,AU,QLD,AUHID,HID,Horn Island,,-10.6071,142.2842,Australia/Brisbane,2017-09-03
Highbury,AU,QLD,AUHIG,HIG,Highbury Airport,,-16.4244,143.1460,Australia/Brisbane,2019-05-22
Headingly,AU,QLD,AUHIP,HIP,Headingly,,-21.3240,138.2900,Australia/Brisbane,2017-07-03
Hayman Island,AU,QLD,AUHIS,HIS,Hayman Island Resort Seaplane Base,,-20.0600,148.8810,Australia/Lindeman,2011-06-04
Saint Helens,AU,TAS,AUHLS,HLS,St Helens,,-41.3203,148.2389,Australia/Hobart,2019-07-18
Hamilton,AU,VIC,AUHLT,HLT,Hamilton,,-37.7443,142.0220,Australia/Melbourne,2019-07-18
Helenvale,AU,QLD,AUHLV,HLV,Helenvale,,-15.7167,145.2333,Australia/Brisbane,2012-05-05
Hermannsburg,AU,NT,AUHMG,HMG,Hermannsburg Airport,,-23.9300,132.8050,Australia/Darwin,2011-06-04
Hooker Creek,AU,NT,AUHOK,HOK,Hooker Creek Airport,,-18.3367,130.6380,Australia/Darwin,2011-06-04
Heron Island,AU,QLD,AUHRN,HRN,Heron Island,,-23.4423,151.9149,Australia/Brisbane,2020-02-22
Henbury,AU,NT,AUHRY,HRY,Henbury Station,,-24.5718,133.2385,Australia/Darwin,2017-10-29
Horsham,AU,VIC,AUHSM,HSM,Horsham,,-36.7113,142.1998,Australia/Melbourne,2019-07-18
Hamilton Island,AU,QLD,AUHTI,HTI,Hamilton Island,,-20.3533,148.9619,Australia/Lindeman,2014-01-06
Hopetoun,AU,VIC,AUHTU,HTU,Hopetoun,,-35.7270,142.3663,Australia/Melbourne,2019-07-18
Humbert River,AU,NT,AUHUB,HUB,Humbert River Airport,,-16.4897,130.6303,Australia/Darwin,2019-05-22
Hervey Bay,AU,QLD,AUHVB,HVB,Hervey Bay Airport,,-25.3218,152.8842,Australia/Brisbane,2015-04-21
Hawker,AU,SA,AUHWK,HWK,Hawker,,-31.8881,138.4250,Australia/Adelaide,2019-07-18
Hay,AU,NSW,AUHXX,HXX,Hay,,-34.5090,144.8431,Australia/Sydney,2019-07-18
Indulkana,AU,SA,AUIDK,IDK,Indulkana Airport,,-26.9667,133.3250,Australia/Adelaide,2011-06-04
Iffley,AU,QLD,AUIFF,IFF,Iffley Station,,-18.8697,141.2065,Australia/Brisbane,2017-09-13
Innisfail,AU,QLD,AUIFL,IFL,Innisfail,,-17.5221,146.0310,Australia/Brisbane,2019-07-18
Ingham,AU,QLD,AUIGH,IGH,Ingham,,-18.6455,146.1625,Australia/Brisbane,2019-07-18
Inkerman,AU,QLD,AUIKP,IKP,Inkerman Airport,,-16.2750,141.4420,Australia/Brisbane,2011-06-04
Injune,AU,QLD,AUINJ,INJ,Injune,,-25.8428,148.5679,Australia/Brisbane,2019-07-18
Innamincka,AU,SA,AUINM,INM,Innamincka,,-27.7434,140.7393,Australia/Adelaide,2019-07-18
Lockhart River,AU,QLD,AUIRG,IRG,Lockhart River Airport,,-12.7869,143.3050,Australia/Brisbane,2011-06-04
Mount Isa,AU,QLD,AUISA,ISA,Mount Isa,,-20.7252,139.4973,Australia/Brisbane,2019-07-21
Isisford,AU,QLD,AUISI,ISI,Isisford,,-24.2597,144.4393,Australia/Brisbane,2019-07-18
Inverell,AU,NSW,AUIVR,IVR,Inverell,,-29.7740,151.1117,Australia/Sydney,2019-07-18
Inverway,AU,NT,AUIVW,IVW,Inverway,,-17.8484,129.6364,Australia/Darwin,2019-05-22
Jabiru,AU,NT,AUJAB,JAB,Jabiru,,-12.6705,132.8360,Australia/Darwin,2019-07-18
Jandakot,AU,WA,AUJAD,JAD,Jandakot Airport,,-32.0938,115.8783,Australia/Perth,2011-06-04
Julia Creek,AU,QLD,AUJCK,JCK,Julia Creek Airport,,-20.6683,141.7230,Australia/Brisbane,2011-06-04
Shute Harbour,AU,QLD,AUJHQ,JHQ,Shute Harbour Airport,,-20.2769,148.7554,Australia/Brisbane,2013-05-11
Jundah,AU,QLD,AUJUN,JUN,Jundah,,-24.8331,143.0616,Australia/Brisbane,2019-07-18
Jurien Bay,AU,WA,AUJUR,JUR,Jurien Bay Airport,,-30.3000,115.0330,Australia/Perth,2011-03-17
Melbourne City Heliport,AU,VIC,AUKAH,KAH,Yarra Bank Heliport,,-37.8223,144.9568,Australia/Melbourne,2017-10-28
Kalbarri,AU,WA,AUKAX,KAX,Kalbarri,,-27.7105,114.1650,Australia/Perth,2019-07-18
Kirkimbie,AU,NT,AUKBB,KBB,Kirkimbie Station Airport,,-17.7792,129.2100,Australia/Darwin,2019-05-22
Kimberley Downs,AU,WA,AUKBD,KBD,Kimberley Downs,,-17.3919,124.3568,Australia/Perth,2017-07-24
Kings Canyon,AU,NT,AUKBJ,KBJ,Kings Canyon,,-24.2605,131.4894,Australia/Darwin,2011-06-04
Streaky Bay,AU,SA,AUKBY,KBY,Streaky Bay,,-32.7955,134.2093,Australia/Adelaide,2019-07-18
Collinsville,AU,QLD,AUKCE,KCE,Collinsville,,-20.5522,147.8440,Australia/Brisbane,2019-07-18
Kings Creek Station,AU,NT,AUKCS,KCS,Kings Creek Airport,,-24.4233,131.8350,Australia/Darwin,2011-06-04
Kambalda,AU,WA,AUKDB,KDB,Kambalda,,-31.2017,121.6708,Australia/Perth,2016-10-30
Kamaran Downs,AU,QLD,AUKDS,KDS,Kamaran Downs,,-24.3333,139.1670,Australia/Brisbane,2012-05-18
Kalkurung,AU,NT,AUKFG,KFG,Kalkgurung Airport,,-17.4319,130.8080,Australia/Darwin,2019-05-22
Kingscote,AU,SA,AUKGC,KGC,Kingscote,,-35.6559,137.6393,Australia/Adelaide,2019-07-18
Kalgoorlie,AU,WA,AUKGI,KGI,Kalgoorlie,,-30.7461,121.4742,Australia/Perth,2019-07-18
Kulgera,AU,NT,AUKGR,KGR,Kulgera,,-25.8384,133.3004,Australia/Darwin,2017-09-26
Kingaroy,AU,QLD,AUKGY,KGY,Kingaroy,,-26.5399,151.8373,Australia/Brisbane,2019-07-18
Koolburra,AU,QLD,AUKKP,KKP,Koolburra Airport,,-15.3189,143.9550,Australia/Brisbane,2011-06-04
Kamileroi,AU,QLD,AUKML,KML,Kamileroi Airport,,-19.3750,140.0570,Australia/Brisbane,2011-06-04
Katanning,AU,WA,AUKNI,KNI,Katanning,,-33.6879,117.5584,Australia/Perth,2019-07-18
King Is,AU,TAS,AUKNS,KNS,King Island,,-39.8763,143.9865,Australia/Currie,2016-11-16
Kununurra,AU,WA,AUKNX,KNX,Kununurra,,-15.7782,128.7421,Australia/Perth,2019-07-18
Koolatah,AU,QLD,AUKOH,KOH,Koolatah Airport,,-15.8886,142.4390,Australia/Brisbane,2017-10-28
Kalpowar,AU,QLD,AUKPP,KPP,Kalpowar Airport,,-14.8903,144.2205,Australia/Brisbane,2017-10-29
Kempsey,AU,NSW,AUKPS,KPS,Kempsey,,-31.0790,152.8309,Australia/Sydney,2019-07-21
Koonibba,AU,SA,AUKQB,KQB,Koonibba Airport,,-31.8973,133.4225,Australia/Adelaide,2012-04-29
Kerang,AU,VIC,AUKRA,KRA,Kerang,,-35.7349,143.9203,Australia/Melbourne,2019-07-18
Karumba,AU,QLD,AUKRB,KRB,Karumba,1729S 14050E,-17.4869,140.8426,Australia/Brisbane,2019-07-18
Kurundi,AU,NT,AUKRD,KRD,Kurundi,,-20.5019,134.6756,Australia/Darwin,2017-09-15
Springvale,AU,QLD,AUKSV,KSV,Springvale,,-23.5560,140.6981,Australia/Brisbane,2016-11-21
Karratha,AU,WA,AUKTA,KTA,Karratha Airport,,-20.7122,116.7730,Australia/Perth,2019-05-23
Katherine,AU,NT,AUKTR,KTR,Katherine,,-14.4652,132.2635,Australia/Darwin,2019-07-18
Kubin Island,AU,QLD,AUKUG,KUG,Kubin,,-10.2333,142.2167,Australia/Brisbane,2017-07-04
Kowanyama,AU,QLD,AUKWM,KWM,Kowanyama,,-15.4736,141.7457,Australia/Brisbane,2019-07-18
Yeelirrie,AU,WA,AUKYF,KYF,Yeelirrie,,-27.2817,120.0914,Australia/Perth,2017-06-03
Yalata Mission,AU,SA,AUKYI,KYI,Yalata,,-31.4802,131.8424,Australia/Adelaide,2019-07-18
Balcanoona,AU,SA,AULCN,LCN,Balcanoona,,-30.5371,139.3026,Australia/Adelaide,2017-07-05
Lindeman Island,AU,QLD,AULDC,LDC,Lindeman Island,,-20.4456,149.0425,Australia/Lindeman,2017-09-18
Lord Howe Is,AU,NSW,AULDH,LDH,Lord Howe Island Airport,,-31.5404,159.0784,Australia/Lord_Howe,2015-12-23
Lansdowne,AU,WA,AULDW,LDW,Lansdowne Station,,-17.5800,126.8000,Australia/Perth,2012-04-29
Learmonth,AU,WA,AULEA,LEA,Learmonth,,-22.2333,114.0833,Australia/Perth,2011-06-04
Lake Evella,AU,NT,AULEL,LEL,Lake Evella Airport,,-12.4989,135.8060,Australia/Darwin,2011-06-04
Leinster,AU,WA,AULER,LER,Leinster Airport,,-27.8433,120.7030,Australia/Perth,2011-06-04
Leigh Creek,AU,SA,AULGH,LGH,Leigh Creek Airport,,-30.5983,138.4258,Australia/Adelaide,2016-06-25
Lightning Ridge,AU,NSW,AULHG,LHG,Lightning Ridge Airport,,-29.4567,147.9840,Australia/Sydney,2011-06-04
Limbunya,AU,NT,AULIB,LIB,Limbunya,,-17.2286,129.8858,Australia/Darwin,2019-05-22
Lakeland Downs,AU,QLD,AULKD,LKD,Lakeland Downs Airport,,-15.8444,144.8503,Australia/Brisbane,2019-05-22
Chillagoe,AU,QLD,AULLG,LLG,Chillagoe,,-17.1539,144.5227,Australia/Brisbane,2019-07-18
Lissadell,AU,WA,AULLL,LLL,Lissadell,,-16.6770,128.5564,Australia/Perth,2019-05-23
Lake Nash,AU,NT,AULNH,LNH,Lake Nash,,-20.9667,137.9167,Australia/Darwin,2017-06-26
Leonora,AU,WA,AULNO,LNO,Leonora,,-28.8851,121.3307,Australia/Perth,2019-07-18
Lorraine,AU,QLD,AULOA,LOA,Lorraine,,-19.0051,139.8933,Australia/Brisbane,2017-07-16
Lock,AU,SA,AULOC,LOC,Lock,,-33.5680,135.7565,Australia/Adelaide,2019-07-18
Lisarow,AU,NSW,AULOW,LOW,THE WILLOWs,3323S 15122E,-30.8146,149.9983,Australia/Sydney,2014-04-08
Longreach,AU,QLD,AULRE,LRE,Longreach,,-23.4421,144.2492,Australia/Brisbane,2019-07-18
Launceston,AU,TAS,AULST,LST,Launceston,,-41.4388,147.1347,Australia/Hobart,2019-07-20
Lismore,AU,NSW,AULSY,LSY,Lismore,,-28.8135,153.2773,Australia/Sydney,2019-07-18
Latrobe,AU,TAS,AULTB,LTB,Latrobe,,-41.2464,146.4246,Australia/Hobart,2019-07-18
Lyndhurst,AU,QLD,AULTP,LTP,Lyndhurst,,-19.2000,144.3667,Australia/Brisbane,2017-07-10
Lotusvale,AU,QLD,AULTV,LTV,Lotus Vale,,-17.0500,141.3833,Australia/Brisbane,2017-04-23
Luddenham,AU,NSW,AULUM,LUM,McCALLUM PARK,3353S 15041E,-30.5153,142.9021,Australia/Sydney,2014-04-09
Laura Station,AU,QLD,AULUT,LUT,New Laura Airport,,-15.1830,144.3460,Australia/Brisbane,2017-03-26
Laura,AU,QLD,AULUU,LUU,Laura,,-15.5217,144.1986,Australia/Brisbane,2019-07-18
Laverton,AU,WA,AULVO,LVO,Laverton,,-28.6253,122.3994,Australia/Perth,2019-07-18
Lawn Hill,AU,QLD,AULWH,LWH,Lawn Hill,,-18.5833,138.5833,Australia/Brisbane,2017-07-06
Lady Elliot Island,AU,QLD,AULYT,LYT,Lady Elliot Island,,-24.1130,152.7149,Australia/Brisbane,2017-06-05
Lizard Island,AU,QLD,AULZR,LZR,Lizard Island Airport,,-14.6730,145.4542,Australia/Lindeman,2011-06-04
Marble Bar,AU,WA,AUMBB,MBB,Marble Bar,,-21.1707,119.7444,Australia/Perth,2019-07-18
Mount Buffalo,AU,VIC,AUMBF,MBF,Mount Buffalo National Park,,-36.7468,146.7771,Australia/Melbourne,2017-09-26
Maryborough,AU,QLD,AUMBH,MBH,Maryborough,,-25.5407,152.7049,Australia/Brisbane,2019-07-18
Moorabbin,AU,VIC,AUMBW,MBW,Moorabbin,,-37.9415,145.0578,Australia/Melbourne,2019-07-18
McGraths Hill,AU,NSW,AUMCG,MCG,Melbourne Cricket Ground,3336S 15050E,-37.8200,144.9834,Australia/Melbourne,2011-06-04
Mcarthur River,AU,NT,AUMCV,MCV,McArthur River Mine Airport,,-16.4426,136.0760,Australia/Darwin,2011-07-26
Maroochydore Apt/Sunshine Coast,AU,QLD,AUMCY,MCY,Maroochydore,,-26.6601,153.0995,Australia/Brisbane,2019-07-18
Essendon Apt/Melbourne,AU,VIC,AUMEB,MEB,Essendon Airport,,-37.7281,144.9019,Australia/Melbourne,2011-06-04
Melbourne,AU,VIC,AUMEL,MEL,Melbourne,3749S 14458E,-37.8140,144.9633,Australia/Melbourne,2019-07-20
Moreton,AU,QLD,AUMET,MET,Moreton Airport,,-12.4442,142.6380,Australia/Brisbane,2011-06-04
Mount Full Stop,AU,QLD,AUMFL,MFL,Wando Vale,,-19.6667,144.9000,Australia/Brisbane,2017-06-23
Manners Creek,AU,NT,AUMFP,MFP,Manners Creek Airport,,-22.1000,137.9830,Australia/Darwin,2011-06-04
Mount Gambier,AU,SA,AUMGB,MGB,Mount Gambier,,-37.8318,140.7792,Australia/Adelaide,2019-07-18
Milingimbi,AU,NT,AUMGT,MGT,Millingimbi Island,,-12.1000,134.9000,Australia/Darwin,2017-08-14
Margaret River Station,AU,WA,AUMGV,MGV,Margaret River Station Airport,,-18.6243,126.8739,Australia/Perth,2011-07-25
Mount House,AU,WA,AUMHO,MHO,Mount House,,-17.0514,125.7049,Australia/Perth,2017-07-21
Mount Hotham,AU,VIC,AUMHU,MHU,Mount Hotham,,-36.9771,147.1330,Australia/Melbourne,2019-09-07
Mitchell Plateau,AU,WA,AUMIH,MIH,Mitchell Plateau Airfield,,-14.7923,125.8244,Australia/Perth,2019-05-23
Merimbula,AU,NSW,AUMIM,MIM,Merimbula,,-36.8890,149.9096,Australia/Sydney,2019-07-18
Minnipa,AU,SA,AUMIN,MIN,Minnipa,,-32.8500,135.1500,Australia/Adelaide,2019-07-18
Mittiebah,AU,NT,AUMIY,MIY,Mittiebah,,-18.8042,137.0867,Australia/Darwin,2017-08-18
Mainoru,AU,NT,AUMIZ,MIZ,Mainoru Airport,,-14.0542,134.0950,Australia/Darwin,2017-08-30
Monkey Mia,AU,WA,AUMJK,MJK,Monkey Mia,,-25.7927,113.7143,Australia/Perth,2017-02-12
Manjimup,AU,WA,AUMJP,MJP,Manjimup,,-34.2412,116.1456,Australia/Perth,2019-07-18
Meekatharra,AU,WA,AUMKR,MKR,Meekatharra,,-26.5952,118.4939,Australia/Perth,2019-07-18
Mount Cavenagh,AU,NT,AUMKV,MKV,Mount Cavenagh,,-25.9565,133.2140,Australia/Darwin,2017-07-20
Mackay,AU,QLD,AUMKY,MKY,Mackay,2109S 14912E,-21.1534,149.1655,Australia/Brisbane,2019-07-21
Millicent,AU,SA,AUMLR,MLR,Millicent,,-37.5939,140.3495,Australia/Adelaide,2019-07-18
Mount Magnet,AU,WA,AUMMG,MMG,Mount Magnet,2803S 11750E,-28.0648,117.8490,Australia/Perth,2019-07-18
Middlemount,AU,QLD,AUMMM,MMM,Middlemount,,-22.8123,148.6993,Australia/Brisbane,2019-07-18
Mungeranie,AU,SA,AUMNE,MNE,Mungaranie Station,,-28.0189,138.6642,Australia/Adelaide,2017-07-17
Maningrida,AU,NT,AUMNG,MNG,Maningrida,,-12.0483,134.2294,Australia/Darwin,2019-07-18
Monto,AU,QLD,AUMNQ,MNQ,Monto,,-24.8648,151.1220,Australia/Brisbane,2019-07-18
Mountain Valley,AU,NT,AUMNV,MNV,Mount Valley,,-14.1200,133.8000,Australia/Darwin,2012-04-29
Macdonald Downs,AU,NT,AUMNW,MNW,MacDonald Downs,,-22.4086,135.1119,Australia/Darwin,2019-05-22
Moomba,AU,SA,AUMOO,MOO,Moomba Airport,,-28.0994,140.1970,Australia/Adelaide,2011-03-17
Moranbah,AU,QLD,AUMOV,MOV,Moranbah,,-22.0016,148.0466,Australia/Brisbane,2019-07-18
Mandora,AU,WA,AUMQA,MQA,Mandora,,-19.7417,120.8447,Australia/Perth,2017-05-31
Marqua,AU,NT,AUMQE,MQE,Marqua Airport,,-22.8058,137.2510,Australia/Darwin,2011-06-04
Mildura,AU,VIC,AUMQL,MQL,Mildura Airport,,-34.2292,142.0856,Australia/Melbourne,2011-06-04
Mareeba,AU,QLD,AUMRG,MRG,Mareeba,,-16.9910,145.4231,Australia/Brisbane,2019-07-18
Marla,AU,SA,AUMRP,MRP,Marla Airport,,-27.3333,133.6270,Australia/Adelaide,2011-03-17
Moroak,AU,NT,AUMRT,MRT,Moroak,,-14.8200,133.7000,Australia/Darwin,2012-04-29
Moree,AU,NSW,AUMRZ,MRZ,Moree,,-29.4628,149.8416,Australia/Sydney,2019-07-18
Mount Sandford,AU,NT,AUMTD,MTD,Mount Sanford Station Airport,,-16.9783,130.5550,Australia/Darwin,2019-05-22
Maitland,AU,NSW,AUMTL,MTL,Maitland,,-32.7331,151.5574,Australia/Sydney,2019-07-20
Mitchell,AU,QLD,AUMTQ,MTQ,Mitchell,,-26.4849,147.9742,Australia/Brisbane,2019-07-18
Mulga Park,AU,NT,AUMUP,MUP,Mulga Park Airport,,-25.8600,131.6500,Australia/Darwin,2017-09-15
Muccan,AU,WA,AUMUQ,MUQ,Muccan,,-20.6331,120.0577,Australia/Perth,2017-07-16
Macksville,AU,NSW,AUMVH,MVH,Macksville,,-30.7078,152.9203,Australia/Sydney,2019-07-18
Mulka,AU,SA,AUMVK,MVK,Mulka Airport,,-28.3476,138.6491,Australia/Adelaide,2017-07-20
Musgrave,AU,QLD,AUMVU,MVU,Musgrave Airport,,-14.7730,143.5049,Australia/Brisbane,2017-10-29
Morawa,AU,WA,AUMWB,MWB,Morawa,,-29.2134,116.0079,Australia/Perth,2019-07-18
Moolawatana,AU,SA,AUMWT,MWT,Moolawatana,,-29.9067,139.7353,Australia/Adelaide,2017-07-14
Miranda Downs,AU,QLD,AUMWY,MWY,Miranda Downs Airport,,-17.3289,141.8860,Australia/Brisbane,2017-10-28
Marion Downs,AU,QLD,AUMXD,MXD,Marion Downs Station,,-23.3648,139.6542,Australia/Brisbane,2017-07-21
Mullewa,AU,WA,AUMXU,MXU,Mullewa,,-28.5395,115.5117,Australia/Perth,2019-07-18
Moruya,AU,NSW,AUMYA,MYA,Moruya,,-35.9125,150.0814,Australia/Sydney,2019-07-18
Murray Island,AU,QLD,AUMYI,MYI,Murray Island Airport,,-9.9167,144.0550,Australia/Lindeman,2015-08-13
Myroodah,AU,WA,AUMYO,MYO,Myroodah,,-18.1214,124.2694,Australia/Perth,2017-09-08
Narrabri,AU,NSW,AUNAA,NAA,Narrabri,,-30.3249,149.7827,Australia/Sydney,2019-07-18
Naracoorte,AU,SA,AUNAC,NAC,Naracoorte,,-36.9579,140.7383,Australia/Adelaide,2019-07-18
Nambucca Heads,AU,NSW,AUNBH,NBH,Nambucca Heads Airport,,-30.6500,153.0000,Australia/Sydney,2011-06-04
Nambour,AU,QLD,AUNBR,NBR,Nambour Airfield,,-26.6488,152.9724,Australia/Brisbane,2019-05-22
Sandstone,AU,WA,AUNDS,NDS,Sandstone,,-27.9868,119.2973,Australia/Perth,2019-07-18
Young,AU,NSW,AUNGA,NGA,Young,,-34.3135,148.3011,Australia/Sydney,2019-07-18
Nifty,AU,WA,AUNIF,NIF,Camp Nifty Airport,,-21.6724,121.5933,Australia/Perth,2013-06-10
Noonkanbah,AU,WA,AUNKB,NKB,Noonkanbah,,-18.5030,124.8274,Australia/Perth,2017-05-29
Darnley Island,AU,QLD,AUNLF,NLF,Darnley Island,,-9.5850,143.7710,Australia/Brisbane,2017-08-24
Nullagine,AU,WA,AUNLL,NLL,Nullagine,,-21.8897,120.1114,Australia/Perth,2019-07-18
Nicholson,AU,WA,AUNLS,NLS,Nicholson,,-18.0327,128.8954,Australia/Perth,2017-08-20
New Moon,AU,QLD,AUNMP,NMP,New Moon,,-20.1667,143.9670,Australia/Brisbane,2012-05-18
Nappa Merry,AU,QLD,AUNMR,NMR,Nappa Merrie,,-27.5989,141.1049,Australia/Brisbane,2017-09-21
Nowra,AU,NSW,AUNOA,NOA,Nowra,,-34.8842,150.6004,Australia/Sydney,2019-07-18
Narrandera,AU,NSW,AUNRA,NRA,Narrandera,,-34.7475,146.5510,Australia/Sydney,2019-07-18
Narrogin,AU,WA,AUNRG,NRG,Narrogin,,-32.9328,117.1776,Australia/Perth,2019-07-18
Noosa,AU,QLD,AUNSA,NSA,Noosa Airport,,-26.4244,153.0678,Australia/Brisbane,2019-05-22
Norseman,AU,WA,AUNSM,NSM,Norseman,,-32.1977,121.7787,Australia/Perth,2019-07-18
Scone,AU,NSW,AUNSO,NSO,Scone,,-32.0501,150.8689,Australia/Sydney,2019-07-18
Noosaville,AU,QLD,AUNSV,NSV,Noosaville,,-26.4000,153.0667,Australia/Brisbane,2019-07-18
Springwood,AU,NSW,AUNSW,NSW,State of New South Wales,3342S 15033E,-33.0000,146.0000,Australia/Sydney,2019-07-30
Newcastle,AU,NSW,AUNTL,NTL,Newcastle,,-32.9295,151.7801,Australia/Sydney,2019-09-05
Normanton,AU,QLD,AUNTN,NTN,Normanton,,-17.6718,141.0772,Australia/Brisbane,2019-07-18
Numbulwar,AU,NT,AUNUB,NUB,Numbulwar Mission,,-14.2761,135.7372,Australia/Darwin,2017-07-13
Nullarbor,AU,SA,AUNUR,NUR,Nullabor Motel Airport,,-31.4417,130.9020,Australia/Adelaide,2011-03-18
Nyngan,AU,NSW,AUNYN,NYN,Nyngan,,-31.5637,147.1937,Australia/Sydney,2019-07-18
Orange,AU,NSW,AUOAG,OAG,Orange,,-33.2840,149.1002,Australia/Sydney,2019-09-19
Oban,AU,QLD,AUOBA,OBA,Oban Airport,,-21.2346,139.0336,Australia/Brisbane,2020-04-18
Oodnadatta,AU,SA,AUODD,ODD,Oodnadatta,,-27.5514,135.4490,Australia/Adelaide,2019-07-18
Cordillo Downs,AU,SA,AUODL,ODL,Cordillo Downs,,-26.7072,140.6254,Australia/Adelaide,2017-08-17
Ord River,AU,WA,AUODR,ODR,Ord River Airport,,-17.3442,128.9153,Australia/Perth,2017-08-11
Orchid Beach,AU,QLD,AUOKB,OKB,Fraser Island,,-25.2375,153.1329,Australia/Brisbane,2017-09-05
Yorke Island,AU,QLD,AUOKR,OKR,Yorke Island,,-9.7528,143.4093,Australia/Brisbane,2016-06-25
Oakey,AU,QLD,AUOKY,OKY,Oakey,,-27.4331,151.7206,Australia/Brisbane,2019-07-18
Olympic Dam,AU,SA,AUOLP,OLP,Olympic Dam Airport,,-30.4850,136.8770,Australia/Adelaide,2011-06-04
Mornington,AU,QLD,AUONG,ONG,Mornington Island,,-16.5503,139.4003,Australia/Brisbane,2016-10-25
Monkira,AU,QLD,AUONR,ONR,Monkira,,-24.8226,140.5564,Australia/Brisbane,2017-08-19
Onslow,AU,WA,AUONS,ONS,Onslow,2139S 11506E,-21.6376,115.1122,Australia/Perth,2019-07-18
Gold Coast Apt/Coolangatta,AU,QLD,AUOOL,OOL,Gold Coast,2809S 15330E,-28.0003,153.4309,Australia/Brisbane,2016-03-21
Mooraberree,AU,QLD,AUOOR,OOR,Mooraberree,,-25.2412,140.9864,Australia/Brisbane,2017-07-07
Oenpelli,AU,NT,AUOPI,OPI,Oenpelli Airport,,-12.3250,133.0060,Australia/Darwin,2011-06-04
Yorketown,AU,SA,AUORR,ORR,Yorketown,,-35.0185,137.6049,Australia/Adelaide,2019-07-18
Orpheus Island Resort,AU,QLD,AUORS,ORS,Orpheus Island,,-18.6222,146.4992,Australia/Lindeman,2016-06-26
Orientos,AU,QLD,AUOXO,OXO,Orientos Airport,,-28.0601,141.5361,Australia/Brisbane,2013-09-21
Morney,AU,QLD,AUOXY,OXY,Morney Airport,,-25.3583,141.4330,Australia/Brisbane,2011-06-04
Ouyen,AU,VIC,AUOYN,OYN,Ouyen,,-35.0709,142.3203,Australia/Melbourne,2019-07-18
Paraburdoo,AU,WA,AUPBO,PBO,Paraburdoo Airport,,-23.1723,117.7470,Australia/Perth,2015-09-05
Pandie Pandie,AU,SA,AUPDE,PDE,Pandie Pandie,,-26.1273,139.3899,Australia/Adelaide,2017-09-27
Parndana,AU,SA,AUPDN,PDN,Parndana,,-35.8224,137.2700,Australia/Adelaide,2014-07-17
Penneshaw,AU,SA,AUPEA,PEA,Penneshaw,,-35.7181,137.9411,Australia/Adelaide,2019-07-18
Peppimenarti,AU,NT,AUPEP,PEP,Peppimenarti Airport,,-14.1442,130.0910,Australia/Darwin,2019-05-22
Perth,AU,WA,AUPER,PER,Perth,3157S 11551E,-31.9522,115.8614,Australia/Perth,2019-09-05
Penong,AU,SA,AUPEY,PEY,Penong,,-31.9303,133.0107,Australia/Adelaide,2019-07-18
Port Hedland,AU,WA,AUPHE,PHE,Port Hedland,,-20.3121,118.6106,Australia/Perth,2019-07-18
Parkes,AU,NSW,AUPKE,PKE,Parkes,,-33.1372,148.1759,Australia/Sydney,2019-07-18
Port Keats,AU,NT,AUPKT,PKT,Port Keats Airport,,-14.2500,129.5290,Australia/Darwin,2019-05-22
Port Lincoln,AU,SA,AUPLO,PLO,Port Lincoln,,-34.7263,135.8744,Australia/Adelaide,2019-07-18
Palm Island,AU,QLD,AUPMK,PMK,Palm Island Airport,,-18.7553,146.5810,Australia/Lindeman,2015-11-15
Port Pirie,AU,SA,AUPPI,PPI,Port Pirie,,-33.1918,138.0175,Australia/Adelaide,2019-07-21
Proserpine,AU,QLD,AUPPP,PPP,Proserpine,,-20.4011,148.5802,Australia/Brisbane,2019-07-18
Port Macquarie,AU,NSW,AUPQQ,PQQ,Port Macquarie,,-31.4308,152.9089,Australia/Sydney,2019-07-18
Pardoo,AU,WA,AUPRD,PRD,Pardoo,,-20.1073,119.5786,Australia/Perth,2017-05-07
Port Stephens,AU,NSW,AUPTE,PTE,Port Stephens Airfield,,-32.7505,152.0771,Australia/Sydney,2012-04-29
Port Douglas,AU,QLD,AUPTI,PTI,Port Douglas,,-16.4838,145.4673,Australia/Brisbane,2019-07-18
Portland,AU,VIC,AUPTJ,PTJ,Portland,,-38.3462,141.6026,Australia/Melbourne,2019-07-18
Port Augusta,AU,SA,AUPUG,PUG,Port Augusta,,-32.4960,137.7728,Australia/Adelaide,2019-07-18
Bega,AU,NSW,AUQBE,QBE,Bega,3640S 14950E,-36.6739,149.8418,Australia/Sydney,2019-07-18
Batemans Bay,AU,NSW,AUQBW,QBW,Batemans Bay,3543S 15011E,-35.7066,150.1754,Australia/Sydney,2019-07-18
Eden,AU,NSW,AUQDN,QDN,Eden,,-37.0667,149.9003,Australia/Sydney,2019-07-18
Kalbar,AU,QLD,AUQLD,QLD,State of Queensland,2756S 15237E,-20.0000,145.0000,Australia/Brisbane,2019-07-30
Leeton,AU,NSW,AUQLE,QLE,Leeton,3434S 14624E,-34.5510,146.4048,Australia/Sydney,2019-07-18
Narromine,AU,NSW,AUQRM,QRM,Narromine,3214S 14814E,-32.2312,148.2405,Australia/Sydney,2019-07-18
Warren,AU,NSW,AUQRR,QRR,Warren,3142S 14748E,-31.7022,147.8339,Australia/Sydney,2019-07-18
Raffles Bay,AU,NT,AURAF,RAF,RAF Park,1116S 13223E,-32.7374,152.0010,Australia/Sydney,2012-01-22
Ramingining,AU,NT,AURAM,RAM,Ramingining Airport,,-12.3564,134.8980,Australia/Darwin,2011-06-04
Robinvale,AU,VIC,AURBC,RBC,Robinvale Airport,,-34.6500,142.7830,Australia/Melbourne,2011-06-04
Orbost,AU,VIC,AURBS,RBS,Orbost,,-37.6964,148.4570,Australia/Melbourne,2019-07-18
Roebourne,AU,WA,AURBU,RBU,Roebourne,,-20.7723,117.1465,Australia/Perth,2019-07-18
Richmond,AU,QLD,AURCM,RCM,Richmond,,-20.7324,143.1436,Australia/Brisbane,2019-07-18
American River,AU,SA,AURCN,RCN,American River,,-35.7725,137.7783,Australia/Adelaide,2019-07-18
Rockhampton Downs,AU,NT,AURDA,RDA,Rockhampton Downs Airport,,-18.9533,135.2010,Australia/Darwin,2011-06-04
Roy Hill,AU,WA,AURHL,RHL,Roy Hill Station,,-22.6199,119.9592,Australia/Perth,2013-06-15
Rosella Plains,AU,QLD,AURLP,RLP,Rosella Plains,,-18.4167,144.4667,Australia/Brisbane,2017-07-03
Roma,AU,QLD,AURMA,RMA,Roma,,-26.5674,148.7875,Australia/Brisbane,2019-07-18
Renmark,AU,SA,AURMK,RMK,Renmark,,-34.1770,140.7470,Australia/Adelaide,2019-07-18
Robinhood,AU,QLD,AUROH,ROH,Robinhood Airport,,-18.8450,143.7100,Australia/Brisbane,2011-06-04
Rockhampton,AU,QLD,AUROK,ROK,Rockhampton,,-23.3803,150.5060,Australia/Brisbane,2019-05-22
Roper Bar,AU,NT,AURPB,RPB,Roper Bar Airport,,-14.7344,134.5250,Australia/Darwin,2017-03-04
Ngukurr,AU,NT,AURPM,RPM,Ngukurr Airport,,-14.7228,134.7470,Australia/Darwin,2011-06-04
Roper Valley,AU,NT,AURPV,RPV,Roper Valley,,-14.9269,134.0092,Australia/Darwin,2017-08-28
Marree,AU,SA,AURRE,RRE,Marree,,-29.6512,138.0710,Australia/Adelaide,2019-07-18
Roseberth,AU,QLD,AURSB,RSB,Roseberth,,-25.7917,139.5877,Australia/Brisbane,2017-09-11
Rutland Plains,AU,QLD,AURTP,RTP,Rutland Plains,,-15.6381,141.8222,Australia/Brisbane,2013-01-28
Rottnest Island,AU,WA,AURTS,RTS,Rottnest Island,,-32.0053,115.5125,Australia/Perth,2020-06-27
Merty,AU,SA,AURTY,RTY,Merty Merty Airport,,-28.5833,140.3170,Australia/Adelaide,2011-03-18
Saibai Island,AU,QLD,AUSBR,SBR,Saibai Island,,-9.4074,142.6886,Pacific/Port_Moresby,2018-02-07
Spring Creek,AU,QLD,AUSCG,SCG,Sydney Cricket Ground,,-33.8915,151.2252,Australia/Sydney,2011-06-04
Surfers Paradise,AU,QLD,AUSFP,SFP,Surfers Paradise,,-28.0027,153.4300,Australia/Brisbane,2019-07-18
Saint George,AU,QLD,AUSGO,SGO,Saint George,,-28.0369,148.5800,Australia/Brisbane,2013-04-28
Shay Gap,AU,WA,AUSGP,SGP,Shay Gap Airport,,-20.4247,120.1410,Australia/Perth,2016-12-26
Southport,AU,QLD,AUSHQ,SHQ,Southport,,-27.9672,153.3980,Australia/Brisbane,2019-07-18
Shepparton,AU,VIC,AUSHT,SHT,Shepparton,,-36.3805,145.3987,Australia/Melbourne,2019-07-18
Smith Point,AU,NT,AUSHU,SHU,Smith Point,,-11.1288,132.1465,Australia/Darwin,2017-07-04
Smithton,AU,TAS,AUSIO,SIO,Smithton,,-40.8459,145.1250,Australia/Hobart,2019-07-18
Singleton,AU,NSW,AUSIX,SIX,Singleton,,-32.5674,151.1660,Australia/Sydney,2019-07-18
Somersby,AU,NSW,AUSMY,SMY,SMYL Community College Fremantle,3322S 15117E,-32.0483,115.7511,Australia/Perth,2014-04-09
Snake Bay,AU,NT,AUSNB,SNB,Snake Bay Airport,,-11.4228,130.6540,Australia/Darwin,2011-06-04
Stanthorpe,AU,QLD,AUSNH,SNH,Stanthorpe,,-28.6543,151.9339,Australia/Brisbane,2019-07-18
South Molle Island,AU,QLD,AUSOI,SOI,South Molle Island,,-20.2693,148.8365,Australia/Lindeman,2013-05-11
Spring Bay,AU,TAS,AUSPB,SPB,Orpheus Island Waterport Seaplane Base,,-18.6339,146.4980,Australia/Brisbane,2016-06-26
Southern Cross,AU,WA,AUSQC,SQC,Southern Cross,,-31.2268,119.3238,Australia/Perth,2020-02-22
Sandringham,AU,QLD,AUSRM,SRM,Sandringham,,-24.0520,139.0638,Australia/Brisbane,2017-11-07
Strahan,AU,TAS,AUSRN,SRN,Strahan,,-42.1519,145.3273,Australia/Hobart,2019-07-18
Stradbroke Island,AU,QLD,AUSRR,SRR,North Stradbroke Island,,-27.5279,153.4608,Australia/Brisbane,2014-10-26
Sturt Creek,AU,WA,AUSSK,SSK,Sturt Creek,,-19.1611,128.1652,Australia/Perth,2017-05-26
Silver Plains,AU,QLD,AUSSP,SSP,Silver Plains Airport,,-13.9760,143.5520,Australia/Brisbane,2017-10-28
Stephen Island,AU,QLD,AUSTF,STF,Stephens Islet,,-9.5071,143.5452,Australia/Brisbane,2018-10-12
Strathmore,AU,QLD,AUSTH,STH,Strathmore,,-17.8609,142.5595,Australia/Brisbane,2016-10-25
Saint Paul's Mission,AU,QLD,AUSVM,SVM,St Pauls,,-10.2000,142.3000,Australia/Brisbane,2012-05-18
Shaw River,AU,WA,AUSWB,SWB,Shaw River Station,,-20.7000,119.3333,Australia/Perth,2017-07-21
Stawell,AU,VIC,AUSWC,SWC,Stawell,,-37.0563,142.7809,Australia/Melbourne,2019-07-18
Swan Hill,AU,VIC,AUSWH,SWH,Swan Hill,,-35.3378,143.5544,Australia/Melbourne,2019-07-18
Sale,AU,VIC,AUSXE,SXE,Sale,,-38.1110,147.0680,Australia/Melbourne,2019-07-18
Sydney,AU,NSW,AUSYD,SYD,Sydney,3351S 15112E,-33.8678,151.2073,Australia/Sydney,2019-09-05
Sue Island,AU,QLD,AUSYU,SYU,Sue Islet,,-10.2074,142.8247,Australia/Lindeman,2020-03-08
Tangalooma,AU,QLD,AUTAN,TAN,Tangalooma,,-27.1794,153.3743,Australia/Brisbane,2011-06-04
Tarcoola,AU,SA,AUTAQ,TAQ,Tarcoola,,-30.7101,134.5707,Australia/Adelaide,2019-07-18
Cressy,AU,TAS,AUTAS,TAS,State of Tasmania,4141S 14704E,-42.0000,147.0000,Australia/Hobart,2020-03-29
Timber Creek,AU,NT,AUTBK,TBK,Timber Creek Airport,,-15.6200,130.4450,Australia/Darwin,2019-05-22
Tableland,AU,WA,AUTBL,TBL,Tablelands,,-17.2781,126.9008,Australia/Perth,2017-09-02
Tennant Creek,AU,NT,AUTCA,TCA,Tennant Creek Airport,,-19.6333,134.1667,Australia/Darwin,2011-06-04
Tocumwal,AU,NSW,AUTCW,TCW,Tocumwal,,-35.8115,145.5692,Australia/Sydney,2019-07-18
Theodore,AU,QLD,AUTDR,TDR,Theodore,,-24.9460,150.0742,Australia/Brisbane,2019-07-18
Telfer,AU,WA,AUTEF,TEF,Telfer Airport,,-21.7150,122.2290,Australia/Perth,2011-06-04
Temora,AU,NSW,AUTEM,TEM,Temora,,-34.4483,147.5356,Australia/Sydney,2019-07-18
Traralgon,AU,VIC,AUTGN,TGN,Traralgon,,-38.1953,146.5415,Australia/Melbourne,2019-07-18
Thevenard,AU,SA,AUTHE,THE,THE WILLOWs,,-30.8146,149.9983,Australia/Sydney,2014-04-08
Thangool,AU,QLD,AUTHG,THG,Thangool,,-24.4863,150.5736,Australia/Brisbane,2019-07-18
Turkey Creek,AU,WA,AUTKY,TKY,Warmun,,-17.0294,128.2107,Australia/Perth,2019-07-18
Tamworth,AU,NSW,AUTMW,TMW,Tamworth,,-31.0905,150.9290,Australia/Sydney,2019-07-21
Tom Price,AU,WA,AUTPR,TPR,Tom Price,,-22.6939,117.7931,Australia/Perth,2019-07-18
Taree,AU,NSW,AUTRO,TRO,Taree,,-31.9110,152.4539,Australia/Sydney,2019-07-18
Townsville,AU,QLD,AUTSV,TSV,Townsville,,-19.2664,146.8057,Australia/Brisbane,2013-06-25
Tumut,AU,NSW,AUTUM,TUM,Tumut,,-35.3064,148.2182,Australia/Sydney,2019-07-18
Toowoomba,AU,QLD,AUTWB,TWB,Toowoomba,,-27.5606,151.9539,Australia/Brisbane,2013-06-25
Tewantin,AU,QLD,AUTWN,TWN,Tewantin,,-26.3910,153.0343,Australia/Brisbane,2019-07-18
Torwood,AU,QLD,AUTWP,TWP,Torwood Airport,,-17.3633,143.7500,Australia/Brisbane,2019-05-22
Tanbar,AU,QLD,AUTXR,TXR,Tanbar Station,,-25.8423,141.9182,Australia/Brisbane,2017-09-02
Tibooburra,AU,NSW,AUTYB,TYB,Tibooburra,,-29.4339,142.0102,Australia/Sydney,2019-07-18
Thylungra,AU,QLD,AUTYG,TYG,Thylungra,,-26.0880,143.4478,Australia/Brisbane,2017-04-23
Tobermorey,AU,NT,AUTYP,TYP,Tobermorey Airport,,-22.2558,137.9530,Australia/Darwin,2011-06-04
Mabuiag Island,AU,QLD,AUUBB,UBB,Mabuiag Island Airport,,-9.9503,142.1953,Australia/Brisbane,2017-09-21
Kalumburu,AU,WA,AUUBU,UBU,Kalumburu Airport,,-14.2852,126.6361,Australia/Perth,2019-05-23
Undarra,AU,QLD,AUUDA,UDA,Undara Airport,,-18.1910,144.6110,Australia/Brisbane,2017-08-16
Queenstown,AU,TAS,AUUEE,UEE,Queenstown,,-42.0805,145.5565,Australia/Hobart,2019-07-18
Quirindi,AU,NSW,AUUIR,UIR,Quirindi,,-31.5076,150.6790,Australia/Sydney,2019-07-18
Quilpie,AU,QLD,AUULP,ULP,Quilpie,,-26.6135,144.2695,Australia/Brisbane,2019-07-18
Woomera,AU,SA,AUUMR,UMR,Woomera,,-31.1998,136.8326,Australia/Adelaide,2019-07-18
Useless Loop,AU,WA,AUUSL,USL,Useless Loop Airport,,-26.1667,113.4000,Australia/Perth,2011-06-04
Muttaburra,AU,QLD,AUUTB,UTB,Muttaburra,,-22.6000,144.5500,Australia/Brisbane,2019-07-18
Nutwood Downs,AU,NT,AUUTD,UTD,Nutwood Downs,,-15.8096,134.1478,Australia/Darwin,2017-09-07
Victoria River Downs,AU,NT,AUVCD,VCD,Victoria River Downs,,-16.4037,131.0157,Australia/Darwin,2019-05-22
Newtown,AU,VIC,AUVIC,VIC,State of Victoria,3742S 14339E,-37.0000,145.0000,Australia/Melbourne,2019-07-30
Vanrook,AU,QLD,AUVNR,VNR,Vanrook,,-16.9686,141.9546,Australia/Brisbane,2013-06-10
Waverney,AU,QLD,AUWAN,WAN,Waverney,,-25.3462,141.9319,Australia/Brisbane,2017-07-08
Wauchope,AU,NSW,AUWAU,WAU,Wauchope,,-20.6410,134.2229,Australia/Darwin,2020-04-21
Wave Hill,AU,NT,AUWAV,WAV,Wave Hill Airport,,-17.3933,131.1180,Australia/Darwin,2019-05-22
Warwick,AU,QLD,AUWAZ,WAZ,Warwick,,-28.2190,152.0344,Australia/Brisbane,2019-07-18
Wondai,AU,QLD,AUWDI,WDI,Wondai,,-26.3177,151.8724,Australia/Brisbane,2019-07-18
Weipa,AU,QLD,AUWEI,WEI,Weipa,,-12.6235,141.8788,Australia/Brisbane,2019-05-22
Wee Waa,AU,NSW,AUWEW,WEW,Wee Waa,,-30.2266,149.4404,Australia/Sydney,2019-07-18
Wagga Wagga,AU,NSW,AUWGA,WGA,Wagga Wagga,3508S 14721E,-35.1258,147.3537,Australia/Sydney,2019-07-18
Walgett,AU,NSW,AUWGE,WGE,Walgett,,-30.0246,148.1157,Australia/Sydney,2019-07-18
Wangaratta,AU,VIC,AUWGT,WGT,Wangaratta,,-36.3585,146.3206,Australia/Melbourne,2019-07-18
Welshpool,AU,VIC,AUWHL,WHL,Welshpool,3840S 14626E,-38.6667,146.4333,Australia/Melbourne,2019-07-18
Willawong,AU,QLD,AUWIL,WIL,THE WILLOWs,2735S 15300E,-30.8146,149.9983,Australia/Sydney,2014-04-08
Winton,AU,QLD,AUWIN,WIN,Winton,,-22.3819,143.0424,Australia/Brisbane,2019-07-18
Wilcannia,AU,NSW,AUWIO,WIO,Wilcannia,,-31.5588,143.3769,Australia/Sydney,2019-07-18
Wittenoom,AU,WA,AUWIT,WIT,Wittenoom Airport (abandoned),2213S 11843E,-22.2183,118.3480,Australia/Perth,2017-10-30
Warracknabeal,AU,VIC,AUWKB,WKB,Warracknabeal,,-36.2533,142.3928,Australia/Melbourne,2019-07-18
Wallal,AU,WA,AUWLA,WLA,Wallal Downs,,-19.7797,120.6408,Australia/Perth,2017-01-18
Walcha,AU,NSW,AUWLC,WLC,Walcha,,-30.9849,151.5933,Australia/Sydney,2019-07-18
Witchcliffe,AU,WA,AUWLE,WLE,Miles,3402S 11506E,-26.6584,150.1882,Australia/Brisbane,2019-07-18
Wollogorang,AU,QLD,AUWLL,WLL,Wollogorang,,-17.2117,137.9469,Australia/Darwin,2017-08-27
Waterloo,AU,NT,AUWLO,WLO,Waterloo,,-16.6342,129.3286,Australia/Darwin,2019-05-22
Warrnambool,AU,VIC,AUWMB,WMB,Warrnambool,,-38.3818,142.4880,Australia/Melbourne,2019-07-18
Mount Keith,AU,WA,AUWME,WME,Mount Keith,,-27.2365,120.5448,Australia/Perth,2016-11-28
Windarra,AU,WA,AUWND,WND,Windarra,,-28.2667,121.8330,Australia/Perth,2012-05-18
Windorah,AU,QLD,AUWNR,WNR,Windorah,,-25.4222,142.6566,Australia/Brisbane,2019-07-18
Woodgreen,AU,NT,AUWOG,WOG,Woodgreen,,-22.4520,134.2106,Australia/Darwin,2017-07-08
Wollongong,AU,NSW,AUWOL,WOL,Wollongong,,-34.4240,150.8935,Australia/Sydney,2019-09-05
Wondoola,AU,QLD,AUWON,WON,Wondoola,,-18.5718,140.8988,Australia/Brisbane,2020-01-17
Wrotham Park,AU,QLD,AUWPK,WPK,Wrotham Park,,-16.6667,144.0000,Australia/Brisbane,2019-05-22
Warrawagine,AU,WA,AUWRW,WRW,Warrawagine,,-20.8506,120.6947,Australia/Perth,2017-08-18
Airlie Beach,AU,QLD,AUWSY,WSY,Airlie Beach,,-20.2675,148.7147,Australia/Brisbane,2019-07-18
Brisbane West Wellcamp Airport,AU,QLD,AUWTB,WTB,Toowoomba Wellcamp Airport,2733S 15147E,-27.5589,151.7959,Australia/Brisbane,2017-11-03
Wudinna,AU,SA,AUWUD,WUD,Wudinna,,-33.0501,135.4638,Australia/Adelaide,2019-07-18
Wiluna,AU,WA,AUWUN,WUN,Wiluna,,-26.5921,120.2240,Australia/Perth,2019-07-18
Woodie Woodie,AU,WA,AUWWI,WWI,Woodie Woodie Airport,,-21.6628,121.2340,Australia/Perth,2011-06-04
West Wyalong,AU,NSW,AUWWY,WWY,West Wyalong,,-33.9237,147.2047,Australia/Sydney,2019-07-18
Whyalla,AU,SA,AUWYA,WYA,Whyalla,,-33.0327,137.5648,Australia/Adelaide,2019-09-05
Wyndham,AU,WA,AUWYN,WYN,Wyndham,,-15.4869,128.1243,Australia/Perth,2019-07-18
Colac,AU,VIC,AUXCO,XCO,Colac,,-38.3390,143.5849,Australia/Melbourne,2019-07-18
Mallacoota,AU,VIC,AUXMC,XMC,Mallacoota,,-37.5590,149.7541,Australia/Melbourne,2019-07-18
Minlaton,AU,SA,AUXML,XML,Minlaton,,-34.7710,137.5958,Australia/Adelaide,2019-07-18
Yam Island,AU,QLD,AUXMY,XMY,Yam Island,,-9.9014,142.7750,Australia/Lindeman,2017-08-15
Thargomindah,AU,QLD,AUXTG,XTG,Thargomindah,,-27.9950,143.8239,Australia/Brisbane,2019-07-18
Taroom,AU,QLD,AUXTO,XTO,Taroom,,-25.6393,149.7998,Australia/Brisbane,2019-07-18
Tara,AU,QLD,AUXTR,XTR,Tara,,-27.2761,150.4568,Australia/Brisbane,2019-07-18
Yampi,AU,WA,AUYAM,YAM,RAAF Base Amberley,,-27.6406,152.7119,Australia/Brisbane,2020-07-26
Yagoona,AU,NSW,AUYAN,YAN,Anthony Lagoon Airport,3354S 15101E,-18.0217,135.5420,Australia/Darwin,2017-08-19
Yarra Glen,AU,VIC,AUYAR,YAR,Ararat Airport,3738S 14522E,-37.3094,142.9890,Australia/Melbourne,2011-06-04
Yamba,AU,NSW,AUYBA,YBA,Archerfield Aerodrome,,-27.5703,153.0081,Australia/Brisbane,2020-10-25
Yabulu,AU,QLD,AUYBU,YBU,Bundaberg Airport,1913S 14636E,-24.9039,152.3190,Australia/Brisbane,2011-06-04
Yenda,AU,NSW,AUYDA,YDA,Dalby Airport,3416S 14611E,-27.1585,151.2634,Australia/Brisbane,2014-08-16
Yandina,AU,QLD,AUYDN,YDN,Darnley Island Airport,2634S 15257E,-9.5799,143.7806,Pacific/Port_Moresby,2014-06-16
Yeerongpilly,AU,QLD,AUYEE,YEE,Eneabba Airport,2731S 15300E,-29.8325,115.2460,Australia/Perth,2011-06-04
Yeppoon,AU,QLD,AUYEL,YEL,Elcho Island Airport,2313S 15074E,-12.0194,135.5710,Australia/Darwin,2011-06-04
Yangebup,AU,WA,AUYGB,YGB,South Goulburn Island Airport,3207S 11549E,-11.6509,133.3807,Australia/Darwin,2017-07-03
Yorkeys Knob,AU,QLD,AUYKB,YKB,Kalbarri Airport,1649S 14543E,-27.6889,114.2592,Australia/Perth,2013-10-05
Yokine,AU,WA,AUYKN,YKN,Katanning Airport,3154S 11551E,-33.7167,117.6330,Australia/Perth,2011-06-04
Yalgoo,AU,WA,AUYLG,YLG,Yalgoo,,-28.3436,116.6825,Australia/Perth,2019-07-18
Yolla,AU,TAS,AUYLL,YLL,Ballera Airport,4108S 14543E,-27.4000,141.8126,Australia/Brisbane,2013-09-22
Yarloop,AU,WA,AUYLO,YLO,Lorraine Airport,3258S 11553E,-19.0056,139.8970,Australia/Brisbane,2017-07-16
Yambuk,AU,VIC,AUYMB,YMB,Mareeba Airport,3820S 14203E,-17.0692,145.4190,Australia/Brisbane,2019-05-22
Coominya,AU,QLD,AUYMN,YMN,Mount Keith Airport,2723S 15230E,-27.2858,120.5511,Australia/Perth,2016-11-26
Yennora,AU,NSW,AUYNA,YNA,Narrandera Airport,3351S 15058E,-34.7022,146.5120,Australia/Sydney,2011-06-04
Yandicoogina / Yandi Apt,AU,WA,AUYNN,YNN,Yandicoogina,2125S 12010E,-22.7406,119.2545,Australia/Perth,2013-06-15
York,AU,WA,AUYOR,YOR,Orange Airport,3153S 11646E,-33.3817,149.1330,Australia/Sydney,2011-06-04
Cherry Gardens,AU,SA,AUYRN,YRN,Ramingining Airport,3504S 13839E,-12.3564,134.8980,Australia/Darwin,2011-06-04
Yarra Junction,AU,VIC,AUYRR,YRR,Roper Bar Airport,3747S 14537E,-14.7344,134.5250,Australia/Darwin,2017-03-04
Yass,AU,NSW,AUYSS,YSS,Sydney International Airport,3450S 14854E,-33.9461,151.1772,Australia/Sydney,2016-02-13
Yuendumu,AU,NT,AUYUE,YUE,Yuendumu,,-22.2558,131.7929,Australia/Darwin,2019-07-18
Yarrawonga,AU,NSW,AUYWO,YWO,Illawarra Regional Airport,3222S 14939E,-34.5604,150.7889,Australia/Sydney,2011-06-04
Bowen,AU,QLD,AUZBO,ZBO,Bowen,,-20.0137,148.2475,Australia/Brisbane,2019-07-18
South Galway,AU,QLD,AUZGL,ZGL,South Galway Airport,,-25.6833,142.1080,Australia/Brisbane,2011-06-04
Newman Apt,AU,WA,AUZNE,ZNE,Newman,2325S 11948E,-23.3564,119.7355,Australia/Perth,2019-07-18
Springvale,AU,WA,AUZVG,ZVG,Springvale,,-17.7861,127.6860,Australia/Perth,2017-06-07
Aruba,AW,,AWAUA,AUA,Queen Beatrix International Airport,1230N 06958W,12.5038,-70.0078,America/Aruba,2013-11-02
Maarianhamina (Mariehamn),AX,,AXMHQ,MHQ,Mariehamn,6006N 01957E,60.0973,19.9348,Europe/Mariehamn,2018-08-17
Baku,AZ,,AZBAK,BAK,Baku,,40.3777,49.8920,Asia/Baku,2019-09-05
Heydar Aliyev International Apt.,AZ,BA,AZGYD,GYD,Heydar Aliyev International Airport,4028N 05002E,40.4607,50.0515,Asia/Baku,2017-12-28
Gyandzha,AZ,,AZKVD,KVD,Ganja,,40.6828,46.3606,Asia/Baku,2017-07-08
Naxcivan,AZ,NX,AZNAJ,NAJ,Nakhchivan,3912N 04514E,39.2089,45.4122,Asia/Baku,2018-07-21
Banja Luka,BA,SRP,BABNX,BNX,Banja Luka,4446N 01711E,44.7784,17.1939,Europe/Sarajevo,2019-09-05
Mostar,BA,,BAOMO,OMO,Mostar,,43.3433,17.8081,Europe/Sarajevo,2018-12-29
Sarajevo,BA,09,BASJJ,SJJ,Sarajevo,4351N 01823E,43.8486,18.3564,Europe/Sarajevo,2019-09-05
Tuzla,BA,,BATZL,TZL,Tuzla,4432N 01840E,44.5384,18.6671,Europe/Sarajevo,2019-09-05
Bridgetown,BB,,BBBGI,BGI,Grantley Adams International Airport,,13.0746,-59.4925,America/Barbados,2007-01-03
Barisal,BD,,BDBZL,BZL,Barishal,,22.7050,90.3701,Asia/Dhaka,2020-08-13
Chattogram,BD,10,BDCGP,CGP,Chattogram,2220N 09150E,22.3384,91.8317,Asia/Dhaka,2020-08-12
Cumilla,BD,,BDCLA,CLA,Comilla,,23.4619,91.1850,Asia/Dhaka,2016-11-09
Cox's Bazar,BD,,BDCXB,CXB,Cox's Bazar,2126N 09159E,21.4397,92.0096,Asia/Dhaka,2017-04-04
Dhaka,BD,13,BDDAC,DAC,Dhaka,2410N 09025E,23.7104,90.4074,Asia/Dhaka,2020-03-18
Ishurdi,BD,,BDIRD,IRD,Ishurdi,,24.1286,89.0657,Asia/Dhaka,2020-05-28
Jashore,BD,,BDJSR,JSR,Jessore,,23.1697,89.2137,Asia/Dhaka,2016-11-09
Rangpur,BD,,BDRAU,RAU,Rangpur,,25.7466,89.2517,Asia/Dhaka,2016-11-09
Rajshahi,BD,,BDRJH,RJH,Rajshahi,,24.3740,88.6011,Asia/Dhaka,2020-06-10
Sirajganj,BD,,BDSAJ,SAJ,Sirajganj,,24.4577,89.7080,Asia/Dhaka,2017-05-04
Saidpur,BD,,BDSPD,SPD,Saidpur Airport,,25.7592,88.9089,Asia/Dhaka,2020-09-17
Thakurgaon,BD,,BDTKR,TKR,Thakurgaon,,26.0310,88.4699,Asia/Dhaka,2020-06-10
Shamshernagar,BD,,BDZHM,ZHM,Shamshernagar,,24.3825,91.9019,Asia/Dhaka,2016-11-09
Sylhet,BD,,BDZYL,ZYL,Sylhet,,24.8990,91.8720,Asia/Dhaka,2016-11-09
Antwerpen,BE,VAN,BEANR,ANR,Antwerpen,5113N 00425E,51.2205,4.4003,Europe/Brussels,2019-12-17
Antwerp Churchill Terminal,BE,VAN,BEANT,ANT,Provincie Antwerpen,,51.1656,4.8340,Europe/Brussels,2020-01-07
Annevoie,BE,WNA,BEAVE,AVE,Andreas Vesalius School Edegem,5020N 00450E,51.1543,4.4449,Europe/Brussels,2016-08-02
Brussel (Bruxelles),BE,BRU,BEBRU,BRU,Brussels,5050N 00420E,50.8505,4.3488,Europe/Brussels,2020-05-28
Charleroi,BE,WHT,BECRL,CRL,Brussels South Charleroi Airport,5025N 00426E,50.4592,4.4538,Europe/Brussels,2018-04-27
Ermeton-sur-Biert,BE,WNA,BEEBI,EBI,Ath/Isieres Airport,5018N 00443E,50.6684,3.8024,Europe/Brussels,2017-03-25
Emblem,BE,VAN,BEEBM,EBM,Melsbroek Bel Air Base,5110N 00436E,50.9000,4.5000,Europe/Brussels,2016-08-02
Eigenbilzen,BE,VLI,BEEBZ,EBZ,Oostmalle Air Base,5052N 00535E,51.2647,4.7533,Europe/Brussels,2016-08-02
Gent (Ghent),BE,VOV,BEGNE,GNE,Gent,5103N 00343E,51.0500,3.7167,Europe/Brussels,2019-09-05
Kortrijk,BE,VWV,BEKJK,KJK,Kortrijk,5050N 00316E,50.8280,3.2649,Europe/Brussels,2019-09-05
Liège,BE,WLG,BELGG,LGG,Liege,5038N 00534E,50.6337,5.5675,Europe/Brussels,2019-09-05
Lier,BE,VAN,BELIE,LIE,Province de Liege,5108N 00434E,50.6343,5.5654,Europe/Brussels,2016-12-16
Limbourg,BE,WLG,BELIM,LIM,Provincie Limburg,5037N 00556E,51.0000,5.5000,Europe/Brussels,2016-12-16
Namur,BE,WNA,BENAM,NAM,Province de Namur,5028N 00452E,50.3333,4.8333,Europe/Brussels,2020-01-08
Zoersel,BE,VAN,BEOBL,OBL,Zoersel,5116N 00442E,51.2683,4.7130,Europe/Brussels,2020-05-01
Oostende (Ostend),BE,VWV,BEOST,OST,Ostend,5112N 00255E,51.2155,2.9270,Europe/Brussels,2014-10-30
Ulbeek,BE,VLI,BEULB,ULB,Universite libre de Bruxelles (ULB),5050N 00518E,50.8130,4.3818,Europe/Brussels,2017-06-15
Maransart,BE,WBR,BEWBR,WBR,Province du Brabant Wallon,5040N 00427E,50.7500,4.5833,Europe/Brussels,2019-06-07
Zwevegem,BE,VWV,BEZWE,ZWE,Antwerpen-Centraal station,5048N 00320E,51.2162,4.4210,Europe/Brussels,2016-08-02
Arly,BF,,BFARL,ARL,Arly,,11.5833,1.4667,Africa/Ouagadougou,2012-06-05
Banfora,BF,,BFBNR,BNR,Banfora,,10.6333,-4.7667,Africa/Ouagadougou,2012-01-18
Bobo-Dioulasso,BF,HOU,BFBOY,BOY,Bobo-Dioulasso,1112N 00418W,11.1771,-4.2979,Africa/Ouagadougou,2017-05-21
Dédougou,BF,,BFDGU,DGU,Dedougou,1228N 00328W,12.4634,-3.4607,Africa/Ouagadougou,2020-06-10
Diapaga,BF,,BFDIP,DIP,Diapaga,,12.0731,1.7884,Africa/Ouagadougou,2012-06-05
Dori,BF,,BFDOR,DOR,Dori,,14.0341,-0.0326,Africa/Ouagadougou,2020-07-09
Fada-Ngourma,BF,,BFFNG,FNG,Fada N'gourma,1204N 00021E,12.0616,0.3584,Africa/Ouagadougou,2013-05-18
Ouagadougou,BF,,BFOUA,OUA,Ouagadougou,,12.3657,-1.5339,Africa/Ouagadougou,2019-09-05
Ouahigouya,BF,,BFOUG,OUG,Ouahigouya,,13.5828,-2.4216,Africa/Ouagadougou,2010-08-10
Po,BF,,BFPUP,PUP,Po,,11.1697,-1.1450,Africa/Ouagadougou,2017-05-21
Tenkodogo,BF,,BFTEG,TEG,Tenkodogo,,11.7800,-0.3697,Africa/Ouagadougou,2012-01-18
Tambao,BF,,BFTMQ,TMQ,Tambao Airport,,14.7910,0.0414,Africa/Ouagadougou,2013-05-19
Tougan,BF,,BFTUQ,TUQ,Tougan,,13.0725,-3.0694,Africa/Ouagadougou,2012-06-05
Burgas,BG,,BGBOJ,BOJ,Burgas Airport,,42.5696,27.5152,Europe/Sofia,2017-12-16
Gorna Oryakhovitsa,BG,,BGGOZ,GOZ,Gorna Oryahovitsa,4308N 02542E,43.1278,25.7017,Europe/Sofia,2018-12-05
Haskovo,BG,,BGHKV,HKV,Malevo,,41.8588,25.6293,Europe/Sofia,2013-05-08
Jambol,BG,,BGJAM,JAM,Yambol,,42.4833,26.5000,Europe/Sofia,2017-01-30
Plovdiv,BG,,BGPDV,PDV,Plovdiv,,42.1500,24.7500,Europe/Sofia,2016-02-07
Pleven,BG,,BGPVN,PVN,Dolna Mitropolia,,43.4667,24.5333,Europe/Sofia,2017-08-21
Vrazhdebna,BG,,BGQVJ,QVJ,Vrajdebna,4241N 02324E,42.7000,23.4167,Europe/Sofia,2013-05-11
Silistra,BG,,BGSLS,SLS,Silistra,,44.1171,27.2606,Europe/Sofia,2019-12-10
Sofia,BG,22,BGSOF,SOF,Sofia,4241N 02319E,42.6975,23.3241,Europe/Sofia,2019-09-05
Stara Zagora,BG,,BGSZR,SZR,Stara Zagora,,42.4328,25.6419,Europe/Sofia,2019-09-05
Targovishte,BG,25,BGTGV,TGV,Targovishte,4315N 02635E,43.2512,26.5722,Europe/Sofia,2013-06-10
Varna,BG,,BGVAR,VAR,Varna,,43.2167,27.9167,Europe/Sofia,2019-09-05
Vidin,BG,,BGVID,VID,Vidin Smurdan Airfield,,44.0224,22.8161,Europe/Sofia,2017-07-12
Bahrain International Airport,BH,15,BHBAH,BAH,Bahrain International Airport,2616N 05038E,26.2708,50.6336,Asia/Bahrain,2013-11-17
Bujumbura,BI,,BIBJM,BJM,Bujumbura International Airport,,-3.3240,29.3185,Africa/Bujumbura,2016-03-07
Gitega,BI,,BIGID,GID,Gitega Airport,,-3.4172,29.9119,Africa/Bujumbura,2013-05-08
Kirundo,BI,,BIKRE,KRE,Kirundo Airport,,-2.5446,30.0947,Africa/Bujumbura,2013-05-08
Cotonou,BJ,,BJCOO,COO,Cotonou,,6.3654,2.4183,Africa/Porto-Novo,2019-09-05
Djougou,BJ,,BJDJA,DJA,Djougou,,9.7085,1.6660,Africa/Porto-Novo,2013-08-17
Kandi,BJ,,BJKDC,KDC,Kandi,,11.1342,2.9386,Africa/Porto-Novo,2012-01-18
Natitingou,BJ,,BJNAE,NAE,Natitingou,,10.3042,1.3796,Africa/Porto-Novo,2012-01-18
Parakou,BJ,,BJPKO,PKO,Parakou Airport,,9.3500,2.6167,Africa/Porto-Novo,2013-02-20
Savé,BJ,,BJSVF,SVF,Save,0802N 00229E,8.0342,2.4866,Africa/Porto-Novo,2013-05-18
Saint-Barthélemy,BL,,BLSBH,SBH,Saint Barthelemy,1754N 06251W,17.9000,-62.8257,America/St_Barthelemy,2020-08-29
Hamilton,BM,,BMBDA,BDA,L.F. Wade International Airport,,32.3640,-64.6787,Atlantic/Bermuda,2014-01-19
Bandar Seri Begawan,BN,BM,BNBWN,BWN,Brunei International Airport,0453N 11456E,4.9442,114.9283,Asia/Brunei,2020-07-10
Kuala Belait,BN,,BNKUB,KUB,Kuala Belait,,4.5836,114.2312,Asia/Brunei,2013-06-27
Apolo,BO,L,BOAPB,APB,Apolo,1443S 06825W,-14.7189,-68.4123,America/La_Paz,2015-11-05
Ascensión,BO,S,BOASC,ASC,Ascencion de Guarayos Airport,1542S 06305W,-15.9329,-63.1554,America/La_Paz,2014-06-07
Bermejo,BO,T,BOBJO,BJO,Bermejo,2239S 06422W,-22.7321,-64.3372,America/La_Paz,2017-12-14
Huacaraje,BO,B,BOBVK,BVK,Huacaraje,1333S 06345W,-13.5500,-63.7500,America/La_Paz,2016-12-16
Baures,BO,B,BOBVL,BVL,Baures,1335S 06335W,-13.5833,-63.5833,America/La_Paz,2018-03-12
Yacuiba,BO,T,BOBYC,BYC,Yacuiba,2202S 06341W,-22.0164,-63.6775,America/La_Paz,2014-11-30
Camiri,BO,S,BOCAM,CAM,Camiri Airport,2006S 06332W,-20.0092,-63.5265,America/La_Paz,2014-04-19
Cochabamba,BO,C,BOCBB,CBB,Jorge Wilstermann,1723S 06609W,-17.4211,-66.1771,America/La_Paz,2017-08-16
Concepción,BO,S,BOCEP,CEP,Concepcion Airport,1608S 06202W,-16.1398,-62.0280,America/La_Paz,2014-04-19
Cobija,BO,N,BOCIJ,CIJ,Cobija,1102S 06844W,-11.0267,-68.7692,America/La_Paz,2010-08-21
Guayaramerín,BO,B,BOGYA,GYA,Guayaramerin,1048S 06523W,-10.8258,-65.3581,America/La_Paz,2017-10-02
La Paz,BO,L,BOLPB,LPB,La Paz,1630S 06809W,-16.5000,-68.1500,America/La_Paz,2019-09-05
Magdalena,BO,B,BOMGD,MGD,Magdalena Airport,1314S 06412W,-13.2570,-64.0630,America/La_Paz,2017-05-09
Monteagudo,BO,H,BOMHW,MHW,Monteagudo,1949S 06358W,-19.7999,-63.9546,America/La_Paz,2013-01-11
San Matias,BO,B,BOMQK,MQK,San Matias,1141S 06639W,-16.3667,-58.4000,America/La_Paz,2017-02-12
Oruro,BO,O,BOORU,ORU,Oruro,1759S 06709W,-17.9833,-67.1500,America/La_Paz,2012-01-18
Potosí,BO,P,BOPOI,POI,Potosi,1935S 06545W,-19.5836,-65.7531,America/La_Paz,2020-06-10
Puerto Suárez,BO,S,BOPSZ,PSZ,Puerto Suarez,1857S 05748W,-18.9500,-57.8000,America/La_Paz,2017-05-09
Puerto Rico,BO,N,BOPUR,PUR,Puerto Rico Airport,1105S 06738W,-11.1077,-67.5512,America/La_Paz,2011-03-18
Roboré,BO,S,BORBO,RBO,Robore,1820S 05945W,-18.3347,-59.7614,America/La_Paz,2017-02-06
Rurrenabaque,BO,B,BORBQ,RBQ,Rurrenabaque,1428S 06734W,-14.4413,-67.5278,America/La_Paz,2008-03-22
Reyes,BO,B,BOREY,REY,Reyes,1419S 06723W,-14.2952,-67.3362,America/La_Paz,2015-06-13
Riberalta,BO,B,BORIB,RIB,Riberalta,1059S 06606W,-11.0065,-66.0631,America/La_Paz,2016-12-21
Santa Ana,BO,B,BOSBL,SBL,Santa Ana de Yacuma,1345S 06526W,-13.7441,-65.4269,America/La_Paz,2020-10-04
San Joaquín,BO,B,BOSJB,SJB,San Joaquin Airport,1304S 06449W,-13.0670,-64.6750,America/La_Paz,2017-07-16
San José,BO,S,BOSJS,SJS,San Jose de Chiquitos,1751S 06045W,-17.8500,-60.7500,America/La_Paz,2017-05-09
San Javier,BO,S,BOSJV,SJV,San Javier Airport,1620S 06238W,-16.2659,-62.4705,America/La_Paz,2013-05-09
San Lucas,BO,H,BOSLC,SLC,Jorge Wilstermann,2006S 06507W,-17.4211,-66.1771,America/La_Paz,2017-08-16
San Lorenzo,BO,T,BOSLO,SLO,Oruro Airport,2126S 06447W,-17.9626,-67.0762,America/La_Paz,2011-03-25
San Lorenzo,BO,N,BOSLR,SLR,Robore Airport,1153S 06651W,-18.3247,-59.7682,America/La_Paz,2015-10-28
San Ignacio de Velasco,BO,S,BOSNG,SNG,San Ignacio De Velasco,1622S 06057W,-16.3833,-60.9667,America/La_Paz,2014-04-13
San Ignacio de Moxo,BO,B,BOSNM,SNM,San Ignacio de Moxo,1500S 06539W,-14.9947,-65.6407,America/La_Paz,2017-07-16
Santa Rosa,BO,,BOSRB,SRB,Santa Rosa De Yacuma Airport,,-14.0662,-66.7868,America/La_Paz,2014-04-13
San Ramón,BO,B,BOSRD,SRD,San Ramon Airport,1317S 06443W,-13.2639,-64.6039,America/La_Paz,2011-03-18
Sucre,BO,H,BOSRE,SRE,Sucre,1902S 06515W,-19.0333,-65.2627,America/La_Paz,2019-09-05
San Borja,BO,B,BOSRJ,SRJ,Capitan German Quiroga Guardia Airport,1449S 06651W,-14.8577,-66.7370,America/La_Paz,2020-01-24
Santa Cruz,BO,L,BOSRZ,SRZ,Santa Cruz de la Sierra,1747S 06311W,-17.7863,-63.1812,America/La_Paz,2016-11-04
Trinidad,BO,B,BOTDD,TDD,Trinidad,1450S 06454W,-14.8333,-64.9000,America/La_Paz,2014-06-02
Tarija,BO,T,BOTJA,TJA,Tarija,2131S 06445W,-21.5355,-64.7296,America/La_Paz,2010-01-29
Uyuni,BO,P,BOUYU,UYU,Uyuni Airport,2027S 06649W,-20.4499,-66.8421,America/La_Paz,2014-04-15
Vallegrande,BO,S,BOVAH,VAH,Vallegrande,1829S 06406W,-18.4892,-64.1061,America/La_Paz,2013-01-11
Villamontes,BO,T,BOVLM,VLM,Villamontes,2115S 06330W,-21.2624,-63.4690,America/La_Paz,2013-01-11
Viru Viru,BO,H,BOVVI,VVI,Viru Viru International Airport,1823S 06539W,-17.6448,-63.1354,America/La_Paz,2013-05-12
Bonaire,BQ,,BQBON,BON,Flamingo International Airport,1207N 06816W,12.1310,-68.2685,America/Kralendijk,2016-01-27
Sint Eustatius,BQ,,BQEUX,EUX,Oranjestad,1729N 06258W,17.4830,-62.9864,America/Kralendijk,2019-09-05
Bagani,,,BQI,BQI,Bagani,,-18.1106,21.6165,Africa/Windhoek,2013-05-08
Saba,BQ,,BQSAB,SAB,Saba Island,1738N 06314W,17.6303,-63.2407,America/Kralendijk,2017-10-30
Arapoti,BR,PR,BRAAG,AAG,Arapoti,,-24.1578,-49.8267,America/Sao_Paulo,2012-08-03
Arraias,BR,TO,BRAAI,AAI,Arraias,,-12.9314,-46.9383,America/Araguaina,2019-07-21
Araxá,BR,MG,BRAAX,AAX,Araxa,1935S 04655W,-19.5933,-46.9406,America/Sao_Paulo,2017-09-21
Araucária,BR,PR,BRACA,ACA,Loteamento NOVACAP,2535S 04925W,-7.7907,-34.9102,America/Recife,2016-06-22
Alta Floresta,BR,MT,BRAFL,AFL,Alta Floresta Aeroporto,,-9.8661,-56.1062,America/Cuiaba,2012-03-10
Alto Garcas,BR,MT,BRAGR,AGR,AGROCARB,1656S 05313W,-25.3683,-48.7742,America/Sao_Paulo,2012-08-03
Assis,BR,SP,BRAIF,AIF,Assis,,-22.6617,-50.4122,America/Sao_Paulo,2016-03-07
Aripuana,BR,MT,BRAIR,AIR,Aripuana Airport,,-10.1864,-59.4575,America/Cuiaba,2017-01-10
Aracaju,BR,SE,BRAJU,AJU,Aracaju,,-10.9111,-37.0717,America/Maceio,2019-09-05
Alegrete,BR,RS,BRALQ,ALQ,Alegrete,,-29.7831,-55.7919,America/Sao_Paulo,2013-05-19
Alenquer,BR,PA,BRALT,ALT,Alenquer,,-1.9417,-54.7383,America/Santarem,2012-08-03
Almenara,BR,MG,BRAMJ,AMJ,Almenara,,-16.1836,-40.6944,America/Sao_Paulo,2012-08-03
Anhembi,BR,SP,BRANH,ANH,Anhanguera,2247S 04807W,-23.4309,-46.7929,America/Sao_Paulo,2018-10-26
Aparecida,BR,SP,BRAPI,API,Alto De Pinheiros,2249S 04514W,-23.5476,-46.7120,America/Sao_Paulo,2018-10-26
Arapiraca,BR,AL,BRAPQ,APQ,Arapiraca Airport,,-9.7754,-36.6292,America/Maceio,2012-08-03
Anápolis,BR,GO,BRAPS,APS,Anapolis,1620S 04858W,-16.3267,-48.9528,America/Sao_Paulo,2012-08-03
Apucarana,BR,PR,BRAPU,APU,Apucarana Airport,,-23.6095,-51.3845,America/Sao_Paulo,2012-08-03
Arapongas,BR,PR,BRAPX,APX,Arapongas,,-23.4194,-51.4244,America/Sao_Paulo,2020-02-22
Alto Parnaíba,BR,MA,BRAPY,APY,Alto Parnaiba,0906S 04557W,-9.1108,-45.9297,America/Fortaleza,2017-02-05
Araraquara,BR,SP,BRAQA,AQA,Araraquara,,-21.7944,-48.1756,America/Sao_Paulo,2013-12-01
Ariquemes,BR,RO,BRAQM,AQM,Ariquemes,,-9.9133,-63.0408,America/Porto_Velho,2017-09-18
Araras,BR,SP,BRARA,ARA,Agua Rasa,2221S 04722W,-23.5668,-46.5719,America/Sao_Paulo,2018-10-26
Aragarças,BR,GO,BRARS,ARS,Aragarcas,1555S 05215W,-15.8975,-52.2508,America/Sao_Paulo,2017-07-20
Araçatuba,BR,SP,BRARU,ARU,Aracatuba,2112S 05025W,-21.2089,-50.4328,America/Sao_Paulo,2016-10-13
Altamira,BR,PA,BRATM,ATM,Altamira,,-3.2033,-52.2064,America/Santarem,2012-08-03
Itauba,BR,MT,BRAUB,AUB,Itauba,,-11.0617,-55.2764,America/Cuiaba,2016-03-05
Araguaína,BR,TO,BRAUX,AUX,Araguaina,0712S 04812W,-7.1911,-48.2072,America/Araguaina,2014-01-01
Barretos,BR,SP,BRBAT,BAT,Barretos,,-20.5572,-48.5678,America/Sao_Paulo,2012-08-03
Bauru,BR,SP,BRBAU,BAU,Bauru Airport,,-22.3450,-49.0538,America/Sao_Paulo,2018-02-01
Barcelos,BR,AM,BRBAZ,BAZ,Barcelos,0058S 06255W,-0.9736,-62.9269,America/Manaus,2014-06-27
Boca do Acre Apt,BR,AM,BRBCR,BCR,Boca do Acre,0838S 06725W,-8.7522,-67.3978,America/Manaus,2017-02-14
Barra do Corda,BR,MA,BRBDC,BDC,Barra do Corda,0530S 04515W,-5.5056,-45.2433,America/Fortaleza,2017-06-07
Belem,BR,PA,BRBEL,BEL,Belem,0127S 04830W,-1.4558,-48.5044,America/Belem,2014-05-12
Bento Gonçalves,BR,RS,BRBGV,BGV,Bento Goncalves,2910S 05131W,-29.1714,-51.5192,America/Sao_Paulo,2017-06-07
Bagé,BR,RS,BRBGX,BGX,Bage,3120S 05406W,-31.3314,-54.1069,America/Sao_Paulo,2017-06-14
Belo Horizonte,BR,MG,BRBHZ,BHZ,Belo Horizonte,,-19.9208,-43.9378,America/Sao_Paulo,2019-09-05
Braganca Paulista,BR,SP,BRBJP,BJP,Braganca Paulista Airport,2257S 04632W,-22.9781,-46.5377,America/Sao_Paulo,2013-05-05
Brumado,BR,BA,BRBMS,BMS,Brumado,,-14.2036,-41.6653,America/Bahia,2012-08-03
Blumenau,BR,SC,BRBNU,BNU,Blumenau,,-26.9194,-49.0661,America/Sao_Paulo,2012-03-10
Barra do Garças,BR,MT,BRBPG,BPG,Barra do Garcas,1553S 05215W,-15.8900,-52.2567,America/Cuiaba,2014-04-12
Porto Seguro,BR,BA,BRBPS,BPS,Porto Seguro,,-16.4497,-39.0647,America/Bahia,2012-08-03
Barreiras,BR,BA,BRBRA,BRA,Barreiras Airport,,-12.0789,-45.0090,America/Bahia,2012-08-03
Barreirinhas,BR,MA,BRBRB,BRB,Barreirinhas,0246S 04250W,-2.7556,-42.8259,America/Fortaleza,2013-04-01
Boraceia,BR,SP,BRBRE,BRE,Bom Retiro,2209S 04844W,-23.5251,-46.6389,America/Sao_Paulo,2018-10-26
Brasiléia,BR,AC,BRBRL,BRL,Brasilandia,1100S 06844W,-23.4486,-46.6884,America/Sao_Paulo,2018-10-26
Barreiros,BR,PE,BRBRS,BRS,Bras,0849S 03511W,-23.5500,-46.6167,America/Sao_Paulo,2020-06-11
Brasília,BR,DF,BRBSB,BSB,Brasilia,1547S 04755W,-15.7797,-47.9297,America/Sao_Paulo,2019-09-05
Balsas,BR,MA,BRBSS,BSS,Balsas,,-7.5325,-46.0356,America/Fortaleza,2015-10-27
Buritis,BR,MG,BRBUT,BUT,Butanta,1537S 04625W,-23.5702,-46.7263,America/Sao_Paulo,2018-10-26
Boa Vista,BR,RR,BRBVB,BVB,Boa Vista,,2.8197,-60.6733,America/Boa_Vista,2017-07-06
Belmonte,BR,AC,BRBVM,BVM,Belmonte,1551S 03854W,-15.8613,-38.8798,America/Bahia,2018-12-06
Breves,BR,PA,BRBVS,BVS,Breves,0140S 05029W,-1.6822,-50.4803,America/Belem,2012-08-03
Bonito,BR,MS,BRBYO,BYO,Bonito,2108S 05628W,-21.1211,-56.4819,America/Campo_Grande,2013-05-05
Cascavel,BR,PR,BRCAC,CAC,Cascavel Airport,,-25.0003,-53.5008,America/Sao_Paulo,2012-08-03
Carauari,BR,AM,BRCAF,CAF,Carauari,,-4.8828,-66.8958,America/Manaus,2012-08-03
Campo Alegre,BR,SC,BRCAG,CAG,CAGEP,2611S 04916W,-8.2723,-35.9812,America/Recife,2016-06-22
Caruaru,BR,PE,BRCAU,CAU,Caruaru,,-8.2833,-35.9761,America/Recife,2012-03-10
Campos,BR,RJ,BRCAW,CAW,Campos dos Goytacazes,,-21.7523,-41.3304,America/Sao_Paulo,2016-11-28
Cambe,BR,PR,BRCBE,CBE,Campo Belo,2313S 05115W,-23.6281,-46.6679,America/Sao_Paulo,2018-10-26
Campo Mourao,BR,PR,BRCBW,CBW,Campo Mourao,2403S 05222W,-24.0431,-52.3793,America/Sao_Paulo,2017-02-12
Camaçari,BR,BA,BRCCI,CCI,Concordia Airport,1242S 03820W,-27.1806,-52.0527,America/Sao_Paulo,2012-08-03
Criciúma,BR,SC,BRCCM,CCM,Criciuma,2842S 04923W,-28.6775,-49.3697,America/Sao_Paulo,2017-02-26
Cáceres,BR,MT,BRCCX,CCX,Caceres,1604S 05741W,-16.0706,-57.6789,America/Cuiaba,2017-07-12
Cachoeiro de Itapemirim,BR,ES,BRCDI,CDI,Cachoeiro de Itapemirim,2051S 04107W,-20.8489,-41.1128,America/Sao_Paulo,2020-03-15
Conceição do Araguaia,BR,PA,BRCDJ,CDJ,Conceicao do Araguaia,0814S 04917W,-8.2644,-49.2698,America/Belem,2015-06-13
Candido Rodrigues,BR,SP,BRCDU,CDU,Cidade Dutra,,-23.7258,-46.7024,America/Sao_Paulo,2018-10-26
Coronel Fabriciano,BR,MG,BRCFB,CFB,Cabo Frio Airport,1932S 04238W,-22.9217,-42.0743,America/Sao_Paulo,2012-08-03
Cacador,BR,SC,BRCFC,CFC,Cacador,2646S 05101W,-26.7753,-51.0150,America/Sao_Paulo,2013-05-16
Cabo Frio,BR,RJ,BRCFO,CFO,Confresa,2253S 04201W,-10.6439,-51.5689,America/Cuiaba,2017-05-20
Cuiabá,BR,MT,BRCGB,CGB,Cuiaba,1535S 05605W,-15.5961,-56.0967,America/Cuiaba,2010-01-21
Congonhas Apt/São Paulo,BR,SP,BRCGH,CGH,Congonhas-Sao Paulo Airport,2337S 04639W,-23.6275,-46.6560,America/Sao_Paulo,2018-10-27
Campo Grande,BR,MS,BRCGR,CGR,Campo Grande,,-20.4428,-54.6464,America/Campo_Grande,2019-09-05
Claudia,BR,MT,BRCIA,CIA,Sede do Centro Industrial de Aratu,1130S 05453W,-12.8227,-38.4073,America/Bahia,2019-12-06
Caico,BR,RN,BRCIC,CIC,Vila Sao Jose,0628S 03705W,-25.4574,-49.3779,America/Sao_Paulo,2020-06-13
Coari,BR,AM,BRCIZ,CIZ,Coari,,-4.0850,-63.1414,America/Manaus,2013-07-22
Cornélio Procópio,BR,PR,BRCKO,CKO,Cornelio Procopio,2308S 05039W,-23.1811,-50.6467,America/Sao_Paulo,2017-07-02
Carajás Apt/Parauapebas,BR,PA,BRCKS,CKS,Parauapebas Carajas Airport,0607S 05000W,-6.1178,-50.0035,America/Araguaina,2014-01-01
Colider,BR,MT,BRCLD,CLD,Cidade Lider,1042S 05530W,-23.5620,-46.4913,America/Sao_Paulo,2018-10-26
Colmeia,BR,TO,BRCLM,CLM,Campo Limpo,0843S 04847W,-23.6333,-46.7667,America/Sao_Paulo,2018-10-26
Carolina,BR,MA,BRCLN,CLN,Carolina,,-7.3356,-47.4622,America/Fortaleza,2014-01-01
Caldas Novas,BR,GO,BRCLV,CLV,Caldas Novas,,-17.7443,-48.6279,America/Sao_Paulo,2014-10-22
Cambuci,BR,RJ,BRCMB,CMB,Cambuci,2134S 04155W,-23.5644,-46.6170,America/Sao_Paulo,2018-10-26
Camocim,BR,CE,BRCMC,CMC,Camocim,,-2.9022,-40.8411,America/Fortaleza,2012-08-03
Corumba,BR,MS,BRCMG,CMG,Corumba,,-19.0092,-57.6533,America/Campo_Grande,2012-08-03
Candido Mota,BR,SP,BRCMT,CMT,Cameta,,-2.2444,-49.4958,America/Belem,2017-06-02
Carangola,BR,MG,BRCNG,CNG,Cangaiba,,-23.4970,-46.5204,America/Sao_Paulo,2018-10-26
Campo Novo do Parecis,BR,MT,BRCNP,CNP,National Council for Scientific and Technological Developement,1340S 05753W,-22.8968,-43.2253,America/Sao_Paulo,2014-07-23
Canavieiras,BR,BA,BRCNV,CNV,Canavieiras,,-15.6750,-38.9472,America/Bahia,2012-08-03
Campo Maior,BR,PI,BRCOM,COM,Reflorestadora COMPETE,0449S 04210W,-24.8518,-48.7352,America/Sao_Paulo,2012-08-03
Contenda,BR,PR,BRCON,CON,Consolacao,2542S 04932W,-23.5524,-46.6574,America/Sao_Paulo,2018-10-26
Carmo do Paranaiba,BR,MG,BRCOP,COP,COPERNORTE,,-26.1413,-49.8176,America/Sao_Paulo,2012-01-21
Campinas,BR,SP,BRCPQ,CPQ,Campinas,,-22.9056,-47.0608,America/Sao_Paulo,2019-09-05
Cururupu,BR,MA,BRCPU,CPU,Cururupu,,-1.8283,-44.8683,America/Fortaleza,2012-08-03
Campina Grande,BR,PB,BRCPV,CPV,Campina Grande,,-7.2306,-35.8811,America/Fortaleza,2012-08-03
Camaqua,BR,RS,BRCQA,CQA,Canarana,3050S 05146W,-13.5522,-52.2683,America/Cuiaba,2012-08-03
Costa Marques,BR,RO,BRCQS,CQS,Costa Marques,,-12.4450,-64.2272,America/Porto_Velho,2012-08-03
Cordeiro,BR,RJ,BRCRE,CRE,Capao Redondo,2202S 04221W,-23.6688,-46.7805,America/Sao_Paulo,2018-10-26
Caarapo,BR,MS,BRCRP,CRP,Universidade Federal de Vicosa,2238S 05449W,-19.2174,-46.2217,America/Sao_Paulo,2017-05-15
Caravelas,BR,BA,BRCRQ,CRQ,Caravelas,,-17.7126,-39.2481,America/Bahia,2012-08-03
Cassilândia,BR,MS,BRCSS,CSS,Cassilandia,1909S 05145W,-19.1133,-51.7342,America/Campo_Grande,2017-02-13
Colorado do Oeste,BR,RO,BRCSW,CSW,Colorado do Oeste,,-13.1167,-60.5417,America/Porto_Velho,2016-03-06
Carutapera,BR,MA,BRCTP,CTP,Carutapera,,-1.1950,-46.0200,America/Fortaleza,2012-08-03
Curtibanos,BR,SC,BRCUR,CUR,Cursino,2717S 05035W,-23.6314,-46.6207,America/Sao_Paulo,2018-10-26
Curitiba,BR,PR,BRCWB,CWB,Curitiba,2526S 04916W,-25.4278,-49.2731,America/Sao_Paulo,2019-09-05
Caxias do Sul,BR,RS,BRCXJ,CXJ,Caxias do Sul,,-29.1681,-51.1794,America/Sao_Paulo,2012-08-03
Cruz Alta,BR,RS,BRCZB,CZB,Cruz Alta,,-28.6440,-53.6063,America/Sao_Paulo,2017-07-22
Cruzeiro do Sul,BR,AC,BRCZS,CZS,Cruzeiro do Sul,,-7.6276,-72.6776,America/Rio_Branco,2014-07-24
Diamantino,BR,MT,BRDMT,DMT,Diamantino Airport,,-14.3769,-56.4004,America/Cuiaba,2012-08-03
Dianópolis,BR,TO,BRDNO,DNO,Dianopolis,1138S 04650W,-11.6278,-46.8206,America/Araguaina,2013-10-22
Dourados,BR,MS,BRDOU,DOU,Dourados,,-22.2211,-54.8056,America/Campo_Grande,2014-01-08
Duartina,BR,SP,BRDTI,DTI,Diamantina,2223S 04925W,-18.2469,-43.6035,America/Sao_Paulo,2015-06-13
Engenheiro Passos,BR,RJ,BREPA,EPA,Industria de Mineracao ENCEPAR,2230S 04440W,-25.5775,-48.9712,America/Sao_Paulo,2012-01-21
Erechim,BR,RS,BRERM,ERM,Erechim,,-27.6346,-52.2754,America/Sao_Paulo,2014-12-23
Eirunepé,BR,AM,BRERN,ERN,Eirunepe,0640S 06952W,-6.6603,-69.8736,America/Eirunepe,2017-09-10
Espinosa,BR,MG,BRESI,ESI,Espinosa,,-14.9261,-42.8192,America/Sao_Paulo,2012-08-03
Francisco Beltrao,BR,PR,BRFBE,FBE,Francisco Beltrao,2605S 05304W,-26.0811,-53.0550,America/Sao_Paulo,2017-05-07
Feira de Santana,BR,BA,BRFEC,FEC,Feira de Santana,,-12.2667,-38.9667,America/Bahia,2017-06-05
Feijo,BR,AC,BRFEJ,FEJ,Feijo,,-8.1654,-70.3549,America/Rio_Branco,2013-11-24
Fernando de Noronha,BR,PE,BRFEN,FEN,Ilha de Fernando de Noronha,0351S 03225W,-3.8569,-32.4288,America/Noronha,2017-08-17
Floriano,BR,PI,BRFLB,FLB,Floriano,,-6.7669,-43.0225,America/Fortaleza,2012-08-03
Florianópolis,BR,SC,BRFLN,FLN,Florianopolis,2735S 04834W,-27.5967,-48.5492,America/Sao_Paulo,2017-12-05
Fortaleza,BR,CE,BRFOR,FOR,Pinto Martins - Fortaleza International Airport,,-3.7763,-38.5326,America/Fortaleza,2014-11-02
