name,country_code,subdivision,unlocode,location,coordinates,name_other,asciiname,latitude,longitude,country_code_other,subdivision_other,timezone,modification date,location_other
Andorra la Vella,AD,,ADALV,ALV,4230N 00131E,Andorra la Vella,Andorra la Vella,"42.5078","1.5211",AD,07,Europe/Andorra,2020-03-03,ALV
Arandis,,,ADI,ADI,,Arandis Airport,Arandis Airport,"-22.4622","14.9800",,17,Africa/Windhoek,2011-02-17,ADI
Al Ain,AE,,AEAAN,AAN,,Al Ain City,Al Ain City,"24.1917","55.7606",AE,01,Asia/Dubai,2019-05-29,AAN
Abu Dhabi,AE,AZ,AEAUH,AUH,2428N 05422E,Abu Dhabi,Abu Dhabi,"24.4512","54.3970",AE,01,Asia/Dubai,2019-09-05,AUH
Al Dhafra,AE,,AEDHF,DHF,2414N 05432E,Al Dhafra Air Base,Al Dhafra Air Base,"24.2484","54.5485",AE,01,Asia/Dubai,2013-05-18,DHF
Dubai World Central Apt,AE,,AEDWC,DWC,2453N 05510E,Dubai World Central - Al Maktoum International Airport,Dubai World Central - Al Maktoum International Airport,"24.8978","55.1591",AE,03,Asia/Dubai,2014-04-15,DWC
Dubai,AE,DU,AEDXB,DXB,2515N 05516E,Dubai,Dubai,"25.0772","55.3093",AE,03,Asia/Dubai,2019-08-28,DXB
Al Fujayrah,AE,FU,AEFJR,FJR,2507N 05620E,Al Fujairah City,Al Fujairah City,"25.1164","56.3414",AE,04,Asia/Dubai,2019-05-29,FJR
Minhad,AE,,AENHD,NHD,,Al Minhad Air Base,Al Minhad Air Base,"25.0267","55.3695",AE,03,Asia/Dubai,2013-06-16,NHD
Ras Al Khor,AE,DU,AERAK,RAK,2517N 05534E,Ras Al Khaimah City,Ras Al Khaimah City,"25.7895","55.9432",AE,05,Asia/Dubai,2019-09-09,RAK
Ras al Khaimah,AE,,AERKT,RKT,2547N 05557E,Ras Al Khaimah City,Ras Al Khaimah City,"25.7895","55.9432",AE,05,Asia/Dubai,2019-09-09,RKT
Sharjah,AE,SH,AESHJ,SHJ,2521N 05523E,Sharjah,Sharjah,"25.3374","55.4121",AE,06,Asia/Dubai,2019-09-05,SHJ
Bamian,AF,,AFBIN,BIN,,Bamiyan Airport,Bamiyan Airport,"34.8086","67.8182",AF,05,Asia/Kabul,2018-02-17,BIN
Bost,AF,,AFBST,BST,,Lashkar Gāh,Lashkar Gah,"31.5938","64.3716",AF,10,Asia/Kabul,2020-06-09,BST
Chaghcharan,AF,,AFCCN,CCN,3431N 06515E,Fayrōz Kōh,Fayroz Koh,"34.5195","65.2509",AF,09,Asia/Kabul,2020-06-09,CCN
Darwaz,AF,,AFDAZ,DAZ,,Darwaz Airport,Darwaz Airport,"38.4611","70.8825",AF,01,Asia/Kabul,2018-02-17,DAZ
Farah,AF,,AFFAH,FAH,,Farah,Farah,"32.3745","62.1164",AF,06,Asia/Kabul,2018-02-17,FAH
Faizabad,AF,,AFFBD,FBD,,Fayzabad,Fayzabad,"37.1166","70.5800",AF,01,Asia/Kabul,2018-02-17,FBD
Gardez,AF,,AFGRG,GRG,,Gardez Old Airfield,Gardez Old Airfield,"33.6283","69.2377",AF,36,Asia/Kabul,2018-02-13,GRG
Ghazni,AF,,AFGZI,GZI,,Ghazni,Ghazni,"33.5539","68.4210",AF,08,Asia/Kabul,2018-02-17,GZI
Herat,AF,,AFHEA,HEA,,Herat International Airport,Herat International Airport,"34.2111","62.2285",AF,11,Asia/Kabul,2018-02-17,HEA
Jalalabad,AF,,AFJAA,JAA,,Jalālābād,Jalalabad,"34.4265","70.4515",AF,18,Asia/Kabul,2020-06-09,JAA
Kabul,AF,,AFKBL,KBL,,Kabul,Kabul,"34.5281","69.1723",AF,13,Asia/Kabul,2019-09-05,KBL
Kandahar,AF,,AFKDH,KDH,,Ahmad Shah Baba International Airport,Ahmad Shah Baba International Airport,"31.5074","65.8504",AF,23,Asia/Kabul,2020-07-08,KDH
Khost,AF,,AFKHT,KHT,,Khōst,Khost,"33.3395","69.9204",AF,37,Asia/Kabul,2020-06-09,KHT
Kuran-O-Munjan,AF,,AFKUR,KUR,,Kuran wa Munjan,Kuran wa Munjan,"36.0287","70.7726",AF,01,Asia/Kabul,2018-02-17,KUR
Khwahan,AF,,AFKWH,KWH,,Deh Khwāhān,Deh Khwahan,"37.8897","70.2188",AF,01,Asia/Kabul,2020-06-09,KWH
Qala Nau,AF,,AFLQN,LQN,,Qala i Naw,Qala i Naw,"34.9873","63.1289",AF,02,Asia/Kabul,2018-02-17,LQN
Maimana,AF,,AFMMZ,MMZ,,Maymana,Maymana,"35.9214","64.7836",AF,07,Asia/Kabul,2018-02-17,MMZ
Mazar-i-Sharif,AF,,AFMZR,MZR,3642N 06706E,Mazār-e Sharīf,Mazar-e Sharif,"36.7090","67.1109",AF,30,Asia/Kabul,2020-06-09,MZR
Sardeh Band,AF,,AFSBF,SBF,,Sardeh Band,Sardeh Band,"33.2989","68.6311",AF,08,Asia/Kabul,2018-02-17,SBF
Sheghnan,AF,,AFSGA,SGA,,Shighnan District,Shighnan District,"37.6167","71.4500",AF,01,Asia/Kabul,2018-02-13,SGA
Tirinkot,AF,,AFTII,TII,,Tarinkot,Tarinkot,"32.6300","65.8781",AF,39,Asia/Kabul,2018-02-13,TII
Taluqan,AF,,AFTQN,TQN,,Taloqan,Taloqan,"36.7360","69.5345",AF,26,Asia/Kabul,2018-02-17,TQN
Kunduz,AF,,AFUND,UND,,Kunduz,Kunduz,"36.7289","68.8570",AF,24,Asia/Kabul,2019-02-26,UND
Urgoon,AF,,AFURN,URN,,Urgun,Urgun,"32.9515","69.1828",AF,29,Asia/Kabul,2018-02-17,URN
Uruzgan,AF,,AFURZ,URZ,,Uruzgan,Uruzgan,"32.9020","66.6340",AF,39,Asia/Kabul,2018-02-17,URZ
Zaranj,AF,,AFZAJ,ZAJ,,Zaranj,Zaranj,"30.9596","61.8604",AF,19,Asia/Kabul,2018-02-13,ZAJ
Antigua,AG,,AGANU,ANU,,"V. C. Bird International Airport","V. C. Bird International Airport","17.1367","-61.7927",AG,03,America/Antigua,2016-11-29,ANU
Barbuda,AG,,AGBBQ,BBQ,,Barbuda Codrington Airport,Barbuda Codrington Airport,"17.6361","-61.8263",AG,01,America/Antigua,2013-06-30,BBQ
Anguilla,AI,,AIAXA,AXA,,"Clayton J. Lloyd International Airport","Clayton J. Lloyd International Airport","18.2048","-63.0551",AI,00,America/Anguilla,2013-03-31,AXA
Ai-Ais,,,AIW,AIW,,Ai-Ais,Ai-Ais,"-27.9167","17.4833",,31,Africa/Windhoek,2012-01-17,AIW
Tirana,AL,,ALTIA,TIA,,Tirana International Airport Nënë Tereza,Tirana International Airport Nene Tereza,"41.4219","19.7130",AL,42,Europe/Tirane,2018-03-20,TIA
Yerevan,AM,ER,AMEVN,EVN,4011N 04431E,Zvartnots International Airport,Zvartnots International Airport,"40.1525","44.4022",AM,00,Asia/Yerevan,2013-05-11,EVN
Gyumri,AM,,AMLWN,LWN,4048N 04350E,Gyumri,Gyumri,"40.7942","43.8453",AM,07,Asia/Yerevan,2019-09-05,LWN
Andulo,AO,,AOANL,ANL,,Andulo Airport,Andulo Airport,"-11.4725","16.7113",AO,02,Africa/Luanda,2013-06-07,ANL
N'Zeto,AO,,AOARZ,ARZ,,N'zeto,N'zeto,"-7.2312","12.8666",AO,16,Africa/Luanda,2017-07-07,ARZ
Ambriz,AO,,AOAZZ,AZZ,,Ambriz Airport,Ambriz Airport,"-7.8622","13.1161",AO,,Africa/Luanda,2011-03-17,AZZ
Benguela,AO,,AOBUG,BUG,,Monbaca Benguela,Monbaca Benguela,"-12.6090","13.4037",AO,,Africa/Luanda,2007-01-03,BUG
Cabinda,AO,,AOCAB,CAB,,Cabinda Airport,Cabinda Airport,"-5.5970","12.1883",AO,,Africa/Luanda,2011-03-28,CAB
Cazombo,AO,,AOCAV,CAV,,Cazombo Airport,Cazombo Airport,"-11.8931","22.9164",AO,14,Africa/Luanda,2011-03-17,CAV
Catumbela,AO,,AOCBT,CBT,,Catumbela Airport,Catumbela Airport,"-12.4792","13.4869",AO,01,Africa/Luanda,2016-10-25,CBT
Waku Kungo,AO,,AOCEO,CEO,1121S 01507E,Uacu Cungo,Uacu Cungo,"-11.3567","15.1172",AO,06,Africa/Luanda,2015-04-24,CEO
Cafunfo,AO,,AOCFF,CFF,,Cafunfo Airport,Cafunfo Airport,"-8.7836","17.9897",AO,17,Africa/Luanda,2011-03-17,CFF
Cangamba,AO,,AOCNZ,CNZ,,Cangamba,Cangamba,"-13.6833","19.8667",AO,14,Africa/Luanda,2018-10-09,CNZ
Cuito Cuanavale,AO,,AOCTI,CTI,,Cuito Cuanavale Airport,Cuito Cuanavale Airport,"-15.1603","19.1561",AO,04,Africa/Luanda,2011-03-17,CTI
Dirico,AO,,AODRC,DRC,,Dirico Airport,Dirico Airport,"-17.9819","20.7681",AO,04,Africa/Luanda,2011-03-17,DRC
Dundo,AO,,AODUE,DUE,,Dundo,Dundo,"-7.3664","20.8156",AO,17,Africa/Luanda,2017-05-07,DUE
Lumbala,AO,,AOGGC,GGC,,Lumbala Nguimbo,Lumbala Nguimbo,"-14.1016","21.4353",AO,14,Africa/Luanda,2013-06-16,GGC
Negage,AO,,AOGXG,GXG,,Mbanza Negage,Mbanza Negage,"-7.7887","15.2721",AO,15,Africa/Luanda,2012-01-17,GXG
Jamba,AO,,AOJMB,JMB,,Ndjamba,Ndjamba,"-14.6873","16.0342",AO,09,Africa/Luanda,2012-01-17,JMB
Capanda,AO,,AOKNP,KNP,,Capanda,Capanda,"-9.7731","15.4486",AO,12,Africa/Luanda,2012-05-05,KNP
Luanda,AO,,AOLAD,LAD,,Luanda,Luanda,"-8.8368","13.2343",AO,20,Africa/Luanda,2019-09-05,LAD
Lukapa,AO,,AOLBZ,LBZ,,Lucapa Airport,Lucapa Airport,"-8.4415","20.7320",AO,17,Africa/Luanda,2013-05-13,LBZ
Luena,AO,,AOLUO,LUO,,Luena Airport,Luena Airport,"-11.7681","19.8977",AO,14,Africa/Luanda,2011-02-17,LUO
Luzamba,AO,,AOLZM,LZM,,Luzamba Airport,Luzamba Airport,"-9.1159","18.0489",AO,17,Africa/Luanda,2014-04-13,LZM
Malange,AO,,AOMEG,MEG,,Malanje Airport,Malanje Airport,"-9.5251","16.3124",AO,12,Africa/Luanda,2011-02-17,MEG
Namibe,AO,,AOMSZ,MSZ,,Moçâmedes,Mocamedes,"-15.1961","12.1522",AO,13,Africa/Luanda,2020-07-08,MSZ
Sumbe,AO,,AONDD,NDD,,Sumbe Airport,Sumbe Airport,"-11.1679","13.8475",AO,06,Africa/Luanda,2011-02-17,NDD
N'dalatando,AO,CNO,AONDF,NDF,0918S 01455E,N’dalatando,N'dalatando,"-9.2978","14.9116",AO,05,Africa/Luanda,2017-05-07,NDF
Huambo,AO,,AONOV,NOV,,Albano Machado Airport,Albano Machado Airport,"-12.8089","15.7606",AO,,Africa/Luanda,2013-05-12,NOV
Nzagi,AO,,AONZA,NZA,,Nzagi Airport,Nzagi Airport,"-7.7166","21.3583",AO,17,Africa/Luanda,2012-04-01,NZA
Porto Amboim,AO,,AOPBN,PBN,,Porto Amboim Airport,Porto Amboim Airport,"-10.7220","13.7655",AO,06,Africa/Luanda,2014-08-16,PBN
Chitato,AO,,AOPGI,PGI,,Chitato Airport,Chitato Airport,"-7.3587","20.8050",AO,17,Africa/Luanda,2013-05-09,PGI
Lubango,AO,,AOSDD,SDD,,Lubango Airport,Lubango Airport,"-14.9247","13.5750",AO,09,Africa/Luanda,2014-08-15,SDD
Menongue,AO,,AOSPP,SPP,,Menongue Airport,Menongue Airport,"-14.6576","17.7198",AO,04,Africa/Luanda,2011-02-17,SPP
M'banza Congo,AO,,AOSSY,SSY,,Mbanza Kongo,Mbanza Kongo,"-6.2667","14.2383",AO,16,Africa/Luanda,2020-07-08,SSY
Kuito,AO,,AOSVP,SVP,,Bie Silva Porto,Bie Silva Porto,"-12.4046","16.9474",AO,,Africa/Luanda,2007-01-03,SVP
Soyo,AO,,AOSZA,SZA,,Soio,Soio,"-6.1349","12.3689",AO,16,Africa/Luanda,2018-01-15,SZA
Luau,AO,,AOUAL,UAL,,Luau Airport,Luau Airport,"-10.7158","22.2311",AO,14,Africa/Luanda,2011-02-17,UAL
Uíge,AO,,AOUGO,UGO,0737S 01503E,Uíge,Uige,"-7.6087","15.0613",AO,15,Africa/Luanda,2017-05-07,UGO
Saurimo,AO,,AOVHC,VHC,,Saurimo Airport,Saurimo Airport,"-9.6891","20.4319",AO,18,Africa/Luanda,2011-02-17,VHC
Ongiva,AO,,AOVPE,VPE,,Ondjiva,Ondjiva,"-17.0667","15.7333",AO,07,Africa/Luanda,2012-01-17,VPE
Xangongo,AO,,AOXGN,XGN,,Xangongo,Xangongo,"-16.7500","14.9833",AO,07,Africa/Luanda,2012-01-17,XGN
"Teniente R. Marsh",AQ,,AQTNM,TNM,6213S 05855W,King George Island,King George Island,"-62.0000","-58.1000",AQ,,Antarctica/Palmer,2017-07-02,TNM
Jorge Newbury Apt/Buenos Aires,AR,B,ARAEP,AEP,,Jorge Newbery Airport,Jorge Newbery Airport,"-34.5592","-58.4156",AR,07,America/Argentina/Buenos_Aires,2017-05-08,AEP
San Rafael,AR,M,ARAFA,AFA,,San Rafael,San Rafael,"-34.6177","-68.3301",AR,13,America/Argentina/Mendoza,2016-01-30,AFA
Paso de los Libres,AR,W,ARAOL,AOL,,Paso de los Libres,Paso de los Libres,"-29.7125","-57.0877",AR,06,America/Argentina/Cordoba,2015-04-22,AOL
Zapala,AR,Q,ARAPZ,APZ,,Zapala,Zapala,"-38.8992","-70.0544",AR,15,America/Argentina/Salta,2015-04-22,APZ
Alto Río Senguerr,AR,U,ARARR,ARR,4502S 07050W,Alto Río Senguer,Alto Rio Senguer,"-45.0410","-70.8198",AR,04,America/Argentina/Catamarca,2020-06-10,ARR
Bahía Blanca,AR,B,ARBHI,BHI,3843S 06217W,Comandante Espora Airport,Comandante Espora Airport,"-38.7287","-62.1530",AR,01,America/Argentina/Buenos_Aires,2015-09-05,BHI
San Carlos de Bariloche,AR,R,ARBRC,BRC,4109S 07118W,Bariloche Aerodrome,Bariloche Aerodrome,"-41.1512","-71.1575",AR,16,America/Argentina/Salta,2015-04-22,BRC
Buenos Aires,AR,C,ARBUE,BUE,3435S 05840W,Buenos Aires,Buenos Aires,"-34.6131","-58.3772",AR,07,America/Argentina/Buenos_Aires,2019-09-05,BUE
Caballito,AR,B,ARCAB,CAB,3437S 05827W,Ciudad Autónoma de Buenos Aires,Ciudad Autonoma de Buenos Aires,"-34.6000","-58.4500",AR,07,America/Argentina/Buenos_Aires,2019-03-14,CAB
Colonia Catriel,AR,R,ARCCT,CCT,,Catriel,Catriel,"-37.8791","-67.7956",AR,16,America/Argentina/Salta,2016-03-06,CCT
Clorinda,AR,F,ARCLX,CLX,,Clorinda,Clorinda,"-25.2848","-57.7185",AR,09,America/Argentina/Cordoba,2016-01-30,CLX
Corrientes,AR,W,ARCNQ,CNQ,,Corrientes,Corrientes,"-27.4678","-58.8344",AR,06,America/Argentina/Cordoba,2019-09-05,CNQ
Charata,AR,H,ARCNT,CNT,,Charata,Charata,"-27.2144","-61.1880",AR,03,America/Argentina/Cordoba,2016-01-30,CNT
Concordia,AR,E,ARCOC,COC,,Concordia,Concordia,"-31.3930","-58.0209",AR,08,America/Argentina/Cordoba,2016-01-30,COC
Córdoba,AR,X,ARCOR,COR,3124S 06411W,Córdoba,Cordoba,"-31.4135","-64.1810",AR,05,America/Argentina/Cordoba,2019-09-05,COR
San Martín de los Andes,AR,Q,ARCPC,CPC,4010S 07121W,San Martín de los Andes,San Martin de los Andes,"-40.1579","-71.3534",AR,15,America/Argentina/Salta,2015-04-22,CPC
Carmen de Patagones,AR,B,ARCPG,CPG,,Carmen de Patagones,Carmen de Patagones,"-40.7983","-62.9810",AR,01,America/Argentina/Buenos_Aires,2016-01-30,CPG
Comodoro Rivadavia,AR,U,ARCRD,CRD,,Comodoro Rivadavia,Comodoro Rivadavia,"-45.8641","-67.4966",AR,04,America/Argentina/Rio_Gallegos,2019-09-09,CRD
Ceres,AR,S,ARCRR,CRR,,Ceres,Ceres,"-29.8810","-61.9450",AR,21,America/Argentina/Cordoba,2020-04-05,CRR
Coronel Suarez,AR,B,ARCSZ,CSZ,3728S 06155W,Coronel Suárez,Coronel Suarez,"-37.4547","-61.9334",AR,01,America/Argentina/Buenos_Aires,2016-03-06,CSZ
Catamarca,AR,K,ARCTC,CTC,,San Fernando del Valle de Catamarca,San Fernando del Valle de Catamarca,"-28.4696","-65.7852",AR,02,America/Argentina/Catamarca,2016-01-30,CTC
Cutral-Có,AR,Q,ARCUT,CUT,3856S 06914W,Cutral-Có,Cutral-Co,"-38.9342","-69.2305",AR,15,America/Argentina/Salta,2015-12-09,CUT
Caviahue,AR,Q,ARCVH,CVH,,Caviahue Airport,Caviahue Airport,"-37.8514","-71.0092",AR,15,America/Argentina/Salta,2016-01-30,CVH
Caleta Olivia,AR,Z,ARCVI,CVI,,Caleta Olivia Airport,Caleta Olivia Airport,"-46.3722","-67.5855",AR,20,America/Argentina/Rio_Gallegos,2016-01-30,CVI
Ensenada,AR,B,AREEA,EEA,3452S 05753W,Instituto Nacional de Tecnología Agropecuaria Estación Experimental Agropecuaria Delta del Paraná,Instituto Nacional de Tecnologia Agropecuaria Estacion Experimental Agropecuaria Delta del Parana,"-34.1749","-58.8630",AR,01,America/Argentina/Buenos_Aires,2016-06-22,EEA
El Bolsón,AR,R,AREHL,EHL,4158S 07131W,El Bolsón,El Bolson,"-41.9605","-71.5334",AR,16,America/Argentina/Salta,2016-01-30,EHL
Eldorado,AR,N,ARELO,ELO,,Eldorado,Eldorado,"-26.4048","-54.6248",AR,14,America/Argentina/Cordoba,2015-04-22,ELO
El Maitén,AR,U,AREMX,EMX,4203S 07110W,El Maitén,El Maiten,"-42.0492","-71.1669",AR,04,America/Argentina/Catamarca,2017-03-25,EMX
El Palomar,AR,B,AREPA,EPA,3432S 05836W,El Palomar,El Palomar,"-34.5417","-58.6153",AR,01,America/Argentina/Buenos_Aires,2017-03-24,EPA
Esquel,AR,U,AREQS,EQS,,Esquel,Esquel,"-42.9115","-71.3195",AR,04,America/Argentina/Catamarca,2015-04-22,EQS
Ministro Pistarini Apt/Buenos Aires,AR,B,AREZE,EZE,3450S 05831W,Buenos Aires - Ministro Pistarini International Airport,Buenos Aires - Ministro Pistarini International Airport,"-34.8222","-58.5358",AR,01,America/Argentina/Buenos_Aires,2017-09-21,EZE
Formosa,AR,P,ARFMA,FMA,,Formosa,Formosa,"-26.1849","-58.1731",AR,09,America/Argentina/Cordoba,2018-11-30,FMA
El Calafate,AR,Z,ARFTE,FTE,5016S 07203W,El Calafate,El Calafate,"-50.3407","-72.2768",AR,20,America/Argentina/Rio_Gallegos,2017-07-20,FTE
Gobernador Gregores,AR,Z,ARGGS,GGS,,Gobernador Gregores,Gobernador Gregores,"-48.7506","-70.2474",AR,20,America/Argentina/Rio_Gallegos,2016-01-30,GGS
Gualeguaychú,AR,E,ARGHU,GHU,3301S 05831W,Gualeguaychú,Gualeguaychu,"-33.0094","-58.5172",AR,08,America/Argentina/Cordoba,2016-01-30,GHU
General Roca,AR,R,ARGNR,GNR,3902S 06735W,General Roca,General Roca,"-39.0333","-67.5833",AR,16,America/Argentina/Salta,2015-04-22,GNR
General Pico,AR,L,ARGPO,GPO,,General Pico,General Pico,"-35.6566","-63.7568",AR,11,America/Argentina/Salta,2016-01-30,GPO
Chos Malal,AR,Q,ARHOS,HOS,,Chos Malal,Chos Malal,"-37.3781","-70.2708",AR,15,America/Argentina/Salta,2016-01-30,HOS
Ingeniero Jacobacci,AR,R,ARIGB,IGB,,Ingeniero Jacobacci,Ingeniero Jacobacci,"-41.3292","-69.5502",AR,16,America/Argentina/Salta,2016-01-30,IGB
Iguazú,AR,N,ARIGR,IGR,2534S 05434W,Puerto Iguazú,Puerto Iguazu,"-25.5991","-54.5735",AR,14,America/Argentina/Cordoba,2015-04-22,IGR
Lago Argentino,AR,Z,ARING,ING,,Lago Argentino Aerodrome,Lago Argentino Aerodrome,"-50.3333","-72.3000",AR,20,America/Argentina/Rio_Gallegos,2017-09-16,ING
La Rioja,AR,F,ARIRJ,IRJ,,La Rioja,La Rioja,"-29.4110","-66.8507",AR,12,America/Argentina/La_Rioja,2019-09-05,IRJ
Junín,AR,B,ARJNI,JNI,3435S 06058W,Junín,Junin,"-34.5838","-60.9433",AR,01,America/Argentina/Buenos_Aires,2015-04-22,JNI
José de San Martín,AR,U,ARJSM,JSM,4402S 07029W,José de San Martín,Jose de San Martin,"-44.0503","-70.4697",AR,04,America/Argentina/Catamarca,2017-03-25,JSM
Jujuy,AR,Y,ARJUJ,JUJ,,San Salvador de Jujuy,San Salvador de Jujuy,"-24.1946","-65.2971",AR,10,America/Argentina/Jujuy,2019-09-05,JUJ
La Cumbre,AR,X,ARLCM,LCM,,La Cumbre,La Cumbre,"-30.9820","-64.4914",AR,05,America/Argentina/Cordoba,2016-01-30,LCM
Loncopué,AR,Q,ARLCP,LCP,3804S 07037W,Loncopué,Loncopue,"-38.0728","-70.6161",AR,15,America/Argentina/Salta,2017-03-25,LCP
Malargüe,AR,M,ARLGS,LGS,3528S 06935W,Malargüe,Malarguee,"-35.4755","-69.5843",AR,13,America/Argentina/Mendoza,2016-01-30,LGS
Las Heras,AR,Z,ARLHS,LHS,,Las Heras,Las Heras,"-46.5419","-68.9359",AR,20,America/Argentina/Rio_Gallegos,2016-01-30,LHS
Las Lomitas,AR,P,ARLLS,LLS,,Las Lomitas,Las Lomitas,"-24.7096","-60.5930",AR,09,America/Argentina/Cordoba,2016-01-30,LLS
Los Menucos,AR,R,ARLMD,LMD,,Los Menucos,Los Menucos,"-40.8440","-68.0872",AR,16,America/Argentina/Salta,2016-01-30,LMD
La Plata,AR,B,ARLPG,LPG,3451S 05753W,La Plata,La Plata,"-34.9215","-57.9545",AR,01,America/Argentina/Buenos_Aires,2019-09-05,LPG
San Luis,AR,D,ARLUQ,LUQ,3318S 06621W,San Luis,San Luis,"-33.2950","-66.3356",AR,19,America/Argentina/San_Luis,2016-09-05,LUQ
Monte Caseros,AR,W,ARMCS,MCS,,Monte Caseros,Monte Caseros,"-30.2536","-57.6363",AR,06,America/Argentina/Cordoba,2015-04-22,MCS
Mar del Plata,AR,B,ARMDQ,MDQ,3803S 05732W,Mar del Plata,Mar del Plata,"-38.0004","-57.5562",AR,01,America/Argentina/Buenos_Aires,2019-09-05,MDQ
Mercedes,AR,W,ARMDX,MDX,,Mercedes,Mercedes,"-29.1842","-58.0752",AR,06,America/Argentina/Cordoba,2015-06-15,MDX
Mendoza,AR,M,ARMDZ,MDZ,,Mendoza,Mendoza,"-32.8908","-68.8272",AR,13,America/Argentina/Mendoza,2020-07-08,MDZ
Miramar,AR,B,ARMJR,MJR,,Miramar,Miramar,"-38.2716","-57.8389",AR,01,America/Argentina/Buenos_Aires,2016-01-30,MJR
Maquinchao,AR,R,ARMQD,MQD,,Maquinchao,Maquinchao,"-41.2491","-68.7032",AR,16,America/Argentina/Salta,2019-03-24,MQD
Necochea,AR,B,ARNEC,NEC,,Necochea,Necochea,"-38.5545","-58.7396",AR,01,America/Argentina/Buenos_Aires,2016-01-27,NEC
Neuquén,AR,Q,ARNQN,NQN,3857S 06804W,Neuquén,Neuquen,"-38.9516","-68.0591",AR,15,America/Argentina/Salta,2020-06-10,NQN
San Antonio Oeste,AR,R,AROES,OES,,San Antonio Oeste,San Antonio Oeste,"-40.7319","-64.9477",AR,16,America/Argentina/Salta,2016-01-30,OES
Colonia Sarmiento,AR,U,AROLN,OLN,,Sarmiento,Sarmiento,"-45.5881","-69.0700",AR,04,America/Argentina/Catamarca,2017-02-07,OLN
Oran,AR,A,ARORA,ORA,,San Ramón de la Nueva Orán,San Ramon de la Nueva Oran,"-23.1370","-64.3243",AR,17,America/Argentina/Salta,2016-01-30,ORA
Goya,AR,W,AROYA,OYA,,Goya,Goya,"-29.1399","-59.2634",AR,06,America/Argentina/Cordoba,2018-11-30,OYA
Tres Arroyos,AR,B,AROYO,OYO,3823S 06017W,Tres Arroyos,Tres Arroyos,"-38.3739","-60.2798",AR,01,America/Argentina/Buenos_Aires,2015-04-22,OYO
Pehuajó,AR,B,ARPEH,PEH,3549S 06154W,Pehuajó,Pehuajo,"-35.8108","-61.8968",AR,01,America/Argentina/Buenos_Aires,2015-04-22,PEH
Perito Moreno,AR,Z,ARPMQ,PMQ,,Perito Moreno,Perito Moreno,"-46.5900","-70.9297",AR,20,America/Argentina/Rio_Gallegos,2016-01-30,PMQ
Puerto Madryn,AR,U,ARPMY,PMY,4245S 06502W,Puerto Madryn,Puerto Madryn,"-42.7692","-65.0385",AR,04,America/Argentina/Catamarca,2016-01-30,PMY
Paraná,AR,E,ARPRA,PRA,3144S 06032W,Paraná,Parana,"-31.7327","-60.5290",AR,08,America/Argentina/Cordoba,2018-11-30,PRA
Presidente Roque Sáenz Peña,AR,H,ARPRQ,PRQ,3433S 05830W,Presidencia Roque Sáenz Peña,Presidencia Roque Saenz Pena,"-26.7852","-60.4388",AR,03,America/Argentina/Cordoba,2016-10-30,PRQ
Posadas,AR,N,ARPSS,PSS,,Posadas,Posadas,"-27.3671","-55.8961",AR,14,America/Argentina/Cordoba,2015-04-22,PSS
Puerto Deseado,AR,Z,ARPUD,PUD,4745S 06554W,Puerto Deseado,Puerto Deseado,"-47.7503","-65.8938",AR,20,America/Argentina/Rio_Gallegos,2016-01-30,PUD
Olivos,AR,B,ARQLV,QLV,,Olivos,Olivos,"-34.5075","-58.4870",AR,01,America/Argentina/Buenos_Aires,2015-04-22,QLV
Pinamar,AR,B,ARQPQ,QPQ,,Pinamar,Pinamar,"-37.1080","-56.8614",AR,01,America/Argentina/Buenos_Aires,2016-01-30,QPQ
Rafaela,AR,S,ARRAF,RAF,3116S 06129W,Rafaela Airport,Rafaela Airport,"-31.2833","-61.5000",AR,21,America/Argentina/Cordoba,2016-01-30,RAF
Reconquista,AR,S,ARRCQ,RCQ,2909S 05939W,Reconquista,Reconquista,"-29.1500","-59.6500",AR,21,America/Argentina/Cordoba,2018-03-27,RCQ
Río Cuarto,AR,X,ARRCU,RCU,3308S 06421W,Río Cuarto,Rio Cuarto,"-33.1307","-64.3499",AR,05,America/Argentina/Cordoba,2015-04-22,RCU
Rincón de los Sauces,AR,Q,ARRDS,RDS,,Rincon De Los Sauces Airport,Rincon De Los Sauces Airport,"-37.3906","-68.9042",AR,15,America/Argentina/Salta,2016-01-30,RDS
Trelew,AR,U,ARREL,REL,,Trelew,Trelew,"-43.2490","-65.3050",AR,04,America/Argentina/Catamarca,2016-01-30,REL
Resistencia,AR,H,ARRES,RES,,Resistencia,Resistencia,"-27.4606","-58.9839",AR,03,America/Argentina/Cordoba,2016-01-30,RES
Río Grande,AR,V,ARRGA,RGA,5347S 06742W,Río Grande,Rio Grande,"-53.7877","-67.7095",AR,23,America/Argentina/Ushuaia,2017-12-21,RGA
Río Gallegos,AR,Z,ARRGL,RGL,5138S 06913W,Río Gallegos,Rio Gallegos,"-51.6226","-69.2181",AR,20,America/Argentina/Rio_Gallegos,2020-06-10,RGL
Río Hondo,AR,G,ARRHD,RHD,2734S 06457W,Termas de Río Hondo,Termas de Rio Hondo,"-27.4936","-64.8597",AR,22,America/Argentina/Cordoba,2017-03-25,RHD
Merlo,AR,D,ARRLO,RLO,3221S 06501W,Merlo,Merlo,"-32.3429","-65.0140",AR,19,America/Argentina/San_Luis,2019-03-24,RLO
Rosario,AR,S,ARROS,ROS,3257S 06039W,Rosario International Airport,Rosario International Airport,"-32.9036","-60.7850",AR,21,America/Argentina/Cordoba,2016-01-30,ROS
Río Mayo,AR,U,ARROY,ROY,4541S 07016W,Río Mayo,Rio Mayo,"-45.6857","-70.2580",AR,04,America/Argentina/Catamarca,2020-06-10,ROY
Santa Rosa,AR,L,ARRSA,RSA,,Santa Rosa,Santa Rosa,"-36.6167","-64.2833",AR,11,America/Argentina/Salta,2016-01-30,RSA
Río Turbio,AR,Z,ARRYO,RYO,5132S 07218W,Río Turbio Airport,Rio Turbio Airport,"-51.6055","-72.2176",AR,20,America/Argentina/Rio_Gallegos,2016-01-30,RYO
Santa Cruz,AR,Z,ARRZA,RZA,5001S 06825W,Puerto Santa Cruz,Puerto Santa Cruz,"-50.0191","-68.5232",AR,20,America/Argentina/Rio_Gallegos,2017-03-25,RZA
San Antonio de Arredondo,AR,X,ARSAA,SAA,3129S 06431W,Rosario International Airport,Rosario International Airport,"-32.9036","-60.7850",AR,21,America/Argentina/Cordoba,2016-01-30,SAA
San Antonio Este,AR,R,ARSAE,SAE,4048S 06444W,Buenos Aires - Ministro Pistarini International Airport,Buenos Aires - Ministro Pistarini International Airport,"-34.8222","-58.5358",AR,01,America/Argentina/Buenos_Aires,2017-09-21,SAE
Santa Ana,AR,N,ARSAN,SAN,2720S 05535W,Coronel Felipe Varela International Airport,Coronel Felipe Varela International Airport,"-28.5932","-65.7509",AR,02,America/Argentina/Catamarca,2016-10-22,SAN
San Antonio de Areco,AR,B,ARSAO,SAO,3415S 05928W,Rio Tercero,Rio Tercero,"-32.1667","-64.0833",AR,05,America/Argentina/Cordoba,2016-01-30,SAO
Sarandi,AR,B,ARSAR,SAR,3440S 05820W,Corrientes International Airport,Corrientes International Airport,"-27.4455","-58.7619",AR,06,America/Argentina/Cordoba,2016-11-29,SAR
San Martin,AR,B,ARSAT,SAT,3434S 05831W,Clorinda Airport,Clorinda Airport,"-25.3000","-57.7333",AR,09,America/Argentina/Cordoba,2020-04-05,SAT
Santiago del Estero,AR,G,ARSDE,SDE,,Santiago del Estero,Santiago del Estero,"-27.7951","-64.2615",AR,22,America/Argentina/Cordoba,2019-09-05,SDE
San Fernando,AR,B,ARSFE,SFE,,"Suipacha y 1 de Mayo, SFE","Suipacha y 1 de Mayo, SFE","-31.6393","-60.7085",AR,21,America/Argentina/Cordoba,2016-03-17,SFE
Santa Fe,AR,S,ARSFN,SFN,3136S 06041W,Santa Fe,Santa Fe,"-31.6488","-60.7087",AR,21,America/Argentina/Cordoba,2019-03-21,SFN
Sierra Grande,AR,R,ARSGV,SGV,,Sierra Grande,Sierra Grande,"-41.6060","-65.3557",AR,16,America/Argentina/Salta,2016-01-30,SGV
Salta,AR,A,ARSLA,SLA,,Salta,Salta,"-24.7859","-65.4117",AR,17,America/Argentina/Salta,2019-09-05,SLA
Santa Teresita,AR,B,ARSST,SST,,Santa Teresita,Santa Teresita,"-36.5413","-56.7011",AR,01,America/Argentina/Buenos_Aires,2016-01-30,SST
Sáenz Peña,AR,B,ARSZQ,SZQ,3436S 05832W,Presidencia Roque Sáenz Peña,Presidencia Roque Saenz Pena,"-26.7852","-60.4388",AR,03,America/Argentina/Cordoba,2016-10-30,SZQ
Tandil,AR,B,ARTDL,TDL,,Tandil,Tandil,"-37.3217","-59.1332",AR,01,America/Argentina/Buenos_Aires,2015-04-22,TDL
Tartagal,AR,A,ARTTG,TTG,,Tartagal,Tartagal,"-22.5164","-63.8013",AR,17,America/Argentina/Salta,2016-01-30,TTG
Tucumán,AR,T,ARTUC,TUC,2649S 06513W,San Miguel de Tucumán,San Miguel de Tucuman,"-26.8241","-65.2226",AR,24,America/Argentina/Tucuman,2019-09-05,TUC
San Juan,AR,J,ARUAQ,UAQ,,San Juan,San Juan,"-31.5375","-68.5364",AR,18,America/Argentina/San_Juan,2019-09-05,UAQ
San Julian,AR,Z,ARULA,ULA,4918S 06743W,San Julián,San Julian,"-49.3055","-67.7274",AR,20,America/Argentina/Rio_Gallegos,2016-01-30,ULA
Ushuaia,AR,V,ARUSH,USH,5448S 06818W,Ushuaia,Ushuaia,"-54.8108","-68.3159",AR,23,America/Argentina/Ushuaia,2019-09-05,USH
Curuzú Cuatiá,AR,W,ARUZU,UZU,2947S 05803W,Curuzú Cuatiá,Curuzu Cuatia,"-29.7917","-58.0546",AR,06,America/Argentina/Cordoba,2016-01-30,UZU
Valcheta,AR,R,ARVCF,VCF,,Valcheta,Valcheta,"-40.6799","-66.1628",AR,16,America/Argentina/Salta,2019-03-24,VCF
Viedma,AR,R,ARVDM,VDM,,Viedma,Viedma,"-40.8135","-62.9967",AR,16,America/Argentina/Salta,2016-01-30,VDM
Villa Dolores,AR,X,ARVDR,VDR,,Villa Dolores,Villa Dolores,"-31.9459","-65.1896",AR,05,America/Argentina/Cordoba,2016-01-30,VDR
General Villegas,AR,B,ARVGS,VGS,,General Villegas,General Villegas,"-35.0329","-63.0125",AR,01,America/Argentina/Buenos_Aires,2016-11-29,VGS
Villa Gesell,AR,B,ARVLG,VLG,,Villa Gesell,Villa Gesell,"-37.2639","-56.9730",AR,01,America/Argentina/Buenos_Aires,2016-01-30,VLG
Villa Mercedes,AR,D,ARVME,VME,3340S 06528W,Villa Reynolds Airport,Villa Reynolds Airport,"-33.7251","-65.3781",AR,19,America/Argentina/San_Luis,2016-01-30,VME
Pichanal,AR,A,ARXMV,XMV,,Pichanal,Pichanal,"-23.3164","-64.2183",AR,17,America/Argentina/Salta,2016-01-30,XMV
Ledesma,AR,Y,ARXMX,XMX,,Ledesma,Ledesma,"-23.8333","-64.7500",AR,10,America/Argentina/Jujuy,2016-01-30,XMX
Mosconi,AR,A,ARXOS,XOS,,General Mosconi,General Mosconi,"-22.5959","-63.8126",AR,17,America/Argentina/Salta,2020-04-05,XOS
San Pedro,AR,Y,ARXPD,XPD,,San Pedro de Jujuy,San Pedro de Jujuy,"-24.2313","-64.8661",AR,10,America/Argentina/Jujuy,2020-04-05,XPD
Embarcacíon,AR,A,ARZAI,ZAI,2313S 06406W,Embarcación,Embarcacion,"-23.2100","-64.0996",AR,17,America/Argentina/Salta,2015-05-23,ZAI
Fitiuta,AS,,ASFTI,FTI,,Fitiuta,Fitiuta,"-14.2167","-169.4249",AS,020,Pacific/Pago_Pago,2015-05-02,FTI
Ofu,AS,,ASOFU,OFU,,Ofu,Ofu,"-14.1753","-169.6775",AS,020,Pacific/Pago_Pago,2012-02-03,OFU
Pago Pago,AS,,ASPPG,PPG,1416N 17042W,Pago Pago,Pago Pago,"-14.2781","-170.7025",AS,010,Pacific/Pago_Pago,2019-09-05,PPG
Tau,AS,,ASTAV,TAV,,Tau Airport,Tau Airport,"-14.2292","-169.5111",AS,020,Pacific/Pago_Pago,2017-10-14,TAV
Sankt Anton,AT,7,ATANT,ANT,4707N 01016E,St Anton am Arlberg,St Anton am Arlberg,"47.1275","10.2637",AT,07,Europe/Vienna,2018-07-29,ANT
Gloggnitz,AT,3,ATGGZ,GGZ,4740N 01556E,Graz Hauptbahnhof,Graz Hauptbahnhof,"47.0732","15.4164",AT,06,Europe/Vienna,2015-12-05,GGZ
Graz,AT,6,ATGRZ,GRZ,4704N 01527E,Graz,Graz,"47.0667","15.4500",AT,06,Europe/Vienna,2019-09-05,GRZ
Hohenems,AT,8,ATHOH,HOH,4722N 00941E,Hohenems,Hohenems,"47.3667","9.6831",AT,08,Europe/Vienna,2018-07-28,HOH
Innsbruck,AT,7,ATINN,INN,4716N 01124E,Innsbruck,Innsbruck,"47.2627","11.3945",AT,07,Europe/Vienna,2019-09-05,INN
Klagenfurt,AT,2,ATKLU,KLU,4637N 01418E,Klagenfurt Airport,Klagenfurt Airport,"46.6450","14.3267",AT,02,Europe/Vienna,2015-12-06,KLU
Linz,AT,4,ATLNZ,LNZ,4818N 01418E,Linz,Linz,"48.3064","14.2861",AT,04,Europe/Vienna,2019-09-05,LNZ
Loimersdorf,AT,,ATLOI,LOI,4810N 01650E,Hohenems-Dornbirn Airport,Hohenems-Dornbirn Airport,"47.3833","9.6988",AT,08,Europe/Vienna,2018-07-29,LOI
Losenstein,AT,4,ATLOS,LOS,4755N 01426E,Mauterndorf Airport,Mauterndorf Airport,"47.1320","13.6958",AT,05,Europe/Vienna,2014-05-04,LOS
Micheldorf am Kienberge,AT,4,ATMAK,MAK,4751N 01408E,MAK-Austrian Museum of applied arts,MAK-Austrian Museum of applied arts,"48.2078","16.3814",AT,09,Europe/Vienna,2013-08-12,MAK
Wörgl,AT,,ATQXZ,QXZ,4729N 01204E,Wörgl,Woergl,"47.4891","12.0617",AT,07,Europe/Vienna,2018-07-28,QXZ
Salzburg,AT,5,ATSZG,SZG,4748N 01302E,Salzburg Airport,Salzburg Airport,"47.7933","13.0043",AT,05,Europe/Vienna,2018-07-29,SZG
Wien,AT,9,ATVIE,VIE,4812N 01622E,Vienna International Airport,Vienna International Airport,"48.1221","16.5575",AT,03,Europe/Vienna,2017-06-16,VIE
Arrabury,AU,QLD,AUAAB,AAB,,Arrabury,Arrabury,"-26.7641","141.0285",AU,04,Australia/Brisbane,2016-06-18,AAB
Beulah,AU,VIC,AUABC,ABC,3556S 14225E,ABC Bore,ABC Bore,"-31.6131","138.6962",AU,05,Australia/Adelaide,2014-04-09,ABC
Abingdon,AU,QLD,AUABG,ABG,,Abingdon Downs,Abingdon Downs,"-17.6044","143.1808",AU,04,Australia/Brisbane,2019-02-21,ABG
Alpha,AU,QLD,AUABH,ABH,,Alpha,Alpha,"-23.6491","146.6398",AU,04,Australia/Brisbane,2019-07-18,ABH
Bamaga,AU,QLD,AUABM,ABM,,Bamaga,Bamaga,"-10.8920","142.3893",AU,04,Australia/Brisbane,2019-07-18,ABM
Albury,AU,NSW,AUABX,ABX,3605S 14655E,Albury,Albury,"-36.0748","146.9240",AU,02,Australia/Sydney,2019-07-18,ABX
Adelaide,AU,SA,AUADL,ADL,3455S 13835E,Adelaide,Adelaide,"-34.9287","138.5986",AU,05,Australia/Adelaide,2020-06-19,ADL
Andamooka,AU,SA,AUADO,ADO,,Andamooka Airport,Andamooka Airport,"-30.4383","137.1370",AU,05,Australia/Adelaide,2011-03-17,ADO
Agnew,AU,QLD,AUAGW,AGW,,Agnew Airport,Agnew Airport,"-12.1456","142.1490",AU,04,Australia/Brisbane,2013-12-15,AGW
Albany,AU,WA,AUALH,ALH,,Albany,Albany,"-35.0269","117.8837",AU,08,Australia/Perth,2019-07-21,ALH
Amata,AU,NT,AUAMT,AMT,,Amata,Amata,"-26.1581","131.1483",AU,05,Australia/Adelaide,2019-07-18,AMT
Ammaroo,AU,NT,AUAMX,AMX,,Ammaroo,Ammaroo,"-21.7365","135.2563",AU,03,Australia/Darwin,2017-08-19,AMX
Angus Downs,AU,NT,AUANZ,ANZ,,Angus Downs Stn,Angus Downs Stn,"-25.0833","132.1670",AU,03,Australia/Darwin,2012-05-18,ANZ
Armidale,AU,NSW,AUARM,ARM,,Armidale,Armidale,"-30.5012","151.6655",AU,02,Australia/Sydney,2019-07-18,ARM
Ararat,AU,VIC,AUARY,ARY,,Ararat,Ararat,"-37.2854","142.9273",AU,07,Australia/Melbourne,2019-07-18,ARY
Alice Springs,AU,NT,AUASP,ASP,,Alice Springs,Alice Springs,"-23.6975","133.8836",AU,03,Australia/Darwin,2019-07-20,ASP
Augustus Downs,AU,QLD,AUAUD,AUD,,Augustus Downs,Augustus Downs,"-18.5500","139.8667",AU,04,Australia/Brisbane,2017-09-09,AUD
Aurukun Mission,AU,QLD,AUAUU,AUU,,Aurukun,Aurukun,"-13.3558","141.7271",AU,04,Australia/Brisbane,2019-07-18,AUU
Auvergne,AU,NT,AUAVG,AVG,,Auvergne Station,Auvergne Station,"-15.6836","130.0097",AU,03,Australia/Darwin,2019-05-22,AVG
Avalon,AU,VIC,AUAVV,AVV,,Avalon Airport,Avalon Airport,"-38.0394","144.4694",AU,07,Australia/Melbourne,2017-09-02,AVV
Austral Downs,AU,NT,AUAWP,AWP,,Austral Downs,Austral Downs,"-20.5019","137.7737",AU,03,Australia/Darwin,2017-04-29,AWP
Aramac,AU,QLD,AUAXC,AXC,,Aramac,Aramac,"-22.9683","145.2450",AU,04,Australia/Brisbane,2019-07-18,AXC
Alexandria,AU,NT,AUAXL,AXL,,Alexandria,Alexandria,"-19.0571","136.7068",AU,03,Australia/Darwin,2017-08-25,AXL
Alroy Downs,AU,NT,AUAYD,AYD,,Alroy Downs,Alroy Downs,"-19.2961","136.0713",AU,03,Australia/Darwin,2017-08-17,AYD
Anthony Lagoon,AU,NT,AUAYL,AYL,,Anthony Lagoon,Anthony Lagoon,"-17.9768","135.5317",AU,03,Australia/Darwin,2017-08-19,AYL
Ayers Rock,AU,NT,AUAYQ,AYQ,,Ayers Rock Airport,Ayers Rock Airport,"-25.1891","130.9775",AU,03,Australia/Darwin,2013-11-02,AYQ
Ayr,AU,QLD,AUAYR,AYR,,Ayr,Ayr,"-19.5739","147.4067",AU,04,Australia/Brisbane,2019-07-18,AYR
Big Bell,AU,WA,AUBBE,BBE,,Big Bell Airport,Big Bell Airport,"-27.3286","117.6730",AU,08,Australia/Perth,2012-04-21,BBE
Beelbangera,AU,NSW,AUBBL,BBL,3416S 14606E,Ballera Airport,Ballera Airport,"-27.4000","141.8126",AU,04,Australia/Brisbane,2013-09-22,BBL
Barcaldine,AU,QLD,AUBCI,BCI,,Barcaldine,Barcaldine,"-23.5535","145.2854",AU,04,Australia/Brisbane,2019-07-18,BCI
Bolwarra,AU,QLD,AUBCK,BCK,,Bolwarra,Bolwarra,"-17.4000","144.1833",AU,04,Australia/Brisbane,2019-05-22,BCK
Bickerton Island,AU,NT,AUBCZ,BCZ,,Bickerton Island,Bickerton Island,"-13.7553","136.2025",AU,03,Australia/Darwin,2020-06-26,BCZ
Bundaberg,AU,QLD,AUBDB,BDB,,Bundaberg,Bundaberg,"-24.8662","152.3479",AU,04,Australia/Brisbane,2013-06-25,BDB
Badu Island,AU,QLD,AUBDD,BDD,,Badu Island,Badu Island,"-10.1156","142.1447",AU,04,Australia/Brisbane,2017-07-18,BDD
Beagle Bay,AU,WA,AUBEE,BEE,,Beagle Bay Airport,Beagle Bay Airport,"-17.0162","122.6471",AU,08,Australia/Perth,2017-10-28,BEE
Belmont,AU,NSW,AUBEO,BEO,,Aeropelican Airport,Aeropelican Airport,"-33.0667","151.6480",AU,02,Australia/Sydney,2011-06-04,BEO
Bedourie,AU,QLD,AUBEU,BEU,,Bedourie,Bedourie,"-24.3637","139.4653",AU,04,Australia/Brisbane,2019-07-18,BEU
Bloomfield,AU,QLD,AUBFC,BFC,,Bloomfield Airport,Bloomfield Airport,"-15.8736","145.3300",AU,04,Australia/Brisbane,2017-10-28,BFC
Broken Hill,AU,NSW,AUBHQ,BHQ,,Broken Hill,Broken Hill,"-31.9652","141.4512",AU,02,Australia/Broken_Hill,2019-07-18,BHQ
Bathurst,AU,NSW,AUBHS,BHS,,Bathurst,Bathurst,"-33.4166","149.5806",AU,02,Australia/Sydney,2019-07-20,BHS
Brighton Downs,AU,QLD,AUBHT,BHT,,Brighton Downs,Brighton Downs,"-23.3606","141.5624",AU,04,Australia/Brisbane,2017-09-27,BHT
Billiluna,AU,WA,AUBIW,BIW,,Mindibungu,Mindibungu,"-19.5558","127.6613",AU,08,Australia/Perth,2017-06-30,BIW
Blackall,AU,QLD,AUBKQ,BKQ,,Blackall,Blackall,"-24.4233","145.4630",AU,04,Australia/Brisbane,2019-07-18,BKQ
Benalla,AU,VIC,AUBLN,BLN,,Benalla,Benalla,"-36.5511","145.9843",AU,07,Australia/Melbourne,2019-07-18,BLN
Bollon,AU,QLD,AUBLS,BLS,,Bollon,Bollon,"-28.0333","147.4833",AU,04,Australia/Brisbane,2019-07-18,BLS
Blackwater,AU,QLD,AUBLT,BLT,,Blackwater,Blackwater,"-23.5835","148.8791",AU,04,Australia/Brisbane,2019-07-18,BLT
Broome,AU,WA,AUBME,BME,,Broome,Broome,"-17.9554","122.2392",AU,08,Australia/Perth,2019-07-18,BME
Brampton,AU,QLD,AUBMP,BMP,,Brampton Island,Brampton Island,"-20.8079","149.2734",AU,04,Australia/Brisbane,2018-10-10,BMP
Brisbane,AU,QLD,AUBNE,BNE,2728S 15301E,Brisbane,Brisbane,"-27.4679","153.0281",AU,04,Australia/Brisbane,2019-09-05,BNE
Ballina,AU,NSW,AUBNK,BNK,,Ballina,Ballina,"-28.8641","153.5654",AU,02,Australia/Sydney,2019-07-18,BNK
Borroloola,AU,NT,AUBOX,BOX,,Borroloola,Borroloola,"-16.0697","136.3080",AU,03,Australia/Darwin,2019-07-18,BOX
Boulia,AU,QLD,AUBQL,BQL,,Boulia,Boulia,"-22.9114","139.9093",AU,04,Australia/Brisbane,2019-07-18,BQL
Balgo Hills,AU,WA,AUBQW,BQW,,Balgo Hill,Balgo Hill,"-20.1429","127.9840",AU,08,Australia/Perth,2013-05-08,BQW
Bourke,AU,NSW,AUBRK,BRK,,Bourke,Bourke,"-30.0901","145.9365",AU,02,Australia/Sydney,2020-01-17,BRK
Bathurst Island,AU,NT,AUBRT,BRT,,Bathurst Island,Bathurst Island,"-11.7356","130.4345",AU,03,Australia/Darwin,2016-11-27,BRT
Bairnsdale,AU,VIC,AUBSJ,BSJ,,Bairnsdale,Bairnsdale,"-37.8229","147.6104",AU,07,Australia/Melbourne,2019-09-07,BSJ
Brunette Downs,AU,NT,AUBTD,BTD,,Brunette Downs,Brunette Downs,"-18.6395","135.9482",AU,03,Australia/Darwin,2017-09-05,BTD
Betoota,AU,QLD,AUBTX,BTX,,Betoota,Betoota,"-25.6971","140.7465",AU,04,Australia/Brisbane,2013-11-09,BTX
Burketown,AU,QLD,AUBUC,BUC,1744S 13932E,Burketown,Burketown,"-17.7411","139.5477",AU,04,Australia/Brisbane,2019-07-18,BUC
Bunbury,AU,WA,AUBUY,BUY,,Bunbury,Bunbury,"-33.3271","115.6414",AU,08,Australia/Perth,2019-07-20,BUY
Birdsville,AU,QLD,AUBVI,BVI,,Birdsville,Birdsville,"-25.8980","139.3517",AU,04,Australia/Brisbane,2019-07-18,BVI
Batavia Downs,AU,QLD,AUBVW,BVW,,Batavia Downs Airport,Batavia Downs Airport,"-12.6592","142.6750",AU,04,Australia/Brisbane,2017-08-04,BVW
Beverley Springs,AU,WA,AUBVZ,BVZ,,Beverley Springs Airport,Beverley Springs Airport,"-16.7333","125.4330",AU,08,Australia/Perth,2011-06-04,BVZ
Barrow Island,AU,WA,AUBWB,BWB,,Barrow Island,Barrow Island,"-20.7799","115.4031",AU,08,Australia/Perth,2017-07-18,BWB
Brewarrina,AU,NSW,AUBWQ,BWQ,,Brewarrina,Brewarrina,"-29.9607","146.8599",AU,02,Australia/Sydney,2019-07-18,BWQ
Burnie,AU,TAS,AUBWT,BWT,,Burnie,Burnie,"-41.0558","145.9038",AU,06,Australia/Hobart,2019-07-21,BWT
Bankstown,AU,NSW,AUBWU,BWU,,Bankstown,Bankstown,"-33.9167","151.0333",AU,02,Australia/Sydney,2019-07-18,BWU
Bowen Hills,AU,QLD,AUBWW,BWW,2726S 15302E,Toowoomba Wellcamp Airport,Toowoomba Wellcamp Airport,"-27.5589","151.7959",AU,04,Australia/Brisbane,2017-11-03,BWW
Beauty Point,AU,TAS,AUBYP,BYP,,Barimunya,Barimunya,"-22.7057","119.1167",AU,08,Australia/Perth,2013-06-15,BYP
Baniyala,AU,NT,AUBYX,BYX,,Baniyala Airport,Baniyala Airport,"-13.1981","136.2270",AU,03,Australia/Darwin,2011-06-04,BYX
Balranald,AU,NSW,AUBZD,BZD,,Balranald,Balranald,"-34.6365","143.5614",AU,02,Australia/Sydney,2019-07-18,BZD
Bizant,AU,QLD,AUBZP,BZP,,Bizant,Bizant,"-15.2167","144.6330",AU,04,Australia/Brisbane,2012-05-18,BZP
Caloundra Head,AU,QLD,AUCAL,CAL,,McCALLUM PARK,McCALLUM PARK,"-30.5153","142.9021",AU,02,Australia/Sydney,2014-04-09,CAL
Cobar,AU,NSW,AUCAZ,CAZ,,Cobar,Cobar,"-31.4967","145.8344",AU,02,Australia/Sydney,2019-07-18,CAZ
Cherrabun,AU,WA,AUCBC,CBC,,Cherrabun Airfield,Cherrabun Airfield,"-18.9173","125.5365",AU,08,Australia/Perth,2017-08-06,CBC
Carabooda,AU,WA,AUCBD,CBD,3136S 11542E,Sydney Central Business District,Sydney Central Business District,"-33.8648","151.2077",AU,02,Australia/Sydney,2019-07-20,CBD
Cape Barren Island,AU,TAS,AUCBI,CBI,,Cape Barren Island Airport,Cape Barren Island Airport,"-40.3902","148.0180",AU,06,Australia/Hobart,2016-11-27,CBI
Canberra,AU,ACT,AUCBR,CBR,,Canberra,Canberra,"-35.2835","149.1281",AU,01,Australia/Sydney,2019-09-05,CBR
Condobolin,AU,NSW,AUCBX,CBX,,Condobolin,Condobolin,"-33.0888","147.1514",AU,02,Australia/Sydney,2019-07-18,CBX
Canobie,AU,QLD,AUCBY,CBY,,Canobie,Canobie,"-19.4833","140.9333",AU,04,Australia/Brisbane,2017-06-18,CBY
Chinchilla,AU,QLD,AUCCL,CCL,,Chinchilla,Chinchilla,"-26.7379","150.6297",AU,04,Australia/Brisbane,2019-07-18,CCL
Cowell,AU,SA,AUCCW,CCW,,Cowell,Cowell,"-33.6823","136.9212",AU,05,Australia/Adelaide,2019-07-18,CCW
Cooinda,AU,NT,AUCDA,CDA,,Cooinda Airport,Cooinda Airport,"-12.9033","132.5320",AU,03,Australia/Darwin,2011-06-04,CDA
Croydon,AU,QLD,AUCDQ,CDQ,,Croydon,Croydon,"-18.2043","142.2446",AU,04,Australia/Brisbane,2019-07-18,CDQ
Camden,AU,NSW,AUCDU,CDU,,Camden,Camden,"-34.0540","150.6962",AU,02,Australia/Sydney,2019-07-18,CDU
Ceduna,AU,SA,AUCED,CED,,Ceduna,Ceduna,"-32.1266","133.6727",AU,05,Australia/Adelaide,2019-07-18,CED
Cessnock,AU,NSW,AUCES,CES,,Cessnock,Cessnock,"-32.8321","151.3562",AU,02,Australia/Sydney,2019-07-18,CES
Clifton Hills,AU,SA,AUCFH,CFH,,Clifton Hills Station,Clifton Hills Station,"-27.0180","138.8940",AU,05,Australia/Adelaide,2017-09-17,CFH
Camfield,AU,NT,AUCFI,CFI,,Camfield Airport,Camfield Airport,"-17.0217","131.3270",AU,03,Australia/Darwin,2019-05-22,CFI
Carpentaria Downs,AU,QLD,AUCFP,CFP,,Carpentaria Downs,Carpentaria Downs,"-18.7181","144.3178",AU,04,Australia/Brisbane,2017-10-29,CFP
Coffs Harbour,AU,NSW,AUCFS,CFS,,Coffs Harbour,Coffs Harbour,"-30.2963","153.1135",AU,02,Australia/Sydney,2019-07-18,CFS
Caiguna,AU,WA,AUCGV,CGV,,Caiguna Airport,Caiguna Airport,"-32.2810","125.4780",AU,08,Australia/Perth,2017-09-08,CGV
Collie,AU,WA,AUCIE,CIE,,Collie,Collie,"-33.3621","116.1562",AU,08,Australia/Perth,2019-07-18,CIE
Croker Island,AU,NT,AUCKI,CKI,,Croker Island,Croker Island,"-11.1727","132.5267",AU,03,Australia/Darwin,2020-06-26,CKI
Coolah,AU,NSW,AUCLH,CLH,,Coolah,Coolah,"-31.8279","149.7156",AU,02,Australia/Sydney,2019-07-18,CLH
Cunnamulla,AU,QLD,AUCMA,CMA,,Cunnamulla,Cunnamulla,"-28.0677","145.6844",AU,04,Australia/Brisbane,2019-07-18,CMA
Cootamundra,AU,NSW,AUCMD,CMD,,Cootamundra,Cootamundra,"-34.6409","148.0284",AU,02,Australia/Sydney,2019-07-18,CMD
Camooweal,AU,QLD,AUCML,CML,,Camooweal,Camooweal,"-19.9215","138.1201",AU,04,Australia/Brisbane,2019-07-18,CML
Clermont,AU,QLD,AUCMQ,CMQ,,Clermont,Clermont,"-22.8241","147.6363",AU,04,Australia/Brisbane,2019-07-18,CMQ
Coonamble,AU,NSW,AUCNB,CNB,,Coonamble,Coonamble,"-30.9539","148.3888",AU,02,Australia/Sydney,2019-07-18,CNB
Coconut Island,AU,QLD,AUCNC,CNC,,Coconut Island,Coconut Island,"-10.0501","143.0690",AU,04,,2018-10-11,CNC
Cloncurry,AU,QLD,AUCNJ,CNJ,,Cloncurry,Cloncurry,"-20.7072","140.5130",AU,04,Australia/Brisbane,2019-07-18,CNJ
Cairns,AU,QLD,AUCNS,CNS,,Cairns,Cairns,"-16.9237","145.7661",AU,04,Australia/Brisbane,2019-05-22,CNS
Coonabarabran,AU,NSW,AUCOJ,COJ,,Coonabarabran,Coonabarabran,"-31.2773","149.2790",AU,02,Australia/Sydney,2019-07-18,COJ
Coolawanyah,AU,WA,AUCOY,COY,,Coolawanyah,Coolawanyah,"-21.8051","117.8061",AU,08,Australia/Perth,2014-01-25,COY
Coober Pedy,AU,SA,AUCPD,CPD,,Coober Pedy,Coober Pedy,"-29.0142","134.7550",AU,05,Australia/Adelaide,2019-07-18,CPD
Cape Flattery,AU,QLD,AUCQP,CQP,,Cape Flattery Airport,Cape Flattery Airport,"-14.9710","145.3110",AU,04,Australia/Brisbane,2017-10-28,CQP
Collarenebri,AU,NSW,AUCRB,CRB,,Collarenebri,Collarenebri,"-29.5438","148.5759",AU,02,Australia/Sydney,2019-07-18,CRB
Cherribah,AU,QLD,AUCRH,CRH,,Cherrabah,Cherrabah,"-27.6500","151.9500",AU,04,Australia/Brisbane,2012-05-18,CRH
Coorabie,AU,SA,AUCRJ,CRJ,,Coorabie,Coorabie,"-31.8998","132.2953",AU,05,Australia/Adelaide,2014-04-08,CRJ
Carlton Hill,AU,WA,AUCRY,CRY,,Carlton Hill,Carlton Hill,"-15.4866","128.5349",AU,08,Australia/Perth,2019-05-23,CRY
Cresswell Downs,AU,NT,AUCSD,CSD,,Cresswell Downs Airport,Cresswell Downs Airport,"-17.9480","135.9160",AU,03,Australia/Darwin,2011-06-04,CSD
Casino,AU,NSW,AUCSI,CSI,,Casino,Casino,"-28.8582","153.0475",AU,02,Australia/Sydney,2019-07-18,CSI
Charleville,AU,QLD,AUCTL,CTL,,Charleville,Charleville,"-26.4054","146.2427",AU,04,Australia/Brisbane,2019-07-18,CTL
Cooktown,AU,QLD,AUCTN,CTN,,Cooktown,Cooktown,"-15.4657","145.2498",AU,04,Australia/Brisbane,2019-07-18,CTN
Cattle Creek,AU,NT,AUCTR,CTR,,Cattle Creek Airport,Cattle Creek Airport,"-17.6070","131.5490",AU,03,Australia/Darwin,2019-05-22,CTR
Caloundra,AU,QLD,AUCUD,CUD,,Caloundra,Caloundra,"-26.8035","153.1219",AU,04,Australia/Brisbane,2019-07-18,CUD
Cudal,AU,NSW,AUCUG,CUG,,Cudal,Cudal,"-33.2856","148.7407",AU,02,Australia/Sydney,2019-07-18,CUG
Coen,AU,QLD,AUCUQ,CUQ,,Coen,Coen,"-13.9456","143.1990",AU,04,Australia/Brisbane,2019-07-18,CUQ
Cue,AU,WA,AUCUY,CUY,,Cue,Cue,"-27.4240","117.8974",AU,08,Australia/Perth,2019-07-18,CUY
Cleve,AU,SA,AUCVC,CVC,,Cleve,Cleve,"-33.7000","136.5000",AU,05,Australia/Adelaide,2019-07-18,CVC
Carnarvon,AU,WA,AUCVQ,CVQ,,Carnarvon,Carnarvon,"-24.8826","113.6571",AU,08,Australia/Perth,2019-07-21,CVQ
Cowarie,AU,SA,AUCWR,CWR,,Cowarie,Cowarie,"-27.7025","138.3357",AU,05,Australia/Adelaide,2017-08-09,CWR
Cowra,AU,NSW,AUCWT,CWT,,Cowra,Cowra,"-33.8355","148.6966",AU,02,Australia/Sydney,2019-07-18,CWT
Corowa,AU,NSW,AUCWW,CWW,,Corowa,Corowa,"-35.9970","146.3855",AU,02,Australia/Sydney,2019-07-18,CWW
Christmas Creek,AU,WA,AUCXQ,CXQ,,Christmas Creek Airport,Christmas Creek Airport,"-18.8722","125.9366",AU,08,Australia/Perth,2016-03-19,CXQ
Charters Towers,AU,QLD,AUCXT,CXT,,Charters Towers,Charters Towers,"-20.0767","146.2635",AU,04,Australia/Brisbane,2012-02-28,CXT
Corryong,AU,VIC,AUCYG,CYG,,Corryong,Corryong,"-36.1970","147.9026",AU,07,Australia/Melbourne,2019-07-18,CYG
Cluny,AU,QLD,AUCZY,CZY,,Cluny,Cluny,"-24.5053","139.5866",AU,04,Australia/Brisbane,2017-09-26,CZY
Dauan Island,AU,QLD,AUDAJ,DAJ,,Dauan Island,Dauan Island,"-9.4232","142.5361",AU,04,Pacific/Port_Moresby,2018-02-07,DAJ
Dubbo,AU,NSW,AUDBO,DBO,,Dubbo,Dubbo,"-32.2430","148.6048",AU,02,Australia/Sydney,2019-07-18,DBO
Dalby,AU,QLD,AUDBY,DBY,,Dalby,Dalby,"-27.1817","151.2620",AU,04,Australia/Brisbane,2019-07-18,DBY
RAAF Curtin,AU,WA,AUDCN,DCN,1734S 12349E,Derby RAAF Curtin Base,Derby RAAF Curtin Base,"-17.5794","123.8253",AU,08,Australia/Perth,2013-03-16,DCN
Daydream Is,AU,QLD,AUDDI,DDI,,Daydream Island,Daydream Island,"-20.2567","148.8140",AU,04,Australia/Lindeman,2019-04-16,DDI
Delta Downs,AU,QLD,AUDDN,DDN,,Delta Downs,Delta Downs,"-17.0000","141.3167",AU,04,Australia/Brisbane,2017-07-20,DDN
Drumduff,AU,QLD,AUDFP,DFP,,Drumduff,Drumduff,"-16.0500","143.0167",AU,04,Australia/Brisbane,2017-09-11,DFP
Mudgee,AU,NSW,AUDGE,DGE,,Mudgee,Mudgee,"-32.5943","149.5871",AU,02,Australia/Sydney,2019-07-18,DGE
Durham Downs,AU,QLD,AUDHD,DHD,,Durham Downs,Durham Downs,"-27.0842","141.9061",AU,04,Australia/Brisbane,2017-08-19,DHD
Dajarra,AU,QLD,AUDJR,DJR,2141S 13931E,Dajarra,Dajarra,"-21.6959","139.5163",AU,04,Australia/Brisbane,2019-07-18,DJR
Dunk Island,AU,QLD,AUDKI,DKI,,Dunk Island,Dunk Island,"-17.9437","146.1567",AU,04,Australia/Brisbane,2018-11-26,DKI
Docker River,AU,NT,AUDKV,DKV,,Docker River Airport,Docker River Airport,"-24.8596","129.1193",AU,03,Australia/Darwin,2017-09-13,DKV
Dulkaninna,AU,SA,AUDLK,DLK,,Dulkaninna,Dulkaninna,"-29.0179","138.4575",AU,05,Australia/Adelaide,2017-06-25,DLK
Delissaville,AU,NT,AUDLV,DLV,,Delissaville Airport,Delissaville Airport,"-12.5500","130.6850",AU,03,Australia/Darwin,2011-06-04,DLV
Doomadgee,AU,QLD,AUDMD,DMD,,Doomadgee Airport,Doomadgee Airport,"-17.9401","138.8202",AU,04,Australia/Brisbane,2015-11-22,DMD
Dunbar,AU,QLD,AUDNB,DNB,,Dunbar Airport,Dunbar Airport,"-16.0500","142.4000",AU,04,Australia/Brisbane,2011-06-04,DNB
Denham,AU,WA,AUDNM,DNM,,Denham,Denham,"-25.9268","113.5333",AU,08,Australia/Perth,2019-07-18,DNM
Deniliquin,AU,NSW,AUDNQ,DNQ,,Deniliquin,Deniliquin,"-35.5324","144.9536",AU,02,Australia/Sydney,2019-07-18,DNQ
Dongara,AU,WA,AUDOX,DOX,,Dongara,Dongara,"-29.2582","114.9328",AU,08,Australia/Perth,2019-07-18,DOX
Devonport,AU,TAS,AUDPO,DPO,,Devonport,Devonport,"-41.1769","146.3515",AU,06,Australia/Hobart,2019-07-18,DPO
Derby,AU,WA,AUDRB,DRB,,Derby,Derby,"-17.3029","123.6286",AU,08,Australia/Perth,2019-07-18,DRB
Dorunda Station,AU,QLD,AUDRD,DRD,,Dorunda Airport,Dorunda Airport,"-16.5530","141.8230",AU,04,Australia/Brisbane,2017-07-16,DRD
Dirranbandi,AU,QLD,AUDRN,DRN,,Dirranbandi,Dirranbandi,"-28.5854","148.2255",AU,04,Australia/Brisbane,2019-07-18,DRN
Durrie,AU,QLD,AUDRR,DRR,,Durrie,Durrie,"-25.6486","140.2422",AU,04,Australia/Brisbane,2017-06-25,DRR
Darwin,AU,NT,AUDRW,DRW,1227S 13050E,Darwin,Darwin,"-12.4611","130.8418",AU,03,Australia/Darwin,2019-09-05,DRW
Davenport Downs,AU,QLD,AUDVP,DVP,,Davenport Downs,Davenport Downs,"-24.1526","141.1037",AU,04,Australia/Brisbane,2017-09-11,DVP
Daly River,AU,NT,AUDVR,DVR,,Daly River Airport,Daly River Airport,"-13.7498","130.6939",AU,03,Australia/Darwin,2019-05-22,DVR
Dixie,AU,QLD,AUDXD,DXD,,Dixie,Dixie,"-15.1139","143.3135",AU,04,Australia/Brisbane,2019-07-18,DXD
Dysart,AU,QLD,AUDYA,DYA,,Dysart Airport,Dysart Airport,"-22.6222","148.3640",AU,04,Australia/Brisbane,2016-10-25,DYA
Diamantina Lakes,AU,QLD,AUDYM,DYM,,Diamantina Lakes Station,Diamantina Lakes Station,"-23.7636","141.1414",AU,04,Australia/Brisbane,2017-07-14,DYM
Daly Waters,AU,NT,AUDYW,DYW,,Daly Waters,Daly Waters,"-16.2533","133.3693",AU,03,Australia/Darwin,2019-07-18,DYW
Echuca,AU,VIC,AUECH,ECH,,Echuca,Echuca,"-36.1406","144.7518",AU,07,Australia/Melbourne,2019-07-18,ECH
Erldunda,AU,NT,AUEDD,EDD,,Erldunda,Erldunda,"-25.2288","133.1961",AU,03,Australia/Darwin,2017-09-23,EDD
Edward River,AU,QLD,AUEDR,EDR,,Pormpuraaw Airport,Pormpuraaw Airport,"-14.8967","141.6090",AU,04,Australia/Brisbane,2011-06-04,EDR
Einasleigh,AU,QLD,AUEIH,EIH,,Einasleigh,Einasleigh,"-18.5167","144.1000",AU,04,Australia/Brisbane,2019-07-18,EIH
Elkedra,AU,NT,AUEKD,EKD,,Elkedra,Elkedra,"-21.1664","135.4464",AU,03,Australia/Darwin,2017-07-14,EKD
Elcho Island,AU,NT,AUELC,ELC,,Elcho Island,Elcho Island,"-11.9592","135.7427",AU,03,Australia/Darwin,2020-06-26,ELC
Emerald,AU,QLD,AUEMD,EMD,,Emerald,Emerald,"-23.5230","148.1578",AU,04,Australia/Brisbane,2019-07-18,EMD
Eneabba West,AU,WA,AUENB,ENB,,Eneabba Airport,Eneabba Airport,"-29.8325","115.2460",AU,08,Australia/Perth,2011-06-04,ENB
Esperance,AU,WA,AUEPR,EPR,,Esperance,Esperance,"-33.8592","121.8916",AU,08,Australia/Perth,2019-07-18,EPR
Ernabella,AU,SA,AUERB,ERB,,Pukatja,Pukatja,"-26.2542","132.1915",AU,05,Australia/Adelaide,2017-07-14,ERB
Etadunna,AU,SA,AUETD,ETD,,Etadunna Airport,Etadunna Airport,"-28.7408","138.5890",AU,05,Australia/Adelaide,2013-08-27,ETD
Eucla,AU,WA,AUEUC,EUC,,Eucla,Eucla,"-31.6769","128.8883",AU,08,Australia/Eucla,2019-07-18,EUC
Eva Downs,AU,NT,AUEVD,EVD,,Eva Downs,Eva Downs,"-18.0010","134.8618",AU,03,Australia/Darwin,2017-09-16,EVD
Evans Head,AU,NSW,AUEVH,EVH,,Evans Head Aerodrome,Evans Head Aerodrome,"-29.0933","153.4200",AU,02,Australia/Sydney,2011-06-04,EVH
Exmouth Gulf,AU,WA,AUEXM,EXM,,Exmouth,Exmouth,"-21.9306","114.1209",AU,08,Australia/Perth,2019-07-18,EXM
Finke,AU,NT,AUFIK,FIK,,Finke,Finke,"-25.5862","134.5751",AU,03,Australia/Darwin,2019-07-18,FIK
Falls Creek,AU,VIC,AUFLC,FLC,,Falls Creek,Falls Creek,"-36.8653","147.2778",AU,07,Australia/Melbourne,2020-04-18,FLC
Flinders Island,AU,TAS,AUFLS,FLS,,Flinders Island,Flinders Island,"-40.0167","148.0333",AU,06,Australia/Hobart,2017-08-28,FLS
Finley,AU,NSW,AUFLY,FLY,,Finley,Finley,"-35.6550","145.5711",AU,02,Australia/Sydney,2019-07-18,FLY
Forrest,AU,WA,AUFOS,FOS,,Forrest,Forrest,"-30.8510","128.1000",AU,08,Australia/Perth,2013-06-01,FOS
Forster,AU,NSW,AUFOT,FOT,,Forster,Forster,"-32.1814","152.5171",AU,02,Australia/Sydney,2019-07-18,FOT
Forbes,AU,NSW,AUFRB,FRB,,Forbes,Forbes,"-33.3844","148.0076",AU,02,Australia/Sydney,2019-07-18,FRB
Fossil Downs,AU,WA,AUFSL,FSL,,Fossil Downs Stn,Fossil Downs Stn,"-18.1350","125.7815",AU,08,Australia/Perth,2017-11-06,FSL
Gayndah,AU,QLD,AUGAH,GAH,,Gayndah,Gayndah,"-25.6252","151.6114",AU,04,Australia/Brisbane,2019-07-18,GAH
Goulburn Island,AU,NT,AUGBL,GBL,,South Goulburn Island,South Goulburn Island,"-11.6184","133.4042",AU,03,Australia/Darwin,2017-07-03,GBL
Gamboola,AU,QLD,AUGBP,GBP,,Gamboola,Gamboola,"-16.5415","143.6695",AU,04,Australia/Brisbane,2019-05-22,GBP
Gibb River,AU,WA,AUGBV,GBV,,Gibb River Airport,Gibb River Airport,"-16.4233","126.4450",AU,08,Australia/Perth,2019-05-23,GBV
Gordon Downs,AU,WA,AUGDD,GDD,,Gordon Downs,Gordon Downs,"-18.7500","128.5857",AU,08,Australia/Perth,2017-08-18,GDD
George Town,AU,TAS,AUGEE,GEE,,George Town,George Town,"-41.1056","146.8261",AU,06,Australia/Hobart,2019-09-20,GEE
Geraldton,AU,WA,AUGET,GET,,Geraldton,Geraldton,"-28.7790","114.6146",AU,08,Australia/Perth,2019-07-20,GET
Geelong,AU,VIC,AUGEX,GEX,,Geelong,Geelong,"-38.1471","144.3607",AU,07,Australia/Melbourne,2019-07-20,GEX
Grenfell,AU,NSW,AUGFE,GFE,,Grenfell,Grenfell,"-33.8955","148.1644",AU,02,Australia/Sydney,2019-07-18,GFE
Griffith,AU,NSW,AUGFF,GFF,,Griffith,Griffith,"-34.2885","146.0509",AU,02,Australia/Sydney,2019-07-18,GFF
Grafton,AU,NSW,AUGFN,GFN,,Grafton,Grafton,"-29.6810","152.9339",AU,02,Australia/Sydney,2019-07-18,GFN
Gregory Downs,AU,QLD,AUGGD,GGD,,Gregory Downs,Gregory Downs,"-18.6333","139.2500",AU,04,Australia/Brisbane,2017-08-08,GGD
Boigu Island,AU,QLD,AUGIC,GIC,,Boigu Island,Boigu Island,"-9.2603","142.2136",AU,04,Pacific/Port_Moresby,2017-02-28,GIC
Great Keppel Island,AU,QLD,AUGKL,GKL,,Great Keppel Island,Great Keppel Island,"-23.1789","150.9594",AU,04,Australia/Brisbane,2017-08-25,GKL
Glengyle,AU,QLD,AUGLG,GLG,,Glengyle,Glengyle,"-24.7848","139.5972",AU,04,Australia/Brisbane,2017-02-13,GLG
Glen Innes,AU,NSW,AUGLI,GLI,,Glen Innes,Glen Innes,"-29.7349","151.7385",AU,02,Australia/Sydney,2019-07-18,GLI
Glenormiston,AU,QLD,AUGLM,GLM,,Glenormiston Station,Glenormiston Station,"-22.9160","138.8035",AU,04,Australia/Brisbane,2017-09-10,GLM
Gladstone,AU,QLD,AUGLT,GLT,,Gladstone,Gladstone,"-23.8485","151.2577",AU,04,Australia/Brisbane,2019-07-20,GLT
Goldsworthy,AU,WA,AUGLY,GLY,,Goldsworthy,Goldsworthy,"-20.3500","119.5333",AU,08,Australia/Perth,2013-07-15,GLY
Goondiwindi,AU,QLD,AUGOO,GOO,,Goondiwindi,Goondiwindi,"-28.5471","150.3055",AU,04,Australia/Brisbane,2019-07-18,GOO
Gosford,AU,NSW,AUGOS,GOS,,Gosford,Gosford,"-33.4244","151.3440",AU,02,Australia/Sydney,2019-07-18,GOS
Gove,AU,NT,AUGOV,GOV,,Nhulunbuy,Nhulunbuy,"-12.1816","136.7784",AU,03,Australia/Darwin,2019-07-18,GOV
Garden Point,AU,NT,AUGPN,GPN,,Garden Point,Garden Point,"-11.3893","130.4246",AU,03,Australia/Darwin,2017-04-23,GPN
Gascoyne Junction,AU,WA,AUGSC,GSC,,Gascoyne Junction,Gascoyne Junction,"-25.0499","115.2091",AU,08,Australia/Perth,2019-07-18,GSC
Mount Gunson,AU,SA,AUGSN,GSN,,Mount Gunson,Mount Gunson,"-31.4340","137.1026",AU,05,Australia/Adelaide,2013-08-24,GSN
Groote Eylandt,AU,NT,AUGTE,GTE,,Groote Eylandt,Groote Eylandt,"-13.9647","136.5934",AU,03,Australia/Darwin,2018-11-20,GTE
Granites,AU,NT,AUGTS,GTS,,The Granites Mine,The Granites Mine,"-20.5391","130.3119",AU,03,Australia/Darwin,2016-10-30,GTS
Georgetown,AU,QLD,AUGTT,GTT,,Georgetown,Georgetown,"-18.2920","143.5458",AU,04,Australia/Brisbane,2019-07-18,GTT
Gunnedah,AU,NSW,AUGUH,GUH,,Gunnedah,Gunnedah,"-30.9807","150.2584",AU,02,Australia/Sydney,2019-07-18,GUH
Goulburn,AU,NSW,AUGUL,GUL,,Goulburn,Goulburn,"-34.7516","149.7209",AU,02,Australia/Sydney,2019-07-18,GUL
Greenvale,AU,QLD,AUGVP,GVP,,Greenvale,Greenvale,"-18.9988","144.9787",AU,04,Australia/Brisbane,2016-11-21,GVP
Argyle,AU,WA,AUGYL,GYL,,Argyle Airport,Argyle Airport,"-16.6369","128.4510",AU,08,Australia/Perth,2019-05-23,GYL
Gympie,AU,QLD,AUGYP,GYP,,Gympie,Gympie,"-26.1898","152.6650",AU,04,Australia/Brisbane,2019-07-18,GYP
Kersbrook,AU,SA,AUGYZ,GYZ,3447S 13851E,Gruyere Mine Camp,Gruyere Mine Camp,"-28.0320","123.8118",AU,08,Australia/Perth,2019-12-08,GYZ
Long Island,AU,QLD,AUHAP,HAP,,Long Island Heliport,Long Island Heliport,"-20.3358","148.8525",AU,04,Australia/Brisbane,2019-04-17,HAP
Heathlands,AU,QLD,AUHAT,HAT,,Heathlands Airport,Heathlands Airport,"-11.7369","142.5770",AU,04,Australia/Brisbane,2017-09-01,HAT
Hobart,AU,TAS,AUHBA,HBA,4252S 14718E,Hobart,Hobart,"-42.8794","147.3294",AU,06,Australia/Hobart,2019-09-05,HBA
Halls Creek,AU,WA,AUHCQ,HCQ,,Halls Creek,Halls Creek,"-18.2248","127.6665",AU,08,Australia/Perth,2019-07-18,HCQ
Hughenden,AU,QLD,AUHGD,HGD,,Hughenden,Hughenden,"-20.8440","144.2003",AU,04,Australia/Brisbane,2019-07-18,HGD
Horn Island,AU,QLD,AUHID,HID,,Horn Island,Horn Island,"-10.6071","142.2842",AU,04,Australia/Brisbane,2017-09-03,HID
Highbury,AU,QLD,AUHIG,HIG,,Highbury Airport,Highbury Airport,"-16.4244","143.1460",AU,04,Australia/Brisbane,2019-05-22,HIG
Headingly,AU,QLD,AUHIP,HIP,,Headingly,Headingly,"-21.3240","138.2900",AU,04,Australia/Brisbane,2017-07-03,HIP
Hayman Island,AU,QLD,AUHIS,HIS,,Hayman Island Resort Seaplane Base,Hayman Island Resort Seaplane Base,"-20.0600","148.8810",AU,04,Australia/Lindeman,2011-06-04,HIS
Saint Helens,AU,TAS,AUHLS,HLS,,St Helens,St Helens,"-41.3203","148.2389",AU,06,Australia/Hobart,2019-07-18,HLS
Hamilton,AU,VIC,AUHLT,HLT,,Hamilton,Hamilton,"-37.7443","142.0220",AU,07,Australia/Melbourne,2019-07-18,HLT
Helenvale,AU,QLD,AUHLV,HLV,,Helenvale,Helenvale,"-15.7167","145.2333",AU,04,Australia/Brisbane,2012-05-05,HLV
Hermannsburg,AU,NT,AUHMG,HMG,,Hermannsburg Airport,Hermannsburg Airport,"-23.9300","132.8050",AU,03,Australia/Darwin,2011-06-04,HMG
Hooker Creek,AU,NT,AUHOK,HOK,,Hooker Creek Airport,Hooker Creek Airport,"-18.3367","130.6380",AU,03,Australia/Darwin,2011-06-04,HOK
Heron Island,AU,QLD,AUHRN,HRN,,Heron Island,Heron Island,"-23.4423","151.9149",AU,04,Australia/Brisbane,2020-02-22,HRN
Henbury,AU,NT,AUHRY,HRY,,Henbury Station,Henbury Station,"-24.5718","133.2385",AU,03,Australia/Darwin,2017-10-29,HRY
Horsham,AU,VIC,AUHSM,HSM,,Horsham,Horsham,"-36.7113","142.1998",AU,07,Australia/Melbourne,2019-07-18,HSM
Hamilton Island,AU,QLD,AUHTI,HTI,,Hamilton Island,Hamilton Island,"-20.3533","148.9619",AU,04,Australia/Lindeman,2014-01-06,HTI
Hopetoun,AU,VIC,AUHTU,HTU,,Hopetoun,Hopetoun,"-35.7270","142.3663",AU,07,Australia/Melbourne,2019-07-18,HTU
Humbert River,AU,NT,AUHUB,HUB,,Humbert River Airport,Humbert River Airport,"-16.4897","130.6303",AU,03,Australia/Darwin,2019-05-22,HUB
Hervey Bay,AU,QLD,AUHVB,HVB,,Hervey Bay Airport,Hervey Bay Airport,"-25.3218","152.8842",AU,04,Australia/Brisbane,2015-04-21,HVB
Hawker,AU,SA,AUHWK,HWK,,Hawker,Hawker,"-31.8881","138.4250",AU,05,Australia/Adelaide,2019-07-18,HWK
Hay,AU,NSW,AUHXX,HXX,,Hay,Hay,"-34.5090","144.8431",AU,02,Australia/Sydney,2019-07-18,HXX
Indulkana,AU,SA,AUIDK,IDK,,Indulkana Airport,Indulkana Airport,"-26.9667","133.3250",AU,05,Australia/Adelaide,2011-06-04,IDK
Iffley,AU,QLD,AUIFF,IFF,,Iffley Station,Iffley Station,"-18.8697","141.2065",AU,04,Australia/Brisbane,2017-09-13,IFF
Innisfail,AU,QLD,AUIFL,IFL,,Innisfail,Innisfail,"-17.5221","146.0310",AU,04,Australia/Brisbane,2019-07-18,IFL
Ingham,AU,QLD,AUIGH,IGH,,Ingham,Ingham,"-18.6455","146.1625",AU,04,Australia/Brisbane,2019-07-18,IGH
Inkerman,AU,QLD,AUIKP,IKP,,Inkerman Airport,Inkerman Airport,"-16.2750","141.4420",AU,04,Australia/Brisbane,2011-06-04,IKP
Injune,AU,QLD,AUINJ,INJ,,Injune,Injune,"-25.8428","148.5679",AU,04,Australia/Brisbane,2019-07-18,INJ
Innamincka,AU,SA,AUINM,INM,,Innamincka,Innamincka,"-27.7434","140.7393",AU,05,Australia/Adelaide,2019-07-18,INM
Lockhart River,AU,QLD,AUIRG,IRG,,Lockhart River Airport,Lockhart River Airport,"-12.7869","143.3050",AU,04,Australia/Brisbane,2011-06-04,IRG
Mount Isa,AU,QLD,AUISA,ISA,,Mount Isa,Mount Isa,"-20.7252","139.4973",AU,04,Australia/Brisbane,2019-07-21,ISA
Isisford,AU,QLD,AUISI,ISI,,Isisford,Isisford,"-24.2597","144.4393",AU,04,Australia/Brisbane,2019-07-18,ISI
Inverell,AU,NSW,AUIVR,IVR,,Inverell,Inverell,"-29.7740","151.1117",AU,02,Australia/Sydney,2019-07-18,IVR
Inverway,AU,NT,AUIVW,IVW,,Inverway,Inverway,"-17.8484","129.6364",AU,03,Australia/Darwin,2019-05-22,IVW
Jabiru,AU,NT,AUJAB,JAB,,Jabiru,Jabiru,"-12.6705","132.8360",AU,03,Australia/Darwin,2019-07-18,JAB
Jandakot,AU,WA,AUJAD,JAD,,Jandakot Airport,Jandakot Airport,"-32.0938","115.8783",AU,08,Australia/Perth,2011-06-04,JAD
Julia Creek,AU,QLD,AUJCK,JCK,,Julia Creek Airport,Julia Creek Airport,"-20.6683","141.7230",AU,04,Australia/Brisbane,2011-06-04,JCK
Shute Harbour,AU,QLD,AUJHQ,JHQ,,Shute Harbour Airport,Shute Harbour Airport,"-20.2769","148.7554",AU,04,Australia/Brisbane,2013-05-11,JHQ
Jundah,AU,QLD,AUJUN,JUN,,Jundah,Jundah,"-24.8331","143.0616",AU,04,Australia/Brisbane,2019-07-18,JUN
Jurien Bay,AU,WA,AUJUR,JUR,,Jurien Bay Airport,Jurien Bay Airport,"-30.3000","115.0330",AU,08,Australia/Perth,2011-03-17,JUR
Melbourne City Heliport,AU,VIC,AUKAH,KAH,,Yarra Bank Heliport,Yarra Bank Heliport,"-37.8223","144.9568",AU,07,Australia/Melbourne,2017-10-28,KAH
Kalbarri,AU,WA,AUKAX,KAX,,Kalbarri,Kalbarri,"-27.7105","114.1650",AU,08,Australia/Perth,2019-07-18,KAX
Kirkimbie,AU,NT,AUKBB,KBB,,Kirkimbie Station Airport,Kirkimbie Station Airport,"-17.7792","129.2100",AU,03,Australia/Darwin,2019-05-22,KBB
Kimberley Downs,AU,WA,AUKBD,KBD,,Kimberley Downs,Kimberley Downs,"-17.3919","124.3568",AU,08,Australia/Perth,2017-07-24,KBD
Kings Canyon,AU,NT,AUKBJ,KBJ,,Kings Canyon,Kings Canyon,"-24.2605","131.4894",AU,03,Australia/Darwin,2011-06-04,KBJ
Streaky Bay,AU,SA,AUKBY,KBY,,Streaky Bay,Streaky Bay,"-32.7955","134.2093",AU,05,Australia/Adelaide,2019-07-18,KBY
Collinsville,AU,QLD,AUKCE,KCE,,Collinsville,Collinsville,"-20.5522","147.8440",AU,04,Australia/Brisbane,2019-07-18,KCE
Kings Creek Station,AU,NT,AUKCS,KCS,,Kings Creek Airport,Kings Creek Airport,"-24.4233","131.8350",AU,03,Australia/Darwin,2011-06-04,KCS
Kambalda,AU,WA,AUKDB,KDB,,Kambalda,Kambalda,"-31.2017","121.6708",AU,08,Australia/Perth,2016-10-30,KDB
Kamaran Downs,AU,QLD,AUKDS,KDS,,Kamaran Downs,Kamaran Downs,"-24.3333","139.1670",AU,04,Australia/Brisbane,2012-05-18,KDS
Kalkurung,AU,NT,AUKFG,KFG,,Kalkgurung Airport,Kalkgurung Airport,"-17.4319","130.8080",AU,03,Australia/Darwin,2019-05-22,KFG
Kingscote,AU,SA,AUKGC,KGC,,Kingscote,Kingscote,"-35.6559","137.6393",AU,05,Australia/Adelaide,2019-07-18,KGC
Kalgoorlie,AU,WA,AUKGI,KGI,,Kalgoorlie,Kalgoorlie,"-30.7461","121.4742",AU,08,Australia/Perth,2019-07-18,KGI
Kulgera,AU,NT,AUKGR,KGR,,Kulgera,Kulgera,"-25.8384","133.3004",AU,03,Australia/Darwin,2017-09-26,KGR
Kingaroy,AU,QLD,AUKGY,KGY,,Kingaroy,Kingaroy,"-26.5399","151.8373",AU,04,Australia/Brisbane,2019-07-18,KGY
Koolburra,AU,QLD,AUKKP,KKP,,Koolburra Airport,Koolburra Airport,"-15.3189","143.9550",AU,04,Australia/Brisbane,2011-06-04,KKP
Kamileroi,AU,QLD,AUKML,KML,,Kamileroi Airport,Kamileroi Airport,"-19.3750","140.0570",AU,04,Australia/Brisbane,2011-06-04,KML
Katanning,AU,WA,AUKNI,KNI,,Katanning,Katanning,"-33.6879","117.5584",AU,08,Australia/Perth,2019-07-18,KNI
King Is,AU,TAS,AUKNS,KNS,,King Island,King Island,"-39.8763","143.9865",AU,06,Australia/Currie,2016-11-16,KNS
Kununurra,AU,WA,AUKNX,KNX,,Kununurra,Kununurra,"-15.7782","128.7421",AU,08,Australia/Perth,2019-07-18,KNX
Koolatah,AU,QLD,AUKOH,KOH,,Koolatah Airport,Koolatah Airport,"-15.8886","142.4390",AU,04,Australia/Brisbane,2017-10-28,KOH
Kalpowar,AU,QLD,AUKPP,KPP,,Kalpowar Airport,Kalpowar Airport,"-14.8903","144.2205",AU,04,Australia/Brisbane,2017-10-29,KPP
Kempsey,AU,NSW,AUKPS,KPS,,Kempsey,Kempsey,"-31.0790","152.8309",AU,02,Australia/Sydney,2019-07-21,KPS
Koonibba,AU,SA,AUKQB,KQB,,Koonibba Airport,Koonibba Airport,"-31.8973","133.4225",AU,05,Australia/Adelaide,2012-04-29,KQB
Kerang,AU,VIC,AUKRA,KRA,,Kerang,Kerang,"-35.7349","143.9203",AU,07,Australia/Melbourne,2019-07-18,KRA
Karumba,AU,QLD,AUKRB,KRB,1729S 14050E,Karumba,Karumba,"-17.4869","140.8426",AU,04,Australia/Brisbane,2019-07-18,KRB
Kurundi,AU,NT,AUKRD,KRD,,Kurundi,Kurundi,"-20.5019","134.6756",AU,03,Australia/Darwin,2017-09-15,KRD
Springvale,AU,QLD,AUKSV,KSV,,Springvale,Springvale,"-23.5560","140.6981",AU,04,Australia/Brisbane,2016-11-21,KSV
Karratha,AU,WA,AUKTA,KTA,,Karratha Airport,Karratha Airport,"-20.7122","116.7730",AU,08,Australia/Perth,2019-05-23,KTA
Katherine,AU,NT,AUKTR,KTR,,Katherine,Katherine,"-14.4652","132.2635",AU,03,Australia/Darwin,2019-07-18,KTR
Kubin Island,AU,QLD,AUKUG,KUG,,Kubin,Kubin,"-10.2333","142.2167",AU,04,Australia/Brisbane,2017-07-04,KUG
Kowanyama,AU,QLD,AUKWM,KWM,,Kowanyama,Kowanyama,"-15.4736","141.7457",AU,04,Australia/Brisbane,2019-07-18,KWM
Yeelirrie,AU,WA,AUKYF,KYF,,Yeelirrie,Yeelirrie,"-27.2817","120.0914",AU,08,Australia/Perth,2017-06-03,KYF
Yalata Mission,AU,SA,AUKYI,KYI,,Yalata,Yalata,"-31.4802","131.8424",AU,05,Australia/Adelaide,2019-07-18,KYI
Balcanoona,AU,SA,AULCN,LCN,,Balcanoona,Balcanoona,"-30.5371","139.3026",AU,05,Australia/Adelaide,2017-07-05,LCN
Lindeman Island,AU,QLD,AULDC,LDC,,Lindeman Island,Lindeman Island,"-20.4456","149.0425",AU,04,Australia/Lindeman,2017-09-18,LDC
Lord Howe Is,AU,NSW,AULDH,LDH,,Lord Howe Island Airport,Lord Howe Island Airport,"-31.5404","159.0784",AU,02,Australia/Lord_Howe,2015-12-23,LDH
Lansdowne,AU,WA,AULDW,LDW,,Lansdowne Station,Lansdowne Station,"-17.5800","126.8000",AU,08,Australia/Perth,2012-04-29,LDW
Learmonth,AU,WA,AULEA,LEA,,Learmonth,Learmonth,"-22.2333","114.0833",AU,08,Australia/Perth,2011-06-04,LEA
Lake Evella,AU,NT,AULEL,LEL,,Lake Evella Airport,Lake Evella Airport,"-12.4989","135.8060",AU,03,Australia/Darwin,2011-06-04,LEL
Leinster,AU,WA,AULER,LER,,Leinster Airport,Leinster Airport,"-27.8433","120.7030",AU,08,Australia/Perth,2011-06-04,LER
Leigh Creek,AU,SA,AULGH,LGH,,Leigh Creek Airport,Leigh Creek Airport,"-30.5983","138.4258",AU,05,Australia/Adelaide,2016-06-25,LGH
Lightning Ridge,AU,NSW,AULHG,LHG,,Lightning Ridge Airport,Lightning Ridge Airport,"-29.4567","147.9840",AU,02,Australia/Sydney,2011-06-04,LHG
Limbunya,AU,NT,AULIB,LIB,,Limbunya,Limbunya,"-17.2286","129.8858",AU,03,Australia/Darwin,2019-05-22,LIB
Lakeland Downs,AU,QLD,AULKD,LKD,,Lakeland Downs Airport,Lakeland Downs Airport,"-15.8444","144.8503",AU,04,Australia/Brisbane,2019-05-22,LKD
Chillagoe,AU,QLD,AULLG,LLG,,Chillagoe,Chillagoe,"-17.1539","144.5227",AU,04,Australia/Brisbane,2019-07-18,LLG
Lissadell,AU,WA,AULLL,LLL,,Lissadell,Lissadell,"-16.6770","128.5564",AU,08,Australia/Perth,2019-05-23,LLL
Lake Nash,AU,NT,AULNH,LNH,,Lake Nash,Lake Nash,"-20.9667","137.9167",AU,03,Australia/Darwin,2017-06-26,LNH
Leonora,AU,WA,AULNO,LNO,,Leonora,Leonora,"-28.8851","121.3307",AU,08,Australia/Perth,2019-07-18,LNO
Lorraine,AU,QLD,AULOA,LOA,,Lorraine,Lorraine,"-19.0051","139.8933",AU,04,Australia/Brisbane,2017-07-16,LOA
Lock,AU,SA,AULOC,LOC,,Lock,Lock,"-33.5680","135.7565",AU,05,Australia/Adelaide,2019-07-18,LOC
Lisarow,AU,NSW,AULOW,LOW,3323S 15122E,THE WILLOWs,THE WILLOWs,"-30.8146","149.9983",AU,02,Australia/Sydney,2014-04-08,LOW
Longreach,AU,QLD,AULRE,LRE,,Longreach,Longreach,"-23.4421","144.2492",AU,04,Australia/Brisbane,2019-07-18,LRE
Launceston,AU,TAS,AULST,LST,,Launceston,Launceston,"-41.4388","147.1347",AU,06,Australia/Hobart,2019-07-20,LST
Lismore,AU,NSW,AULSY,LSY,,Lismore,Lismore,"-28.8135","153.2773",AU,02,Australia/Sydney,2019-07-18,LSY
Latrobe,AU,TAS,AULTB,LTB,,Latrobe,Latrobe,"-41.2464","146.4246",AU,06,Australia/Hobart,2019-07-18,LTB
Lyndhurst,AU,QLD,AULTP,LTP,,Lyndhurst,Lyndhurst,"-19.2000","144.3667",AU,04,Australia/Brisbane,2017-07-10,LTP
Lotusvale,AU,QLD,AULTV,LTV,,Lotus Vale,Lotus Vale,"-17.0500","141.3833",AU,04,Australia/Brisbane,2017-04-23,LTV
Luddenham,AU,NSW,AULUM,LUM,3353S 15041E,McCALLUM PARK,McCALLUM PARK,"-30.5153","142.9021",AU,02,Australia/Sydney,2014-04-09,LUM
Laura Station,AU,QLD,AULUT,LUT,,New Laura Airport,New Laura Airport,"-15.1830","144.3460",AU,04,Australia/Brisbane,2017-03-26,LUT
Laura,AU,QLD,AULUU,LUU,,Laura,Laura,"-15.5217","144.1986",AU,04,Australia/Brisbane,2019-07-18,LUU
Laverton,AU,WA,AULVO,LVO,,Laverton,Laverton,"-28.6253","122.3994",AU,08,Australia/Perth,2019-07-18,LVO
Lawn Hill,AU,QLD,AULWH,LWH,,Lawn Hill,Lawn Hill,"-18.5833","138.5833",AU,04,Australia/Brisbane,2017-07-06,LWH
Lady Elliot Island,AU,QLD,AULYT,LYT,,Lady Elliot Island,Lady Elliot Island,"-24.1130","152.7149",AU,04,Australia/Brisbane,2017-06-05,LYT
Lizard Island,AU,QLD,AULZR,LZR,,Lizard Island Airport,Lizard Island Airport,"-14.6730","145.4542",AU,04,Australia/Lindeman,2011-06-04,LZR
Marble Bar,AU,WA,AUMBB,MBB,,Marble Bar,Marble Bar,"-21.1707","119.7444",AU,08,Australia/Perth,2019-07-18,MBB
Mount Buffalo,AU,VIC,AUMBF,MBF,,Mount Buffalo National Park,Mount Buffalo National Park,"-36.7468","146.7771",AU,07,Australia/Melbourne,2017-09-26,MBF
Maryborough,AU,QLD,AUMBH,MBH,,Maryborough,Maryborough,"-25.5407","152.7049",AU,04,Australia/Brisbane,2019-07-18,MBH
Moorabbin,AU,VIC,AUMBW,MBW,,Moorabbin,Moorabbin,"-37.9415","145.0578",AU,07,Australia/Melbourne,2019-07-18,MBW
McGraths Hill,AU,NSW,AUMCG,MCG,3336S 15050E,Melbourne Cricket Ground,Melbourne Cricket Ground,"-37.8200","144.9834",AU,07,Australia/Melbourne,2011-06-04,MCG
Mcarthur River,AU,NT,AUMCV,MCV,,McArthur River Mine Airport,McArthur River Mine Airport,"-16.4426","136.0760",AU,03,Australia/Darwin,2011-07-26,MCV
Maroochydore Apt/Sunshine Coast,AU,QLD,AUMCY,MCY,,Maroochydore,Maroochydore,"-26.6601","153.0995",AU,04,Australia/Brisbane,2019-07-18,MCY
Essendon Apt/Melbourne,AU,VIC,AUMEB,MEB,,Essendon Airport,Essendon Airport,"-37.7281","144.9019",AU,07,Australia/Melbourne,2011-06-04,MEB
Melbourne,AU,VIC,AUMEL,MEL,3749S 14458E,Melbourne,Melbourne,"-37.8140","144.9633",AU,07,Australia/Melbourne,2019-07-20,MEL
Moreton,AU,QLD,AUMET,MET,,Moreton Airport,Moreton Airport,"-12.4442","142.6380",AU,04,Australia/Brisbane,2011-06-04,MET
Mount Full Stop,AU,QLD,AUMFL,MFL,,Wando Vale,Wando Vale,"-19.6667","144.9000",AU,04,Australia/Brisbane,2017-06-23,MFL
Manners Creek,AU,NT,AUMFP,MFP,,Manners Creek Airport,Manners Creek Airport,"-22.1000","137.9830",AU,03,Australia/Darwin,2011-06-04,MFP
Mount Gambier,AU,SA,AUMGB,MGB,,Mount Gambier,Mount Gambier,"-37.8318","140.7792",AU,05,Australia/Adelaide,2019-07-18,MGB
Milingimbi,AU,NT,AUMGT,MGT,,Millingimbi Island,Millingimbi Island,"-12.1000","134.9000",AU,03,Australia/Darwin,2017-08-14,MGT
Margaret River Station,AU,WA,AUMGV,MGV,,Margaret River Station Airport,Margaret River Station Airport,"-18.6243","126.8739",AU,08,Australia/Perth,2011-07-25,MGV
Mount House,AU,WA,AUMHO,MHO,,Mount House,Mount House,"-17.0514","125.7049",AU,08,Australia/Perth,2017-07-21,MHO
Mount Hotham,AU,VIC,AUMHU,MHU,,Mount Hotham,Mount Hotham,"-36.9771","147.1330",AU,07,Australia/Melbourne,2019-09-07,MHU
Mitchell Plateau,AU,WA,AUMIH,MIH,,Mitchell Plateau Airfield,Mitchell Plateau Airfield,"-14.7923","125.8244",AU,08,Australia/Perth,2019-05-23,MIH
Merimbula,AU,NSW,AUMIM,MIM,,Merimbula,Merimbula,"-36.8890","149.9096",AU,02,Australia/Sydney,2019-07-18,MIM
Minnipa,AU,SA,AUMIN,MIN,,Minnipa,Minnipa,"-32.8500","135.1500",AU,05,Australia/Adelaide,2019-07-18,MIN
Mittiebah,AU,NT,AUMIY,MIY,,Mittiebah,Mittiebah,"-18.8042","137.0867",AU,03,Australia/Darwin,2017-08-18,MIY
Mainoru,AU,NT,AUMIZ,MIZ,,Mainoru Airport,Mainoru Airport,"-14.0542","134.0950",AU,03,Australia/Darwin,2017-08-30,MIZ
Monkey Mia,AU,WA,AUMJK,MJK,,Monkey Mia,Monkey Mia,"-25.7927","113.7143",AU,08,Australia/Perth,2017-02-12,MJK
Manjimup,AU,WA,AUMJP,MJP,,Manjimup,Manjimup,"-34.2412","116.1456",AU,08,Australia/Perth,2019-07-18,MJP
Meekatharra,AU,WA,AUMKR,MKR,,Meekatharra,Meekatharra,"-26.5952","118.4939",AU,08,Australia/Perth,2019-07-18,MKR
Mount Cavenagh,AU,NT,AUMKV,MKV,,Mount Cavenagh,Mount Cavenagh,"-25.9565","133.2140",AU,03,Australia/Darwin,2017-07-20,MKV
Mackay,AU,QLD,AUMKY,MKY,2109S 14912E,Mackay,Mackay,"-21.1534","149.1655",AU,04,Australia/Brisbane,2019-07-21,MKY
Millicent,AU,SA,AUMLR,MLR,,Millicent,Millicent,"-37.5939","140.3495",AU,05,Australia/Adelaide,2019-07-18,MLR
Mount Magnet,AU,WA,AUMMG,MMG,2803S 11750E,Mount Magnet,Mount Magnet,"-28.0648","117.8490",AU,08,Australia/Perth,2019-07-18,MMG
Middlemount,AU,QLD,AUMMM,MMM,,Middlemount,Middlemount,"-22.8123","148.6993",AU,04,Australia/Brisbane,2019-07-18,MMM
Mungeranie,AU,SA,AUMNE,MNE,,Mungaranie Station,Mungaranie Station,"-28.0189","138.6642",AU,05,Australia/Adelaide,2017-07-17,MNE
Maningrida,AU,NT,AUMNG,MNG,,Maningrida,Maningrida,"-12.0483","134.2294",AU,03,Australia/Darwin,2019-07-18,MNG
Monto,AU,QLD,AUMNQ,MNQ,,Monto,Monto,"-24.8648","151.1220",AU,04,Australia/Brisbane,2019-07-18,MNQ
Mountain Valley,AU,NT,AUMNV,MNV,,Mount Valley,Mount Valley,"-14.1200","133.8000",AU,03,Australia/Darwin,2012-04-29,MNV
Macdonald Downs,AU,NT,AUMNW,MNW,,MacDonald Downs,MacDonald Downs,"-22.4086","135.1119",AU,03,Australia/Darwin,2019-05-22,MNW
Moomba,AU,SA,AUMOO,MOO,,Moomba Airport,Moomba Airport,"-28.0994","140.1970",AU,05,Australia/Adelaide,2011-03-17,MOO
Moranbah,AU,QLD,AUMOV,MOV,,Moranbah,Moranbah,"-22.0016","148.0466",AU,04,Australia/Brisbane,2019-07-18,MOV
Mandora,AU,WA,AUMQA,MQA,,Mandora,Mandora,"-19.7417","120.8447",AU,08,Australia/Perth,2017-05-31,MQA
Marqua,AU,NT,AUMQE,MQE,,Marqua Airport,Marqua Airport,"-22.8058","137.2510",AU,03,Australia/Darwin,2011-06-04,MQE
Mildura,AU,VIC,AUMQL,MQL,,Mildura Airport,Mildura Airport,"-34.2292","142.0856",AU,07,Australia/Melbourne,2011-06-04,MQL
Mareeba,AU,QLD,AUMRG,MRG,,Mareeba,Mareeba,"-16.9910","145.4231",AU,04,Australia/Brisbane,2019-07-18,MRG
Marla,AU,SA,AUMRP,MRP,,Marla Airport,Marla Airport,"-27.3333","133.6270",AU,05,Australia/Adelaide,2011-03-17,MRP
Moroak,AU,NT,AUMRT,MRT,,Moroak,Moroak,"-14.8200","133.7000",AU,03,Australia/Darwin,2012-04-29,MRT
Moree,AU,NSW,AUMRZ,MRZ,,Moree,Moree,"-29.4628","149.8416",AU,02,Australia/Sydney,2019-07-18,MRZ
Mount Sandford,AU,NT,AUMTD,MTD,,Mount Sanford Station Airport,Mount Sanford Station Airport,"-16.9783","130.5550",AU,03,Australia/Darwin,2019-05-22,MTD
Maitland,AU,NSW,AUMTL,MTL,,Maitland,Maitland,"-32.7331","151.5574",AU,02,Australia/Sydney,2019-07-20,MTL
Mitchell,AU,QLD,AUMTQ,MTQ,,Mitchell,Mitchell,"-26.4849","147.9742",AU,04,Australia/Brisbane,2019-07-18,MTQ
Mulga Park,AU,NT,AUMUP,MUP,,Mulga Park Airport,Mulga Park Airport,"-25.8600","131.6500",AU,03,Australia/Darwin,2017-09-15,MUP
Muccan,AU,WA,AUMUQ,MUQ,,Muccan,Muccan,"-20.6331","120.0577",AU,08,Australia/Perth,2017-07-16,MUQ
Macksville,AU,NSW,AUMVH,MVH,,Macksville,Macksville,"-30.7078","152.9203",AU,02,Australia/Sydney,2019-07-18,MVH
Mulka,AU,SA,AUMVK,MVK,,Mulka Airport,Mulka Airport,"-28.3476","138.6491",AU,05,Australia/Adelaide,2017-07-20,MVK
Musgrave,AU,QLD,AUMVU,MVU,,Musgrave Airport,Musgrave Airport,"-14.7730","143.5049",AU,04,Australia/Brisbane,2017-10-29,MVU
Morawa,AU,WA,AUMWB,MWB,,Morawa,Morawa,"-29.2134","116.0079",AU,08,Australia/Perth,2019-07-18,MWB
Moolawatana,AU,SA,AUMWT,MWT,,Moolawatana,Moolawatana,"-29.9067","139.7353",AU,05,Australia/Adelaide,2017-07-14,MWT
Miranda Downs,AU,QLD,AUMWY,MWY,,Miranda Downs Airport,Miranda Downs Airport,"-17.3289","141.8860",AU,04,Australia/Brisbane,2017-10-28,MWY
Marion Downs,AU,QLD,AUMXD,MXD,,Marion Downs Station,Marion Downs Station,"-23.3648","139.6542",AU,04,Australia/Brisbane,2017-07-21,MXD
Mullewa,AU,WA,AUMXU,MXU,,Mullewa,Mullewa,"-28.5395","115.5117",AU,08,Australia/Perth,2019-07-18,MXU
Moruya,AU,NSW,AUMYA,MYA,,Moruya,Moruya,"-35.9125","150.0814",AU,02,Australia/Sydney,2019-07-18,MYA
Murray Island,AU,QLD,AUMYI,MYI,,Murray Island Airport,Murray Island Airport,"-9.9167","144.0550",AU,04,Australia/Lindeman,2015-08-13,MYI
Myroodah,AU,WA,AUMYO,MYO,,Myroodah,Myroodah,"-18.1214","124.2694",AU,08,Australia/Perth,2017-09-08,MYO
Narrabri,AU,NSW,AUNAA,NAA,,Narrabri,Narrabri,"-30.3249","149.7827",AU,02,Australia/Sydney,2019-07-18,NAA
Naracoorte,AU,SA,AUNAC,NAC,,Naracoorte,Naracoorte,"-36.9579","140.7383",AU,05,Australia/Adelaide,2019-07-18,NAC
Nambucca Heads,AU,NSW,AUNBH,NBH,,Nambucca Heads Airport,Nambucca Heads Airport,"-30.6500","153.0000",AU,02,Australia/Sydney,2011-06-04,NBH
Nambour,AU,QLD,AUNBR,NBR,,Nambour Airfield,Nambour Airfield,"-26.6488","152.9724",AU,04,Australia/Brisbane,2019-05-22,NBR
Sandstone,AU,WA,AUNDS,NDS,,Sandstone,Sandstone,"-27.9868","119.2973",AU,08,Australia/Perth,2019-07-18,NDS
Young,AU,NSW,AUNGA,NGA,,Young,Young,"-34.3135","148.3011",AU,02,Australia/Sydney,2019-07-18,NGA
Nifty,AU,WA,AUNIF,NIF,,Camp Nifty Airport,Camp Nifty Airport,"-21.6724","121.5933",AU,08,Australia/Perth,2013-06-10,NIF
Noonkanbah,AU,WA,AUNKB,NKB,,Noonkanbah,Noonkanbah,"-18.5030","124.8274",AU,08,Australia/Perth,2017-05-29,NKB
Darnley Island,AU,QLD,AUNLF,NLF,,Darnley Island,Darnley Island,"-9.5850","143.7710",AU,04,Australia/Brisbane,2017-08-24,NLF
Nullagine,AU,WA,AUNLL,NLL,,Nullagine,Nullagine,"-21.8897","120.1114",AU,08,Australia/Perth,2019-07-18,NLL
Nicholson,AU,WA,AUNLS,NLS,,Nicholson,Nicholson,"-18.0327","128.8954",AU,08,Australia/Perth,2017-08-20,NLS
New Moon,AU,QLD,AUNMP,NMP,,New Moon,New Moon,"-20.1667","143.9670",AU,04,Australia/Brisbane,2012-05-18,NMP
Nappa Merry,AU,QLD,AUNMR,NMR,,Nappa Merrie,Nappa Merrie,"-27.5989","141.1049",AU,04,Australia/Brisbane,2017-09-21,NMR
Nowra,AU,NSW,AUNOA,NOA,,Nowra,Nowra,"-34.8842","150.6004",AU,02,Australia/Sydney,2019-07-18,NOA
Narrandera,AU,NSW,AUNRA,NRA,,Narrandera,Narrandera,"-34.7475","146.5510",AU,02,Australia/Sydney,2019-07-18,NRA
Narrogin,AU,WA,AUNRG,NRG,,Narrogin,Narrogin,"-32.9328","117.1776",AU,08,Australia/Perth,2019-07-18,NRG
Noosa,AU,QLD,AUNSA,NSA,,Noosa Airport,Noosa Airport,"-26.4244","153.0678",AU,04,Australia/Brisbane,2019-05-22,NSA
Norseman,AU,WA,AUNSM,NSM,,Norseman,Norseman,"-32.1977","121.7787",AU,08,Australia/Perth,2019-07-18,NSM
Scone,AU,NSW,AUNSO,NSO,,Scone,Scone,"-32.0501","150.8689",AU,02,Australia/Sydney,2019-07-18,NSO
Noosaville,AU,QLD,AUNSV,NSV,,Noosaville,Noosaville,"-26.4000","153.0667",AU,04,Australia/Brisbane,2019-07-18,NSV
Springwood,AU,NSW,AUNSW,NSW,3342S 15033E,State of New South Wales,State of New South Wales,"-33.0000","146.0000",AU,02,Australia/Sydney,2019-07-30,NSW
Newcastle,AU,NSW,AUNTL,NTL,,Newcastle,Newcastle,"-32.9295","151.7801",AU,02,Australia/Sydney,2019-09-05,NTL
Normanton,AU,QLD,AUNTN,NTN,,Normanton,Normanton,"-17.6718","141.0772",AU,04,Australia/Brisbane,2019-07-18,NTN
Numbulwar,AU,NT,AUNUB,NUB,,Numbulwar Mission,Numbulwar Mission,"-14.2761","135.7372",AU,03,Australia/Darwin,2017-07-13,NUB
Nullarbor,AU,SA,AUNUR,NUR,,Nullabor Motel Airport,Nullabor Motel Airport,"-31.4417","130.9020",AU,05,Australia/Adelaide,2011-03-18,NUR
Nyngan,AU,NSW,AUNYN,NYN,,Nyngan,Nyngan,"-31.5637","147.1937",AU,02,Australia/Sydney,2019-07-18,NYN
Orange,AU,NSW,AUOAG,OAG,,Orange,Orange,"-33.2840","149.1002",AU,02,Australia/Sydney,2019-09-19,OAG
Oban,AU,QLD,AUOBA,OBA,,Oban Airport,Oban Airport,"-21.2346","139.0336",AU,04,Australia/Brisbane,2020-04-18,OBA
Oodnadatta,AU,SA,AUODD,ODD,,Oodnadatta,Oodnadatta,"-27.5514","135.4490",AU,05,Australia/Adelaide,2019-07-18,ODD
Cordillo Downs,AU,SA,AUODL,ODL,,Cordillo Downs,Cordillo Downs,"-26.7072","140.6254",AU,05,Australia/Adelaide,2017-08-17,ODL
Ord River,AU,WA,AUODR,ODR,,Ord River Airport,Ord River Airport,"-17.3442","128.9153",AU,08,Australia/Perth,2017-08-11,ODR
Orchid Beach,AU,QLD,AUOKB,OKB,,Fraser Island,Fraser Island,"-25.2375","153.1329",AU,04,Australia/Brisbane,2017-09-05,OKB
Yorke Island,AU,QLD,AUOKR,OKR,,Yorke Island,Yorke Island,"-9.7528","143.4093",AU,04,Australia/Brisbane,2016-06-25,OKR
Oakey,AU,QLD,AUOKY,OKY,,Oakey,Oakey,"-27.4331","151.7206",AU,04,Australia/Brisbane,2019-07-18,OKY
Olympic Dam,AU,SA,AUOLP,OLP,,Olympic Dam Airport,Olympic Dam Airport,"-30.4850","136.8770",AU,05,Australia/Adelaide,2011-06-04,OLP
Mornington,AU,QLD,AUONG,ONG,,Mornington Island,Mornington Island,"-16.5503","139.4003",AU,04,Australia/Brisbane,2016-10-25,ONG
Monkira,AU,QLD,AUONR,ONR,,Monkira,Monkira,"-24.8226","140.5564",AU,04,Australia/Brisbane,2017-08-19,ONR
Onslow,AU,WA,AUONS,ONS,2139S 11506E,Onslow,Onslow,"-21.6376","115.1122",AU,08,Australia/Perth,2019-07-18,ONS
Gold Coast Apt/Coolangatta,AU,QLD,AUOOL,OOL,2809S 15330E,Gold Coast,Gold Coast,"-28.0003","153.4309",AU,04,Australia/Brisbane,2016-03-21,OOL
Mooraberree,AU,QLD,AUOOR,OOR,,Mooraberree,Mooraberree,"-25.2412","140.9864",AU,04,Australia/Brisbane,2017-07-07,OOR
Oenpelli,AU,NT,AUOPI,OPI,,Oenpelli Airport,Oenpelli Airport,"-12.3250","133.0060",AU,03,Australia/Darwin,2011-06-04,OPI
Yorketown,AU,SA,AUORR,ORR,,Yorketown,Yorketown,"-35.0185","137.6049",AU,05,Australia/Adelaide,2019-07-18,ORR
Orpheus Island Resort,AU,QLD,AUORS,ORS,,Orpheus Island,Orpheus Island,"-18.6222","146.4992",AU,04,Australia/Lindeman,2016-06-26,ORS
Orientos,AU,QLD,AUOXO,OXO,,Orientos Airport,Orientos Airport,"-28.0601","141.5361",AU,04,Australia/Brisbane,2013-09-21,OXO
Morney,AU,QLD,AUOXY,OXY,,Morney Airport,Morney Airport,"-25.3583","141.4330",AU,04,Australia/Brisbane,2011-06-04,OXY
Ouyen,AU,VIC,AUOYN,OYN,,Ouyen,Ouyen,"-35.0709","142.3203",AU,07,Australia/Melbourne,2019-07-18,OYN
Paraburdoo,AU,WA,AUPBO,PBO,,Paraburdoo Airport,Paraburdoo Airport,"-23.1723","117.7470",AU,08,Australia/Perth,2015-09-05,PBO
Pandie Pandie,AU,SA,AUPDE,PDE,,Pandie Pandie,Pandie Pandie,"-26.1273","139.3899",AU,05,Australia/Adelaide,2017-09-27,PDE
Parndana,AU,SA,AUPDN,PDN,,Parndana,Parndana,"-35.8224","137.2700",AU,05,Australia/Adelaide,2014-07-17,PDN
Penneshaw,AU,SA,AUPEA,PEA,,Penneshaw,Penneshaw,"-35.7181","137.9411",AU,05,Australia/Adelaide,2019-07-18,PEA
Peppimenarti,AU,NT,AUPEP,PEP,,Peppimenarti Airport,Peppimenarti Airport,"-14.1442","130.0910",AU,03,Australia/Darwin,2019-05-22,PEP
Perth,AU,WA,AUPER,PER,3157S 11551E,Perth,Perth,"-31.9522","115.8614",AU,08,Australia/Perth,2019-09-05,PER
Penong,AU,SA,AUPEY,PEY,,Penong,Penong,"-31.9303","133.0107",AU,05,Australia/Adelaide,2019-07-18,PEY
Port Hedland,AU,WA,AUPHE,PHE,,Port Hedland,Port Hedland,"-20.3121","118.6106",AU,08,Australia/Perth,2019-07-18,PHE
Parkes,AU,NSW,AUPKE,PKE,,Parkes,Parkes,"-33.1372","148.1759",AU,02,Australia/Sydney,2019-07-18,PKE
Port Keats,AU,NT,AUPKT,PKT,,Port Keats Airport,Port Keats Airport,"-14.2500","129.5290",AU,03,Australia/Darwin,2019-05-22,PKT
Port Lincoln,AU,SA,AUPLO,PLO,,Port Lincoln,Port Lincoln,"-34.7263","135.8744",AU,05,Australia/Adelaide,2019-07-18,PLO
Palm Island,AU,QLD,AUPMK,PMK,,Palm Island Airport,Palm Island Airport,"-18.7553","146.5810",AU,04,Australia/Lindeman,2015-11-15,PMK
Port Pirie,AU,SA,AUPPI,PPI,,Port Pirie,Port Pirie,"-33.1918","138.0175",AU,05,Australia/Adelaide,2019-07-21,PPI
Proserpine,AU,QLD,AUPPP,PPP,,Proserpine,Proserpine,"-20.4011","148.5802",AU,04,Australia/Brisbane,2019-07-18,PPP
Port Macquarie,AU,NSW,AUPQQ,PQQ,,Port Macquarie,Port Macquarie,"-31.4308","152.9089",AU,02,Australia/Sydney,2019-07-18,PQQ
Pardoo,AU,WA,AUPRD,PRD,,Pardoo,Pardoo,"-20.1073","119.5786",AU,08,Australia/Perth,2017-05-07,PRD
Port Stephens,AU,NSW,AUPTE,PTE,,Port Stephens Airfield,Port Stephens Airfield,"-32.7505","152.0771",AU,02,Australia/Sydney,2012-04-29,PTE
Port Douglas,AU,QLD,AUPTI,PTI,,Port Douglas,Port Douglas,"-16.4838","145.4673",AU,04,Australia/Brisbane,2019-07-18,PTI
Portland,AU,VIC,AUPTJ,PTJ,,Portland,Portland,"-38.3462","141.6026",AU,07,Australia/Melbourne,2019-07-18,PTJ
Port Augusta,AU,SA,AUPUG,PUG,,Port Augusta,Port Augusta,"-32.4960","137.7728",AU,05,Australia/Adelaide,2019-07-18,PUG
Bega,AU,NSW,AUQBE,QBE,3640S 14950E,Bega,Bega,"-36.6739","149.8418",AU,02,Australia/Sydney,2019-07-18,QBE
Batemans Bay,AU,NSW,AUQBW,QBW,3543S 15011E,Batemans Bay,Batemans Bay,"-35.7066","150.1754",AU,02,Australia/Sydney,2019-07-18,QBW
Eden,AU,NSW,AUQDN,QDN,,Eden,Eden,"-37.0667","149.9003",AU,02,Australia/Sydney,2019-07-18,QDN
Kalbar,AU,QLD,AUQLD,QLD,2756S 15237E,State of Queensland,State of Queensland,"-20.0000","145.0000",AU,04,Australia/Brisbane,2019-07-30,QLD
Leeton,AU,NSW,AUQLE,QLE,3434S 14624E,Leeton,Leeton,"-34.5510","146.4048",AU,02,Australia/Sydney,2019-07-18,QLE
Narromine,AU,NSW,AUQRM,QRM,3214S 14814E,Narromine,Narromine,"-32.2312","148.2405",AU,02,Australia/Sydney,2019-07-18,QRM
Warren,AU,NSW,AUQRR,QRR,3142S 14748E,Warren,Warren,"-31.7022","147.8339",AU,02,Australia/Sydney,2019-07-18,QRR
Raffles Bay,AU,NT,AURAF,RAF,1116S 13223E,RAF Park,RAF Park,"-32.7374","152.0010",AU,02,Australia/Sydney,2012-01-22,RAF
Ramingining,AU,NT,AURAM,RAM,,Ramingining Airport,Ramingining Airport,"-12.3564","134.8980",AU,03,Australia/Darwin,2011-06-04,RAM
Robinvale,AU,VIC,AURBC,RBC,,Robinvale Airport,Robinvale Airport,"-34.6500","142.7830",AU,07,Australia/Melbourne,2011-06-04,RBC
Orbost,AU,VIC,AURBS,RBS,,Orbost,Orbost,"-37.6964","148.4570",AU,07,Australia/Melbourne,2019-07-18,RBS
Roebourne,AU,WA,AURBU,RBU,,Roebourne,Roebourne,"-20.7723","117.1465",AU,08,Australia/Perth,2019-07-18,RBU
Richmond,AU,QLD,AURCM,RCM,,Richmond,Richmond,"-20.7324","143.1436",AU,04,Australia/Brisbane,2019-07-18,RCM
American River,AU,SA,AURCN,RCN,,American River,American River,"-35.7725","137.7783",AU,05,Australia/Adelaide,2019-07-18,RCN
Rockhampton Downs,AU,NT,AURDA,RDA,,Rockhampton Downs Airport,Rockhampton Downs Airport,"-18.9533","135.2010",AU,03,Australia/Darwin,2011-06-04,RDA
Roy Hill,AU,WA,AURHL,RHL,,Roy Hill Station,Roy Hill Station,"-22.6199","119.9592",AU,08,Australia/Perth,2013-06-15,RHL
Rosella Plains,AU,QLD,AURLP,RLP,,Rosella Plains,Rosella Plains,"-18.4167","144.4667",AU,04,Australia/Brisbane,2017-07-03,RLP
Roma,AU,QLD,AURMA,RMA,,Roma,Roma,"-26.5674","148.7875",AU,04,Australia/Brisbane,2019-07-18,RMA
Renmark,AU,SA,AURMK,RMK,,Renmark,Renmark,"-34.1770","140.7470",AU,05,Australia/Adelaide,2019-07-18,RMK
Robinhood,AU,QLD,AUROH,ROH,,Robinhood Airport,Robinhood Airport,"-18.8450","143.7100",AU,04,Australia/Brisbane,2011-06-04,ROH
Rockhampton,AU,QLD,AUROK,ROK,,Rockhampton,Rockhampton,"-23.3803","150.5060",AU,04,Australia/Brisbane,2019-05-22,ROK
Roper Bar,AU,NT,AURPB,RPB,,Roper Bar Airport,Roper Bar Airport,"-14.7344","134.5250",AU,03,Australia/Darwin,2017-03-04,RPB
Ngukurr,AU,NT,AURPM,RPM,,Ngukurr Airport,Ngukurr Airport,"-14.7228","134.7470",AU,03,Australia/Darwin,2011-06-04,RPM
Roper Valley,AU,NT,AURPV,RPV,,Roper Valley,Roper Valley,"-14.9269","134.0092",AU,03,Australia/Darwin,2017-08-28,RPV
Marree,AU,SA,AURRE,RRE,,Marree,Marree,"-29.6512","138.0710",AU,05,Australia/Adelaide,2019-07-18,RRE
Roseberth,AU,QLD,AURSB,RSB,,Roseberth,Roseberth,"-25.7917","139.5877",AU,04,Australia/Brisbane,2017-09-11,RSB
Rutland Plains,AU,QLD,AURTP,RTP,,Rutland Plains,Rutland Plains,"-15.6381","141.8222",AU,04,Australia/Brisbane,2013-01-28,RTP
Rottnest Island,AU,WA,AURTS,RTS,,Rottnest Island,Rottnest Island,"-32.0053","115.5125",AU,08,Australia/Perth,2020-06-27,RTS
Merty,AU,SA,AURTY,RTY,,Merty Merty Airport,Merty Merty Airport,"-28.5833","140.3170",AU,05,Australia/Adelaide,2011-03-18,RTY
Saibai Island,AU,QLD,AUSBR,SBR,,Saibai Island,Saibai Island,"-9.4074","142.6886",AU,04,Pacific/Port_Moresby,2018-02-07,SBR
Spring Creek,AU,QLD,AUSCG,SCG,,Sydney Cricket Ground,Sydney Cricket Ground,"-33.8915","151.2252",AU,02,Australia/Sydney,2011-06-04,SCG
Surfers Paradise,AU,QLD,AUSFP,SFP,,Surfers Paradise,Surfers Paradise,"-28.0027","153.4300",AU,04,Australia/Brisbane,2019-07-18,SFP
Saint George,AU,QLD,AUSGO,SGO,,Saint George,Saint George,"-28.0369","148.5800",AU,04,Australia/Brisbane,2013-04-28,SGO
Shay Gap,AU,WA,AUSGP,SGP,,Shay Gap Airport,Shay Gap Airport,"-20.4247","120.1410",AU,08,Australia/Perth,2016-12-26,SGP
Southport,AU,QLD,AUSHQ,SHQ,,Southport,Southport,"-27.9672","153.3980",AU,04,Australia/Brisbane,2019-07-18,SHQ
Shepparton,AU,VIC,AUSHT,SHT,,Shepparton,Shepparton,"-36.3805","145.3987",AU,07,Australia/Melbourne,2019-07-18,SHT
Smith Point,AU,NT,AUSHU,SHU,,Smith Point,Smith Point,"-11.1288","132.1465",AU,03,Australia/Darwin,2017-07-04,SHU
Smithton,AU,TAS,AUSIO,SIO,,Smithton,Smithton,"-40.8459","145.1250",AU,06,Australia/Hobart,2019-07-18,SIO
Singleton,AU,NSW,AUSIX,SIX,,Singleton,Singleton,"-32.5674","151.1660",AU,02,Australia/Sydney,2019-07-18,SIX
Somersby,AU,NSW,AUSMY,SMY,3322S 15117E,SMYL Community College Fremantle,SMYL Community College Fremantle,"-32.0483","115.7511",AU,08,Australia/Perth,2014-04-09,SMY
Snake Bay,AU,NT,AUSNB,SNB,,Snake Bay Airport,Snake Bay Airport,"-11.4228","130.6540",AU,03,Australia/Darwin,2011-06-04,SNB
Stanthorpe,AU,QLD,AUSNH,SNH,,Stanthorpe,Stanthorpe,"-28.6543","151.9339",AU,04,Australia/Brisbane,2019-07-18,SNH
South Molle Island,AU,QLD,AUSOI,SOI,,South Molle Island,South Molle Island,"-20.2693","148.8365",AU,04,Australia/Lindeman,2013-05-11,SOI
Spring Bay,AU,TAS,AUSPB,SPB,,Orpheus Island Waterport Seaplane Base,Orpheus Island Waterport Seaplane Base,"-18.6339","146.4980",AU,04,Australia/Brisbane,2016-06-26,SPB
Southern Cross,AU,WA,AUSQC,SQC,,Southern Cross,Southern Cross,"-31.2268","119.3238",AU,08,Australia/Perth,2020-02-22,SQC
Sandringham,AU,QLD,AUSRM,SRM,,Sandringham,Sandringham,"-24.0520","139.0638",AU,04,Australia/Brisbane,2017-11-07,SRM
Strahan,AU,TAS,AUSRN,SRN,,Strahan,Strahan,"-42.1519","145.3273",AU,06,Australia/Hobart,2019-07-18,SRN
Stradbroke Island,AU,QLD,AUSRR,SRR,,North Stradbroke Island,North Stradbroke Island,"-27.5279","153.4608",AU,04,Australia/Brisbane,2014-10-26,SRR
Sturt Creek,AU,WA,AUSSK,SSK,,Sturt Creek,Sturt Creek,"-19.1611","128.1652",AU,08,Australia/Perth,2017-05-26,SSK
Silver Plains,AU,QLD,AUSSP,SSP,,Silver Plains Airport,Silver Plains Airport,"-13.9760","143.5520",AU,04,Australia/Brisbane,2017-10-28,SSP
Stephen Island,AU,QLD,AUSTF,STF,,Stephens Islet,Stephens Islet,"-9.5071","143.5452",AU,04,Australia/Brisbane,2018-10-12,STF
Strathmore,AU,QLD,AUSTH,STH,,Strathmore,Strathmore,"-17.8609","142.5595",AU,07,Australia/Brisbane,2016-10-25,STH
Saint Paul's Mission,AU,QLD,AUSVM,SVM,,St Pauls,St Pauls,"-10.2000","142.3000",AU,04,Australia/Brisbane,2012-05-18,SVM
Shaw River,AU,WA,AUSWB,SWB,,Shaw River Station,Shaw River Station,"-20.7000","119.3333",AU,08,Australia/Perth,2017-07-21,SWB
Stawell,AU,VIC,AUSWC,SWC,,Stawell,Stawell,"-37.0563","142.7809",AU,07,Australia/Melbourne,2019-07-18,SWC
Swan Hill,AU,VIC,AUSWH,SWH,,Swan Hill,Swan Hill,"-35.3378","143.5544",AU,07,Australia/Melbourne,2019-07-18,SWH
Sale,AU,VIC,AUSXE,SXE,,Sale,Sale,"-38.1110","147.0680",AU,07,Australia/Melbourne,2019-07-18,SXE
Sydney,AU,NSW,AUSYD,SYD,3351S 15112E,Sydney,Sydney,"-33.8678","151.2073",AU,02,Australia/Sydney,2019-09-05,SYD
Sue Island,AU,QLD,AUSYU,SYU,,Sue Islet,Sue Islet,"-10.2074","142.8247",AU,04,Australia/Lindeman,2020-03-08,SYU
Tangalooma,AU,QLD,AUTAN,TAN,,Tangalooma,Tangalooma,"-27.1794","153.3743",AU,04,Australia/Brisbane,2011-06-04,TAN
Tarcoola,AU,SA,AUTAQ,TAQ,,Tarcoola,Tarcoola,"-30.7101","134.5707",AU,05,Australia/Adelaide,2019-07-18,TAQ
Cressy,AU,TAS,AUTAS,TAS,4141S 14704E,State of Tasmania,State of Tasmania,"-42.0000","147.0000",AU,06,Australia/Hobart,2020-03-29,TAS
Timber Creek,AU,NT,AUTBK,TBK,,Timber Creek Airport,Timber Creek Airport,"-15.6200","130.4450",AU,03,Australia/Darwin,2019-05-22,TBK
Tableland,AU,WA,AUTBL,TBL,,Tablelands,Tablelands,"-17.2781","126.9008",AU,08,Australia/Perth,2017-09-02,TBL
Tennant Creek,AU,NT,AUTCA,TCA,,Tennant Creek Airport,Tennant Creek Airport,"-19.6333","134.1667",AU,03,Australia/Darwin,2011-06-04,TCA
Tocumwal,AU,NSW,AUTCW,TCW,,Tocumwal,Tocumwal,"-35.8115","145.5692",AU,02,Australia/Sydney,2019-07-18,TCW
Theodore,AU,QLD,AUTDR,TDR,,Theodore,Theodore,"-24.9460","150.0742",AU,04,Australia/Brisbane,2019-07-18,TDR
Telfer,AU,WA,AUTEF,TEF,,Telfer Airport,Telfer Airport,"-21.7150","122.2290",AU,08,Australia/Perth,2011-06-04,TEF
Temora,AU,NSW,AUTEM,TEM,,Temora,Temora,"-34.4483","147.5356",AU,02,Australia/Sydney,2019-07-18,TEM
Traralgon,AU,VIC,AUTGN,TGN,,Traralgon,Traralgon,"-38.1953","146.5415",AU,07,Australia/Melbourne,2019-07-18,TGN
Thevenard,AU,SA,AUTHE,THE,,THE WILLOWs,THE WILLOWs,"-30.8146","149.9983",AU,02,Australia/Sydney,2014-04-08,THE
Thangool,AU,QLD,AUTHG,THG,,Thangool,Thangool,"-24.4863","150.5736",AU,04,Australia/Brisbane,2019-07-18,THG
Turkey Creek,AU,WA,AUTKY,TKY,,Warmun,Warmun,"-17.0294","128.2107",AU,08,Australia/Perth,2019-07-18,TKY
Tamworth,AU,NSW,AUTMW,TMW,,Tamworth,Tamworth,"-31.0905","150.9290",AU,02,Australia/Sydney,2019-07-21,TMW
Tom Price,AU,WA,AUTPR,TPR,,Tom Price,Tom Price,"-22.6939","117.7931",AU,08,Australia/Perth,2019-07-18,TPR
Taree,AU,NSW,AUTRO,TRO,,Taree,Taree,"-31.9110","152.4539",AU,02,Australia/Sydney,2019-07-18,TRO
Townsville,AU,QLD,AUTSV,TSV,,Townsville,Townsville,"-19.2664","146.8057",AU,04,Australia/Brisbane,2013-06-25,TSV
Tumut,AU,NSW,AUTUM,TUM,,Tumut,Tumut,"-35.3064","148.2182",AU,02,Australia/Sydney,2019-07-18,TUM
Toowoomba,AU,QLD,AUTWB,TWB,,Toowoomba,Toowoomba,"-27.5606","151.9539",AU,04,Australia/Brisbane,2013-06-25,TWB
Tewantin,AU,QLD,AUTWN,TWN,,Tewantin,Tewantin,"-26.3910","153.0343",AU,04,Australia/Brisbane,2019-07-18,TWN
Torwood,AU,QLD,AUTWP,TWP,,Torwood Airport,Torwood Airport,"-17.3633","143.7500",AU,04,Australia/Brisbane,2019-05-22,TWP
Tanbar,AU,QLD,AUTXR,TXR,,Tanbar Station,Tanbar Station,"-25.8423","141.9182",AU,04,Australia/Brisbane,2017-09-02,TXR
Tibooburra,AU,NSW,AUTYB,TYB,,Tibooburra,Tibooburra,"-29.4339","142.0102",AU,02,Australia/Sydney,2019-07-18,TYB
Thylungra,AU,QLD,AUTYG,TYG,,Thylungra,Thylungra,"-26.0880","143.4478",AU,04,Australia/Brisbane,2017-04-23,TYG
Tobermorey,AU,NT,AUTYP,TYP,,Tobermorey Airport,Tobermorey Airport,"-22.2558","137.9530",AU,03,Australia/Darwin,2011-06-04,TYP
Mabuiag Island,AU,QLD,AUUBB,UBB,,Mabuiag Island Airport,Mabuiag Island Airport,"-9.9503","142.1953",AU,04,Australia/Brisbane,2017-09-21,UBB
Kalumburu,AU,WA,AUUBU,UBU,,Kalumburu Airport,Kalumburu Airport,"-14.2852","126.6361",AU,08,Australia/Perth,2019-05-23,UBU
Undarra,AU,QLD,AUUDA,UDA,,Undara Airport,Undara Airport,"-18.1910","144.6110",AU,04,Australia/Brisbane,2017-08-16,UDA
Queenstown,AU,TAS,AUUEE,UEE,,Queenstown,Queenstown,"-42.0805","145.5565",AU,06,Australia/Hobart,2019-07-18,UEE
Quirindi,AU,NSW,AUUIR,UIR,,Quirindi,Quirindi,"-31.5076","150.6790",AU,02,Australia/Sydney,2019-07-18,UIR
Quilpie,AU,QLD,AUULP,ULP,,Quilpie,Quilpie,"-26.6135","144.2695",AU,04,Australia/Brisbane,2019-07-18,ULP
Woomera,AU,SA,AUUMR,UMR,,Woomera,Woomera,"-31.1998","136.8326",AU,05,Australia/Adelaide,2019-07-18,UMR
Useless Loop,AU,WA,AUUSL,USL,,Useless Loop Airport,Useless Loop Airport,"-26.1667","113.4000",AU,08,Australia/Perth,2011-06-04,USL
Muttaburra,AU,QLD,AUUTB,UTB,,Muttaburra,Muttaburra,"-22.6000","144.5500",AU,04,Australia/Brisbane,2019-07-18,UTB
Nutwood Downs,AU,NT,AUUTD,UTD,,Nutwood Downs,Nutwood Downs,"-15.8096","134.1478",AU,03,Australia/Darwin,2017-09-07,UTD
Victoria River Downs,AU,NT,AUVCD,VCD,,Victoria River Downs,Victoria River Downs,"-16.4037","131.0157",AU,03,Australia/Darwin,2019-05-22,VCD
Newtown,AU,VIC,AUVIC,VIC,3742S 14339E,State of Victoria,State of Victoria,"-37.0000","145.0000",AU,07,Australia/Melbourne,2019-07-30,VIC
Vanrook,AU,QLD,AUVNR,VNR,,Vanrook,Vanrook,"-16.9686","141.9546",AU,04,Australia/Brisbane,2013-06-10,VNR
Waverney,AU,QLD,AUWAN,WAN,,Waverney,Waverney,"-25.3462","141.9319",AU,04,Australia/Brisbane,2017-07-08,WAN
Wauchope,AU,NSW,AUWAU,WAU,,Wauchope,Wauchope,"-20.6410","134.2229",AU,03,Australia/Darwin,2020-04-21,WAU
Wave Hill,AU,NT,AUWAV,WAV,,Wave Hill Airport,Wave Hill Airport,"-17.3933","131.1180",AU,03,Australia/Darwin,2019-05-22,WAV
Warwick,AU,QLD,AUWAZ,WAZ,,Warwick,Warwick,"-28.2190","152.0344",AU,04,Australia/Brisbane,2019-07-18,WAZ
Wondai,AU,QLD,AUWDI,WDI,,Wondai,Wondai,"-26.3177","151.8724",AU,04,Australia/Brisbane,2019-07-18,WDI
Weipa,AU,QLD,AUWEI,WEI,,Weipa,Weipa,"-12.6235","141.8788",AU,04,Australia/Brisbane,2019-05-22,WEI
Wee Waa,AU,NSW,AUWEW,WEW,,Wee Waa,Wee Waa,"-30.2266","149.4404",AU,02,Australia/Sydney,2019-07-18,WEW
Wagga Wagga,AU,NSW,AUWGA,WGA,3508S 14721E,Wagga Wagga,Wagga Wagga,"-35.1258","147.3537",AU,02,Australia/Sydney,2019-07-18,WGA
Walgett,AU,NSW,AUWGE,WGE,,Walgett,Walgett,"-30.0246","148.1157",AU,02,Australia/Sydney,2019-07-18,WGE
Wangaratta,AU,VIC,AUWGT,WGT,,Wangaratta,Wangaratta,"-36.3585","146.3206",AU,07,Australia/Melbourne,2019-07-18,WGT
Welshpool,AU,VIC,AUWHL,WHL,3840S 14626E,Welshpool,Welshpool,"-38.6667","146.4333",AU,07,Australia/Melbourne,2019-07-18,WHL
Willawong,AU,QLD,AUWIL,WIL,2735S 15300E,THE WILLOWs,THE WILLOWs,"-30.8146","149.9983",AU,02,Australia/Sydney,2014-04-08,WIL
Winton,AU,QLD,AUWIN,WIN,,Winton,Winton,"-22.3819","143.0424",AU,04,Australia/Brisbane,2019-07-18,WIN
Wilcannia,AU,NSW,AUWIO,WIO,,Wilcannia,Wilcannia,"-31.5588","143.3769",AU,02,Australia/Sydney,2019-07-18,WIO
Wittenoom,AU,WA,AUWIT,WIT,2213S 11843E,Wittenoom Airport (abandoned),Wittenoom Airport (abandoned),"-22.2183","118.3480",AU,08,Australia/Perth,2017-10-30,WIT
Warracknabeal,AU,VIC,AUWKB,WKB,,Warracknabeal,Warracknabeal,"-36.2533","142.3928",AU,07,Australia/Melbourne,2019-07-18,WKB
Wallal,AU,WA,AUWLA,WLA,,Wallal Downs,Wallal Downs,"-19.7797","120.6408",AU,08,Australia/Perth,2017-01-18,WLA
Walcha,AU,NSW,AUWLC,WLC,,Walcha,Walcha,"-30.9849","151.5933",AU,02,Australia/Sydney,2019-07-18,WLC
Witchcliffe,AU,WA,AUWLE,WLE,3402S 11506E,Miles,Miles,"-26.6584","150.1882",AU,04,Australia/Brisbane,2019-07-18,WLE
Wollogorang,AU,QLD,AUWLL,WLL,,Wollogorang,Wollogorang,"-17.2117","137.9469",AU,03,Australia/Darwin,2017-08-27,WLL
Waterloo,AU,NT,AUWLO,WLO,,Waterloo,Waterloo,"-16.6342","129.3286",AU,03,Australia/Darwin,2019-05-22,WLO
Warrnambool,AU,VIC,AUWMB,WMB,,Warrnambool,Warrnambool,"-38.3818","142.4880",AU,07,Australia/Melbourne,2019-07-18,WMB
Mount Keith,AU,WA,AUWME,WME,,Mount Keith,Mount Keith,"-27.2365","120.5448",AU,08,Australia/Perth,2016-11-28,WME
Windarra,AU,WA,AUWND,WND,,Windarra,Windarra,"-28.2667","121.8330",AU,08,Australia/Perth,2012-05-18,WND
Windorah,AU,QLD,AUWNR,WNR,,Windorah,Windorah,"-25.4222","142.6566",AU,04,Australia/Brisbane,2019-07-18,WNR
Woodgreen,AU,NT,AUWOG,WOG,,Woodgreen,Woodgreen,"-22.4520","134.2106",AU,03,Australia/Darwin,2017-07-08,WOG
Wollongong,AU,NSW,AUWOL,WOL,,Wollongong,Wollongong,"-34.4240","150.8935",AU,02,Australia/Sydney,2019-09-05,WOL
Wondoola,AU,QLD,AUWON,WON,,Wondoola,Wondoola,"-18.5718","140.8988",AU,04,Australia/Brisbane,2020-01-17,WON
Wrotham Park,AU,QLD,AUWPK,WPK,,Wrotham Park,Wrotham Park,"-16.6667","144.0000",AU,04,Australia/Brisbane,2019-05-22,WPK
Warrawagine,AU,WA,AUWRW,WRW,,Warrawagine,Warrawagine,"-20.8506","120.6947",AU,08,Australia/Perth,2017-08-18,WRW
Airlie Beach,AU,QLD,AUWSY,WSY,,Airlie Beach,Airlie Beach,"-20.2675","148.7147",AU,04,Australia/Brisbane,2019-07-18,WSY
Brisbane West Wellcamp Airport,AU,QLD,AUWTB,WTB,2733S 15147E,Toowoomba Wellcamp Airport,Toowoomba Wellcamp Airport,"-27.5589","151.7959",AU,04,Australia/Brisbane,2017-11-03,WTB
Wudinna,AU,SA,AUWUD,WUD,,Wudinna,Wudinna,"-33.0501","135.4638",AU,05,Australia/Adelaide,2019-07-18,WUD
Wiluna,AU,WA,AUWUN,WUN,,Wiluna,Wiluna,"-26.5921","120.2240",AU,08,Australia/Perth,2019-07-18,WUN
Woodie Woodie,AU,WA,AUWWI,WWI,,Woodie Woodie Airport,Woodie Woodie Airport,"-21.6628","121.2340",AU,08,Australia/Perth,2011-06-04,WWI
West Wyalong,AU,NSW,AUWWY,WWY,,West Wyalong,West Wyalong,"-33.9237","147.2047",AU,02,Australia/Sydney,2019-07-18,WWY
Whyalla,AU,SA,AUWYA,WYA,,Whyalla,Whyalla,"-33.0327","137.5648",AU,05,Australia/Adelaide,2019-09-05,WYA
Wyndham,AU,WA,AUWYN,WYN,,Wyndham,Wyndham,"-15.4869","128.1243",AU,08,Australia/Perth,2019-07-18,WYN
Colac,AU,VIC,AUXCO,XCO,,Colac,Colac,"-38.3390","143.5849",AU,07,Australia/Melbourne,2019-07-18,XCO
Mallacoota,AU,VIC,AUXMC,XMC,,Mallacoota,Mallacoota,"-37.5590","149.7541",AU,07,Australia/Melbourne,2019-07-18,XMC
Minlaton,AU,SA,AUXML,XML,,Minlaton,Minlaton,"-34.7710","137.5958",AU,05,Australia/Adelaide,2019-07-18,XML
Yam Island,AU,QLD,AUXMY,XMY,,Yam Island,Yam Island,"-9.9014","142.7750",AU,04,Australia/Lindeman,2017-08-15,XMY
Thargomindah,AU,QLD,AUXTG,XTG,,Thargomindah,Thargomindah,"-27.9950","143.8239",AU,04,Australia/Brisbane,2019-07-18,XTG
Taroom,AU,QLD,AUXTO,XTO,,Taroom,Taroom,"-25.6393","149.7998",AU,04,Australia/Brisbane,2019-07-18,XTO
Tara,AU,QLD,AUXTR,XTR,,Tara,Tara,"-27.2761","150.4568",AU,04,Australia/Brisbane,2019-07-18,XTR
Yampi,AU,WA,AUYAM,YAM,,RAAF Base Amberley,RAAF Base Amberley,"-27.6406","152.7119",AU,04,Australia/Brisbane,2013-06-13,YAM
Yagoona,AU,NSW,AUYAN,YAN,3354S 15101E,Anthony Lagoon Airport,Anthony Lagoon Airport,"-18.0217","135.5420",AU,03,Australia/Darwin,2017-08-19,YAN
Yarra Glen,AU,VIC,AUYAR,YAR,3738S 14522E,Ararat Airport,Ararat Airport,"-37.3094","142.9890",AU,07,Australia/Melbourne,2011-06-04,YAR
Yamba,AU,NSW,AUYBA,YBA,,Archerfield Aerodrome,Archerfield Aerodrome,"-27.5703","153.0081",AU,04,Australia/Brisbane,2017-10-28,YBA
Yabulu,AU,QLD,AUYBU,YBU,1913S 14636E,Bundaberg Airport,Bundaberg Airport,"-24.9039","152.3190",AU,04,Australia/Brisbane,2011-06-04,YBU
Yenda,AU,NSW,AUYDA,YDA,3416S 14611E,Dalby Airport,Dalby Airport,"-27.1585","151.2634",AU,04,Australia/Brisbane,2014-08-16,YDA
Yandina,AU,QLD,AUYDN,YDN,2634S 15257E,Darnley Island Airport,Darnley Island Airport,"-9.5799","143.7806",AU,04,Pacific/Port_Moresby,2014-06-16,YDN
Yeerongpilly,AU,QLD,AUYEE,YEE,2731S 15300E,Eneabba Airport,Eneabba Airport,"-29.8325","115.2460",AU,08,Australia/Perth,2011-06-04,YEE
Yeppoon,AU,QLD,AUYEL,YEL,2313S 15074E,Elcho Island Airport,Elcho Island Airport,"-12.0194","135.5710",AU,03,Australia/Darwin,2011-06-04,YEL
Yangebup,AU,WA,AUYGB,YGB,3207S 11549E,South Goulburn Island Airport,South Goulburn Island Airport,"-11.6509","133.3807",AU,03,Australia/Darwin,2017-07-03,YGB
Yorkeys Knob,AU,QLD,AUYKB,YKB,1649S 14543E,Kalbarri Airport,Kalbarri Airport,"-27.6889","114.2592",AU,08,Australia/Perth,2013-10-05,YKB
Yokine,AU,WA,AUYKN,YKN,3154S 11551E,Katanning Airport,Katanning Airport,"-33.7167","117.6330",AU,08,Australia/Perth,2011-06-04,YKN
Yalgoo,AU,WA,AUYLG,YLG,,Yalgoo,Yalgoo,"-28.3436","116.6825",AU,08,Australia/Perth,2019-07-18,YLG
Yolla,AU,TAS,AUYLL,YLL,4108S 14543E,Ballera Airport,Ballera Airport,"-27.4000","141.8126",AU,04,Australia/Brisbane,2013-09-22,YLL
Yarloop,AU,WA,AUYLO,YLO,3258S 11553E,Lorraine Airport,Lorraine Airport,"-19.0056","139.8970",AU,04,Australia/Brisbane,2017-07-16,YLO
Yambuk,AU,VIC,AUYMB,YMB,3820S 14203E,Mareeba Airport,Mareeba Airport,"-17.0692","145.4190",AU,04,Australia/Brisbane,2019-05-22,YMB
Coominya,AU,QLD,AUYMN,YMN,2723S 15230E,Mount Keith Airport,Mount Keith Airport,"-27.2858","120.5511",AU,08,Australia/Perth,2016-11-26,YMN
Yennora,AU,NSW,AUYNA,YNA,3351S 15058E,Narrandera Airport,Narrandera Airport,"-34.7022","146.5120",AU,02,Australia/Sydney,2011-06-04,YNA
Yandicoogina / Yandi Apt,AU,WA,AUYNN,YNN,2125S 12010E,Yandicoogina,Yandicoogina,"-22.7406","119.2545",AU,08,Australia/Perth,2013-06-15,YNN
York,AU,WA,AUYOR,YOR,3153S 11646E,Orange Airport,Orange Airport,"-33.3817","149.1330",AU,02,Australia/Sydney,2011-06-04,YOR
Cherry Gardens,AU,SA,AUYRN,YRN,3504S 13839E,Ramingining Airport,Ramingining Airport,"-12.3564","134.8980",AU,03,Australia/Darwin,2011-06-04,YRN
Yarra Junction,AU,VIC,AUYRR,YRR,3747S 14537E,Roper Bar Airport,Roper Bar Airport,"-14.7344","134.5250",AU,03,Australia/Darwin,2017-03-04,YRR
Yass,AU,NSW,AUYSS,YSS,3450S 14854E,Sydney International Airport,Sydney International Airport,"-33.9461","151.1772",AU,02,Australia/Sydney,2016-02-13,YSS
Yuendumu,AU,NT,AUYUE,YUE,,Yuendumu,Yuendumu,"-22.2558","131.7929",AU,03,Australia/Darwin,2019-07-18,YUE
Yarrawonga,AU,NSW,AUYWO,YWO,3222S 14939E,Illawarra Regional Airport,Illawarra Regional Airport,"-34.5604","150.7889",AU,02,Australia/Sydney,2011-06-04,YWO
Bowen,AU,QLD,AUZBO,ZBO,,Bowen,Bowen,"-20.0137","148.2475",AU,04,Australia/Brisbane,2019-07-18,ZBO
South Galway,AU,QLD,AUZGL,ZGL,,South Galway Airport,South Galway Airport,"-25.6833","142.1080",AU,04,Australia/Brisbane,2011-06-04,ZGL
Newman Apt,AU,WA,AUZNE,ZNE,2325S 11948E,Newman,Newman,"-23.3564","119.7355",AU,08,Australia/Perth,2019-07-18,ZNE
Springvale,AU,WA,AUZVG,ZVG,,Springvale,Springvale,"-17.7861","127.6860",AU,08,Australia/Perth,2017-06-07,ZVG
