name,country_code,subdivision,unlocode,location,coordinates,name_other,asciiname,latitude,longitude,country_code_other,subdivision_other,timezone,modification date,location_other
Andorra la Vella,AD,,ADALV,ALV,4230N 00131E,Andorra la Vella,Andorra la Vella,42.5078,1.5211,AD,07,Europe/Andorra,2020-03-03,ALV
Andorra la Vella,AD,,ADALV,ALV,4230N 00131E,Andorra la Vella Heliport,Andorra la Vella Heliport,42.5112,1.5336,AD,07,Europe/Andorra,2018-08-19,ALV
Arandis,,,ADI,ADI,,Arandis Airport,Arandis Airport,-22.4622,14.9800,,17,Africa/Windhoek,2011-02-17,ADI
Al Ain,AE,,AEAAN,AAN,,Al Ain City,Al Ain City,24.1917,55.7606,AE,01,Asia/Dubai,2019-05-29,AAN
Al Ain,AE,,AEAAN,AAN,,Al Ain International Airport,Al Ain International Airport,24.2617,55.6092,AE,,Asia/Dubai,2007-01-03,AAN
Abu Dhabi,AE,AZ,AEAUH,AUH,2428N 05422E,Abu Dhabi,Abu Dhabi,24.4512,54.3970,AE,01,Asia/Dubai,2019-09-05,AUH
Abu Dhabi,AE,AZ,AEAUH,AUH,2428N 05422E,Abu Dhabi International Airport,Abu Dhabi International Airport,24.4330,54.6511,AE,01,Asia/Dubai,2017-12-16,AUH
Al Dhafra,AE,,AEDHF,DHF,2414N 05432E,Al Dhafra Air Base,Al Dhafra Air Base,24.2484,54.5485,AE,01,Asia/Dubai,2013-05-18,DHF
Dubai World Central Apt,AE,,AEDWC,DWC,2453N 05510E,Dubai World Central - Al Maktoum International Airport,Dubai World Central - Al Maktoum International Airport,24.8978,55.1591,AE,03,Asia/Dubai,2014-04-15,DWC
Dubai,AE,DU,AEDXB,DXB,2515N 05516E,Dubai,Dubai,25.0772,55.3093,AE,03,Asia/Dubai,2019-08-28,DXB
Dubai,AE,DU,AEDXB,DXB,2515N 05516E,Dubai International Airport,Dubai International Airport,25.2528,55.3644,AE,03,Asia/Dubai,2017-12-16,DXB
Al Fujayrah,AE,FU,AEFJR,FJR,2507N 05620E,Al Fujairah City,Al Fujairah City,25.1164,56.3414,AE,04,Asia/Dubai,2019-05-29,FJR
Al Fujayrah,AE,FU,AEFJR,FJR,2507N 05620E,Fujairah International Airport,Fujairah International Airport,25.1122,56.3240,AE,04,Asia/Dubai,2016-12-18,FJR
Minhad,AE,,AENHD,NHD,,Al Minhad Air Base,Al Minhad Air Base,25.0267,55.3695,AE,03,Asia/Dubai,2013-06-16,NHD
Ras Al Khor,AE,DU,AERAK,RAK,2517N 05534E,Ras Al Khaimah City,Ras Al Khaimah City,25.7895,55.9432,AE,05,Asia/Dubai,2019-09-09,RAK
Ras al Khaimah,AE,,AERKT,RKT,2547N 05557E,Ras Al Khaimah City,Ras Al Khaimah City,25.7895,55.9432,AE,05,Asia/Dubai,2019-09-09,RKT
Ras al Khaimah,AE,,AERKT,RKT,2547N 05557E,Ras Al Khaimah International Airport,Ras Al Khaimah International Airport,25.6135,55.9388,AE,05,Asia/Dubai,2017-12-16,RKT
Sharjah,AE,SH,AESHJ,SHJ,2521N 05523E,Sharjah,Sharjah,25.3374,55.4121,AE,06,Asia/Dubai,2019-09-05,SHJ
Sharjah,AE,SH,AESHJ,SHJ,2521N 05523E,Sharjah International Airport,Sharjah International Airport,25.3286,55.5172,AE,06,Asia/Dubai,2017-12-16,SHJ
Bamian,AF,,AFBIN,BIN,,Bamiyan Airport,Bamiyan Airport,34.8086,67.8182,AF,05,Asia/Kabul,2018-02-17,BIN
Bost,AF,,AFBST,BST,,Lashkar Gāh,Lashkar Gah,31.5938,64.3716,AF,10,Asia/Kabul,2020-06-09,BST
Bost,AF,,AFBST,BST,,Bost,Bost,31.5601,64.3649,AF,10,Asia/Kabul,2018-02-17,BST
Chaghcharan,AF,,AFCCN,CCN,3431N 06515E,Fayrōz Kōh,Fayroz Koh,34.5195,65.2509,AF,09,Asia/Kabul,2020-06-09,CCN
Chaghcharan,AF,,AFCCN,CCN,3431N 06515E,Chakcharan Airport,Chakcharan Airport,34.5260,65.2700,AF,09,Asia/Kabul,2018-02-17,CCN
Darwaz,AF,,AFDAZ,DAZ,,Darwaz Airport,Darwaz Airport,38.4611,70.8825,AF,01,Asia/Kabul,2018-02-17,DAZ
Farah,AF,,AFFAH,FAH,,Farah,Farah,32.3745,62.1164,AF,06,Asia/Kabul,2018-02-17,FAH
Farah,AF,,AFFAH,FAH,,Farah Airport,Farah Airport,32.3657,62.1661,AF,06,Asia/Kabul,2018-02-17,FAH
Faizabad,AF,,AFFBD,FBD,,Fayzabad,Fayzabad,37.1166,70.5800,AF,01,Asia/Kabul,2018-02-17,FBD
Faizabad,AF,,AFFBD,FBD,,Fayzabad Airport,Fayzabad Airport,37.1211,70.5179,AF,01,Asia/Kabul,2018-02-17,FBD
Gardez,AF,,AFGRG,GRG,,Gardez Old Airfield,Gardez Old Airfield,33.6283,69.2377,AF,36,Asia/Kabul,2018-02-13,GRG
Ghazni,AF,,AFGZI,GZI,,Ghazni,Ghazni,33.5539,68.4210,AF,08,Asia/Kabul,2018-02-17,GZI
Ghazni,AF,,AFGZI,GZI,,Ghazni Airport,Ghazni Airport,33.5319,68.4133,AF,08,Asia/Kabul,2018-02-17,GZI
Herat,AF,,AFHEA,HEA,,Herat International Airport,Herat International Airport,34.2111,62.2285,AF,11,Asia/Kabul,2018-02-17,HEA
Jalalabad,AF,,AFJAA,JAA,,Jalālābād,Jalalabad,34.4265,70.4515,AF,18,Asia/Kabul,2020-06-09,JAA
Jalalabad,AF,,AFJAA,JAA,,Jalālābād Airfield,Jalalabad Airfield,34.3999,70.4986,AF,18,Asia/Kabul,2018-02-17,JAA
Kabul,AF,,AFKBL,KBL,,Kabul,Kabul,34.5281,69.1723,AF,13,Asia/Kabul,2019-09-05,KBL
Kabul,AF,,AFKBL,KBL,,Hamid Karzai International Airport,Hamid Karzai International Airport,34.5658,69.2123,AF,13,Asia/Kabul,2020-07-10,KBL
Kandahar,AF,,AFKDH,KDH,,Ahmad Shah Baba International Airport,Ahmad Shah Baba International Airport,31.5074,65.8504,AF,23,Asia/Kabul,2020-07-08,KDH
Khost,AF,,AFKHT,KHT,,Khōst,Khost,33.3395,69.9204,AF,37,Asia/Kabul,2020-06-09,KHT
Khost,AF,,AFKHT,KHT,,Khost,Khost,33.3336,69.9519,AF,37,Asia/Kabul,2018-02-17,KHT
Kuran-O-Munjan,AF,,AFKUR,KUR,,Kuran wa Munjan,Kuran wa Munjan,36.0287,70.7726,AF,01,Asia/Kabul,2018-02-17,KUR
Kuran-O-Munjan,AF,,AFKUR,KUR,,Razer Airport,Razer Airport,36.0171,70.7607,AF,01,Asia/Kabul,2018-02-17,KUR
Khwahan,AF,,AFKWH,KWH,,Deh Khwāhān,Deh Khwahan,37.8897,70.2188,AF,01,Asia/Kabul,2020-06-09,KWH
Khwahan,AF,,AFKWH,KWH,,Khwahan Airport,Khwahan Airport,37.8902,70.2039,AF,01,Asia/Kabul,2018-02-17,KWH
Qala Nau,AF,,AFLQN,LQN,,Qala i Naw,Qala i Naw,34.9873,63.1289,AF,02,Asia/Kabul,2018-02-17,LQN
Qala Nau,AF,,AFLQN,LQN,,Qala i Naw Airport,Qala i Naw Airport,34.9849,63.1167,AF,02,Asia/Kabul,2018-02-17,LQN
Maimana,AF,,AFMMZ,MMZ,,Maymana,Maymana,35.9214,64.7836,AF,07,Asia/Kabul,2018-02-17,MMZ
Maimana,AF,,AFMMZ,MMZ,,Maimana Airport,Maimana Airport,35.9303,64.7613,AF,07,Asia/Kabul,2018-02-17,MMZ
Mazar-i-Sharif,AF,,AFMZR,MZR,3642N 06706E,Mazār-e Sharīf,Mazar-e Sharif,36.7090,67.1109,AF,30,Asia/Kabul,2020-06-09,MZR
Mazar-i-Sharif,AF,,AFMZR,MZR,3642N 06706E,Mazar-i-Sharif Airfield,Mazar-i-Sharif Airfield,36.7070,67.2096,AF,30,Asia/Kabul,2018-02-17,MZR
Sardeh Band,AF,,AFSBF,SBF,,Sardeh Band,Sardeh Band,33.2989,68.6311,AF,08,Asia/Kabul,2018-02-17,SBF
Sardeh Band,AF,,AFSBF,SBF,,Sardeh Band Airport,Sardeh Band Airport,33.3211,68.6368,AF,08,Asia/Kabul,2018-02-17,SBF
Sheghnan,AF,,AFSGA,SGA,,Shighnan District,Shighnan District,37.6167,71.4500,AF,01,Asia/Kabul,2018-02-13,SGA
Sheghnan,AF,,AFSGA,SGA,,Sheghnan Airport,Sheghnan Airport,37.5667,71.5000,AF,01,Asia/Kabul,2018-02-17,SGA
Tirinkot,AF,,AFTII,TII,,Tarinkot,Tarinkot,32.6300,65.8781,AF,39,Asia/Kabul,2018-02-13,TII
Tirinkot,AF,,AFTII,TII,,Tarin Kowt Airport,Tarin Kowt Airport,32.6041,65.8659,AF,39,Asia/Kabul,2018-02-17,TII
Taluqan,AF,,AFTQN,TQN,,Taloqan,Taloqan,36.7360,69.5345,AF,26,Asia/Kabul,2018-02-17,TQN
Taluqan,AF,,AFTQN,TQN,,Taloqan Airport,Taloqan Airport,36.7706,69.5301,AF,26,Asia/Kabul,2018-02-17,TQN
Kunduz,AF,,AFUND,UND,,Kunduz,Kunduz,36.7289,68.8570,AF,24,Asia/Kabul,2019-02-26,UND
Kunduz,AF,,AFUND,UND,,Kunduz Airport,Kunduz Airport,36.6652,68.9109,AF,24,Asia/Kabul,2018-02-17,UND
Urgoon,AF,,AFURN,URN,,Urgun,Urgun,32.9515,69.1828,AF,29,Asia/Kabul,2018-02-17,URN
Urgoon,AF,,AFURN,URN,,Urgun Heliport,Urgun Heliport,32.9322,69.1564,AF,29,Asia/Kabul,2018-02-17,URN
Uruzgan,AF,,AFURZ,URZ,,Uruzgan,Uruzgan,32.9020,66.6340,AF,39,Asia/Kabul,2018-02-17,URZ
Zaranj,AF,,AFZAJ,ZAJ,,Zaranj,Zaranj,30.9596,61.8604,AF,19,Asia/Kabul,2018-02-13,ZAJ
Zaranj,AF,,AFZAJ,ZAJ,,Zaranj Airport,Zaranj Airport,31.1037,61.9365,AF,19,Asia/Kabul,2018-02-17,ZAJ
Antigua,AG,,AGANU,ANU,,V. C. Bird International Airport,V. C. Bird International Airport,17.1367,-61.7927,AG,03,America/Antigua,2016-11-29,ANU
Antigua,AG,,AGANU,ANU,,Antigua Island,Antigua Island,17.0761,-61.7954,AG,,America/Antigua,2014-04-06,ANU
Barbuda,AG,,AGBBQ,BBQ,,Barbuda Codrington Airport,Barbuda Codrington Airport,17.6361,-61.8263,AG,01,America/Antigua,2013-06-30,BBQ
Barbuda,AG,,AGBBQ,BBQ,,Barbuda Island,Barbuda Island,17.6713,-61.8359,AG,01,America/Antigua,2018-03-13,BBQ
Anguilla,AI,,AIAXA,AXA,,Clayton J. Lloyd International Airport,Clayton J. Lloyd International Airport,18.2048,-63.0551,AI,00,America/Anguilla,2013-03-31,AXA
Ai-Ais,,,AIW,AIW,,Ai-Ais,Ai-Ais,-27.9167,17.4833,,31,Africa/Windhoek,2012-01-17,AIW
Ai-Ais,,,AIW,AIW,,Ai Ais,Ai Ais,-27.9800,17.5800,,20,Africa/Windhoek,2017-10-28,AIW
Tirana,AL,,ALTIA,TIA,,Tirana International Airport Nënë Tereza,Tirana International Airport Nene Tereza,41.4219,19.7130,AL,42,Europe/Tirane,2018-03-20,TIA
Tirana,AL,,ALTIA,TIA,,Tirana,Tirana,41.3275,19.8189,AL,50,Europe/Tirane,2019-09-05,TIA
Yerevan,AM,ER,AMEVN,EVN,4011N 04431E,Zvartnots International Airport,Zvartnots International Airport,40.1525,44.4022,AM,00,Asia/Yerevan,2013-05-11,EVN
Gyumri,AM,,AMLWN,LWN,4048N 04350E,Gyumri,Gyumri,40.7942,43.8453,AM,07,Asia/Yerevan,2019-09-05,LWN
Gyumri,AM,,AMLWN,LWN,4048N 04350E,Shirak Airport,Shirak Airport,40.7510,43.8598,AM,,Asia/Yerevan,2014-05-23,LWN
Andulo,AO,,AOANL,ANL,,Andulo Airport,Andulo Airport,-11.4725,16.7113,AO,02,Africa/Luanda,2013-06-07,ANL
N'Zeto,AO,,AOARZ,ARZ,,N'zeto,N'zeto,-7.2312,12.8666,AO,16,Africa/Luanda,2017-07-07,ARZ
N'Zeto,AO,,AOARZ,ARZ,,N'zeto Airport,N'zeto Airport,-7.2588,12.8627,AO,,Africa/Luanda,2017-07-07,ARZ
Ambriz,AO,,AOAZZ,AZZ,,Ambriz Airport,Ambriz Airport,-7.8622,13.1161,AO,,Africa/Luanda,2011-03-17,AZZ
Benguela,AO,,AOBUG,BUG,,Monbaca Benguela,Monbaca Benguela,-12.6090,13.4037,AO,,Africa/Luanda,2007-01-03,BUG
Cabinda,AO,,AOCAB,CAB,,Cabinda Airport,Cabinda Airport,-5.5970,12.1883,AO,,Africa/Luanda,2011-03-28,CAB
Cazombo,AO,,AOCAV,CAV,,Cazombo Airport,Cazombo Airport,-11.8931,22.9164,AO,14,Africa/Luanda,2011-03-17,CAV
Catumbela,AO,,AOCBT,CBT,,Catumbela Airport,Catumbela Airport,-12.4792,13.4869,AO,01,Africa/Luanda,2016-10-25,CBT
Waku Kungo,AO,,AOCEO,CEO,1121S 01507E,Uacu Cungo,Uacu Cungo,-11.3567,15.1172,AO,06,Africa/Luanda,2015-04-24,CEO
Waku Kungo,AO,,AOCEO,CEO,1121S 01507E,Waku Kungo Airport,Waku Kungo Airport,-11.4264,15.1012,AO,01,Africa/Luanda,2013-05-19,CEO
Cafunfo,AO,,AOCFF,CFF,,Cafunfo Airport,Cafunfo Airport,-8.7836,17.9897,AO,17,Africa/Luanda,2011-03-17,CFF
Cafunfo,AO,,AOCFF,CFF,,Cafunfo,Cafunfo,-8.7672,17.9957,AO,17,Africa/Luanda,2012-05-06,CFF
Cangamba,AO,,AOCNZ,CNZ,,Cangamba,Cangamba,-13.6833,19.8667,AO,14,Africa/Luanda,2018-10-09,CNZ
Cangamba,AO,,AOCNZ,CNZ,,Cangamba Airport,Cangamba Airport,-13.7106,19.8611,AO,14,Africa/Luanda,2013-06-07,CNZ
Cuito Cuanavale,AO,,AOCTI,CTI,,Cuito Cuanavale Airport,Cuito Cuanavale Airport,-15.1603,19.1561,AO,04,Africa/Luanda,2011-03-17,CTI
Dirico,AO,,AODRC,DRC,,Dirico Airport,Dirico Airport,-17.9819,20.7681,AO,04,Africa/Luanda,2011-03-17,DRC
Dundo,AO,,AODUE,DUE,,Dundo,Dundo,-7.3664,20.8156,AO,17,Africa/Luanda,2017-05-07,DUE
Dundo,AO,,AODUE,DUE,,Dundo Airport,Dundo Airport,-7.4009,20.8185,AO,17,Africa/Luanda,2014-11-16,DUE
Lumbala,AO,,AOGGC,GGC,,Lumbala Nguimbo,Lumbala Nguimbo,-14.1016,21.4353,AO,14,Africa/Luanda,2013-06-16,GGC
Lumbala,AO,,AOGGC,GGC,,Lumbala Airport,Lumbala Airport,-14.1043,21.4427,AO,14,Africa/Luanda,2017-10-28,GGC
Negage,AO,,AOGXG,GXG,,Mbanza Negage,Mbanza Negage,-7.7887,15.2721,AO,15,Africa/Luanda,2012-01-17,GXG
Negage,AO,,AOGXG,GXG,,Negage Airport,Negage Airport,-7.7583,15.2895,AO,15,Africa/Luanda,2011-10-28,GXG
Jamba,AO,,AOJMB,JMB,,Ndjamba,Ndjamba,-14.6873,16.0342,AO,09,Africa/Luanda,2012-01-17,JMB
Jamba,AO,,AOJMB,JMB,,Jamba Airport,Jamba Airport,-14.6982,16.0702,AO,09,Africa/Luanda,2011-03-17,JMB
Capanda,AO,,AOKNP,KNP,,Capanda,Capanda,-9.7731,15.4486,AO,12,Africa/Luanda,2012-05-05,KNP
Capanda,AO,,AOKNP,KNP,,Capanda Airport,Capanda Airport,-9.7694,15.4553,AO,12,Africa/Luanda,2014-04-14,KNP
Luanda,AO,,AOLAD,LAD,,Luanda,Luanda,-8.8368,13.2343,AO,20,Africa/Luanda,2019-09-05,LAD
Luanda,AO,,AOLAD,LAD,,Luanda International Airport,Luanda International Airport,-8.8584,13.2312,AO,20,Africa/Luanda,2018-11-28,LAD
Lukapa,AO,,AOLBZ,LBZ,,Lucapa Airport,Lucapa Airport,-8.4415,20.7320,AO,17,Africa/Luanda,2013-05-13,LBZ
Luena,AO,,AOLUO,LUO,,Luena Airport,Luena Airport,-11.7681,19.8977,AO,14,Africa/Luanda,2011-02-17,LUO
Luzamba,AO,,AOLZM,LZM,,Luzamba Airport,Luzamba Airport,-9.1159,18.0489,AO,17,Africa/Luanda,2014-04-13,LZM
Malange,AO,,AOMEG,MEG,,Malanje Airport,Malanje Airport,-9.5251,16.3124,AO,12,Africa/Luanda,2011-02-17,MEG
Namibe,AO,,AOMSZ,MSZ,,Moçâmedes,Mocamedes,-15.1961,12.1522,AO,13,Africa/Luanda,2020-07-08,MSZ
Namibe,AO,,AOMSZ,MSZ,,Namibe Airport,Namibe Airport,-15.2612,12.1468,AO,13,Africa/Luanda,2013-06-09,MSZ
Sumbe,AO,,AONDD,NDD,,Sumbe Airport,Sumbe Airport,-11.1679,13.8475,AO,06,Africa/Luanda,2011-02-17,NDD
N'dalatando,AO,CNO,AONDF,NDF,0918S 01455E,N’dalatando,N'dalatando,-9.2978,14.9116,AO,05,Africa/Luanda,2017-05-07,NDF
N'dalatando,AO,CNO,AONDF,NDF,0918S 01455E,Ndalatandos Airport,Ndalatandos Airport,-9.2752,14.9772,AO,05,Africa/Luanda,2017-05-07,NDF
Huambo,AO,,AONOV,NOV,,Albano Machado Airport,Albano Machado Airport,-12.8089,15.7606,AO,,Africa/Luanda,2013-05-12,NOV
Nzagi,AO,,AONZA,NZA,,Nzagi Airport,Nzagi Airport,-7.7166,21.3583,AO,17,Africa/Luanda,2012-04-01,NZA
Nzagi,AO,,AONZA,NZA,,Nzagi,Nzagi,-7.6890,21.3620,AO,17,Africa/Luanda,2017-05-07,NZA
Porto Amboim,AO,,AOPBN,PBN,,Porto Amboim Airport,Porto Amboim Airport,-10.7220,13.7655,AO,06,Africa/Luanda,2014-08-16,PBN
Chitato,AO,,AOPGI,PGI,,Chitato Airport,Chitato Airport,-7.3587,20.8050,AO,17,Africa/Luanda,2013-05-09,PGI
Lubango,AO,,AOSDD,SDD,,Lubango Airport,Lubango Airport,-14.9247,13.5750,AO,09,Africa/Luanda,2014-08-15,SDD
Menongue,AO,,AOSPP,SPP,,Menongue Airport,Menongue Airport,-14.6576,17.7198,AO,04,Africa/Luanda,2011-02-17,SPP
M'banza Congo,AO,,AOSSY,SSY,,Mbanza Kongo,Mbanza Kongo,-6.2667,14.2383,AO,16,Africa/Luanda,2020-07-08,SSY
M'banza Congo,AO,,AOSSY,SSY,,Mbanza Congo Airport,Mbanza Congo Airport,-6.2699,14.2470,AO,16,Africa/Luanda,2018-11-20,SSY
Kuito,AO,,AOSVP,SVP,,Bie Silva Porto,Bie Silva Porto,-12.4046,16.9474,AO,,Africa/Luanda,2007-01-03,SVP
Soyo,AO,,AOSZA,SZA,,Soio,Soio,-6.1349,12.3689,AO,16,Africa/Luanda,2018-01-15,SZA
Soyo,AO,,AOSZA,SZA,,Soyo Airport,Soyo Airport,-6.1411,12.3718,AO,16,Africa/Luanda,2011-02-17,SZA
Luau,AO,,AOUAL,UAL,,Luau Airport,Luau Airport,-10.7158,22.2311,AO,14,Africa/Luanda,2011-02-17,UAL
Uíge,AO,,AOUGO,UGO,0737S 01503E,Uíge,Uige,-7.6087,15.0613,AO,15,Africa/Luanda,2017-05-07,UGO
Uíge,AO,,AOUGO,UGO,0737S 01503E,Uige Airport,Uige Airport,-7.6031,15.0278,AO,15,Africa/Luanda,2011-02-17,UGO
Saurimo,AO,,AOVHC,VHC,,Saurimo Airport,Saurimo Airport,-9.6891,20.4319,AO,18,Africa/Luanda,2011-02-17,VHC
Ongiva,AO,,AOVPE,VPE,,Ondjiva,Ondjiva,-17.0667,15.7333,AO,07,Africa/Luanda,2012-01-17,VPE
Ongiva,AO,,AOVPE,VPE,,Ngjiva Pereira Airport,Ngjiva Pereira Airport,-17.0435,15.6838,AO,07,Africa/Luanda,2011-03-16,VPE
Xangongo,AO,,AOXGN,XGN,,Xangongo,Xangongo,-16.7500,14.9833,AO,07,Africa/Luanda,2012-01-17,XGN
Xangongo,AO,,AOXGN,XGN,,Xangongo Airport,Xangongo Airport,-16.7554,14.9653,AO,07,Africa/Luanda,2011-02-17,XGN
Teniente R. Marsh,AQ,,AQTNM,TNM,6213S 05855W,King George Island,King George Island,-62.0000,-58.1000,AQ,,Antarctica/Palmer,2017-07-02,TNM
Teniente R. Marsh,AQ,,AQTNM,TNM,6213S 05855W,Teniente R. Marsh Airport,Teniente R. Marsh Airport,-62.1908,-58.9867,AQ,,Antarctica/Palmer,2016-04-16,TNM
Jorge Newbury Apt/Buenos Aires,AR,B,ARAEP,AEP,,Jorge Newbery Airport,Jorge Newbery Airport,-34.5592,-58.4156,AR,07,America/Argentina/Buenos_Aires,2017-05-08,AEP
San Rafael,AR,M,ARAFA,AFA,,San Rafael,San Rafael,-34.6177,-68.3301,AR,13,America/Argentina/Mendoza,2016-01-30,AFA
San Rafael,AR,M,ARAFA,AFA,,"San Rafael ""Santiago Germano"" Airport","San Rafael ""Santiago Germano"" Airport",-34.5883,-68.4039,AR,13,America/Argentina/Mendoza,2017-05-07,AFA
Paso de los Libres,AR,W,ARAOL,AOL,,Paso de los Libres,Paso de los Libres,-29.7125,-57.0877,AR,06,America/Argentina/Cordoba,2015-04-22,AOL
Paso de los Libres,AR,W,ARAOL,AOL,,Paso de los Libres Airport,Paso de los Libres Airport,-29.6894,-57.1521,AR,06,America/Argentina/Cordoba,2016-01-30,AOL
Zapala,AR,Q,ARAPZ,APZ,,Zapala,Zapala,-38.8992,-70.0544,AR,15,America/Argentina/Salta,2015-04-22,APZ
Zapala,AR,Q,ARAPZ,APZ,,Zapala Airport,Zapala Airport,-38.9755,-70.1136,AR,15,America/Argentina/Salta,2016-01-30,APZ
Alto Río Senguerr,AR,U,ARARR,ARR,4502S 07050W,Alto Río Senguer,Alto Rio Senguer,-45.0410,-70.8198,AR,04,America/Argentina/Catamarca,2020-06-10,ARR
Alto Río Senguerr,AR,U,ARARR,ARR,4502S 07050W,D. Casimiro Szlapelis Airport,D. Casimiro Szlapelis Airport,-45.0136,-70.8122,AR,04,America/Argentina/Catamarca,2016-01-30,ARR
Bahía Blanca,AR,B,ARBHI,BHI,3843S 06217W,Comandante Espora Airport,Comandante Espora Airport,-38.7287,-62.1530,AR,01,America/Argentina/Buenos_Aires,2015-09-05,BHI
San Carlos de Bariloche,AR,R,ARBRC,BRC,4109S 07118W,Bariloche Aerodrome,Bariloche Aerodrome,-41.1512,-71.1575,AR,16,America/Argentina/Salta,2015-04-22,BRC
Buenos Aires,AR,C,ARBUE,BUE,3435S 05840W,Buenos Aires,Buenos Aires,-34.6131,-58.3772,AR,07,America/Argentina/Buenos_Aires,2019-09-05,BUE
Caballito,AR,B,ARCAB,CAB,3437S 05827W,Ciudad Autónoma de Buenos Aires,Ciudad Autonoma de Buenos Aires,-34.6000,-58.4500,AR,07,America/Argentina/Buenos_Aires,2019-03-14,CAB
Colonia Catriel,AR,R,ARCCT,CCT,,Catriel,Catriel,-37.8791,-67.7956,AR,16,America/Argentina/Salta,2016-03-06,CCT
Colonia Catriel,AR,R,ARCCT,CCT,,Colonia Catriel Airport,Colonia Catriel Airport,-37.9102,-67.8350,AR,16,America/Argentina/Salta,2016-03-06,CCT
Clorinda,AR,F,ARCLX,CLX,,Clorinda,Clorinda,-25.2848,-57.7185,AR,09,America/Argentina/Cordoba,2016-01-30,CLX
Clorinda,AR,F,ARCLX,CLX,,Clorinda Airport,Clorinda Airport,-25.3000,-57.7333,AR,09,America/Argentina/Cordoba,2020-04-05,CLX
Corrientes,AR,W,ARCNQ,CNQ,,Corrientes,Corrientes,-27.4678,-58.8344,AR,06,America/Argentina/Cordoba,2019-09-05,CNQ
Corrientes,AR,W,ARCNQ,CNQ,,Corrientes International Airport,Corrientes International Airport,-27.4455,-58.7619,AR,06,America/Argentina/Cordoba,2016-11-29,CNQ
Charata,AR,H,ARCNT,CNT,,Charata,Charata,-27.2144,-61.1880,AR,03,America/Argentina/Cordoba,2016-01-30,CNT
Charata,AR,H,ARCNT,CNT,,Charata Airport,Charata Airport,-27.2164,-61.2103,AR,03,America/Argentina/Cordoba,2016-01-30,CNT
Concordia,AR,E,ARCOC,COC,,Concordia,Concordia,-31.3930,-58.0209,AR,08,America/Argentina/Cordoba,2016-01-30,COC
Concordia,AR,E,ARCOC,COC,,Comodoro Pierrestegui Airport,Comodoro Pierrestegui Airport,-31.2969,-57.9966,AR,08,America/Argentina/Cordoba,2016-01-30,COC
Córdoba,AR,X,ARCOR,COR,3124S 06411W,Córdoba,Cordoba,-31.4135,-64.1810,AR,05,America/Argentina/Cordoba,2019-09-05,COR
Córdoba,AR,X,ARCOR,COR,3124S 06411W,Pajas Blancas Airport,Pajas Blancas Airport,-31.3236,-64.2079,AR,05,America/Argentina/Cordoba,2020-04-05,COR
San Martín de los Andes,AR,Q,ARCPC,CPC,4010S 07121W,San Martín de los Andes,San Martin de los Andes,-40.1579,-71.3534,AR,15,America/Argentina/Salta,2015-04-22,CPC
San Martín de los Andes,AR,Q,ARCPC,CPC,4010S 07121W,Chapelco - Aviador Carlos Campos Airport,Chapelco - Aviador Carlos Campos Airport,-40.0753,-71.1372,AR,15,America/Argentina/Salta,2016-01-30,CPC
Carmen de Patagones,AR,B,ARCPG,CPG,,Carmen de Patagones,Carmen de Patagones,-40.7983,-62.9810,AR,01,America/Argentina/Buenos_Aires,2016-01-30,CPG
Carmen de Patagones,AR,B,ARCPG,CPG,,Carmen De Patagones Airfield,Carmen De Patagones Airfield,-40.7774,-62.9795,AR,01,America/Argentina/Buenos_Aires,2016-01-30,CPG
Comodoro Rivadavia,AR,U,ARCRD,CRD,,Comodoro Rivadavia,Comodoro Rivadavia,-45.8641,-67.4966,AR,04,America/Argentina/Rio_Gallegos,2019-09-09,CRD
Comodoro Rivadavia,AR,U,ARCRD,CRD,,General Enrique Mosconi International Airport,General Enrique Mosconi International Airport,-45.7854,-67.4655,AR,04,America/Argentina/Catamarca,2016-11-29,CRD
Ceres,AR,S,ARCRR,CRR,,Ceres,Ceres,-29.8810,-61.9450,AR,21,America/Argentina/Cordoba,2020-04-05,CRR
Ceres,AR,S,ARCRR,CRR,,Ceres Aerodrome,Ceres Aerodrome,-29.8734,-61.9292,AR,21,America/Argentina/Cordoba,2020-04-05,CRR
Coronel Suarez,AR,B,ARCSZ,CSZ,3728S 06155W,Coronel Suárez,Coronel Suarez,-37.4547,-61.9334,AR,01,America/Argentina/Buenos_Aires,2016-03-06,CSZ
Coronel Suarez,AR,B,ARCSZ,CSZ,3728S 06155W,Brigadier Hector Eduardo Ruiz Airport,Brigadier Hector Eduardo Ruiz Airport,-37.4496,-61.8886,AR,01,America/Argentina/Buenos_Aires,2016-03-06,CSZ
Catamarca,AR,K,ARCTC,CTC,,San Fernando del Valle de Catamarca,San Fernando del Valle de Catamarca,-28.4696,-65.7852,AR,02,America/Argentina/Catamarca,2016-01-30,CTC
Catamarca,AR,K,ARCTC,CTC,,Coronel Felipe Varela International Airport,Coronel Felipe Varela International Airport,-28.5932,-65.7509,AR,02,America/Argentina/Catamarca,2016-10-22,CTC
Cutral-Có,AR,Q,ARCUT,CUT,3856S 06914W,Cutral-Có,Cutral-Co,-38.9342,-69.2305,AR,15,America/Argentina/Salta,2015-12-09,CUT
Cutral-Có,AR,Q,ARCUT,CUT,3856S 06914W,Cutral Có Airport,Cutral Co Airport,-38.9397,-69.2646,AR,15,America/Argentina/Salta,2016-01-30,CUT
Caviahue,AR,Q,ARCVH,CVH,,Caviahue Airport,Caviahue Airport,-37.8514,-71.0092,AR,15,America/Argentina/Salta,2016-01-30,CVH
Caleta Olivia,AR,Z,ARCVI,CVI,,Caleta Olivia Airport,Caleta Olivia Airport,-46.3722,-67.5855,AR,20,America/Argentina/Rio_Gallegos,2016-01-30,CVI
Ensenada,AR,B,AREEA,EEA,3452S 05753W,Instituto Nacional de Tecnología Agropecuaria Estación Experimental Agropecuaria Delta del Paraná,Instituto Nacional de Tecnologia Agropecuaria Estacion Experimental Agropecuaria Delta del Parana,-34.1749,-58.8630,AR,01,America/Argentina/Buenos_Aires,2016-06-22,EEA
Ensenada,AR,B,AREEA,EEA,3452S 05753W,Instituto Nacional de Tecnología Agropecuaria Estación Experimental Agropecuaria Delta del Paraná,Instituto Nacional de Tecnologia Agropecuaria Estacion Experimental Agropecuaria Delta del Parana,-34.1749,-58.8630,AR,01,America/Argentina/Buenos_Aires,2016-06-22,EEA
El Bolsón,AR,R,AREHL,EHL,4158S 07131W,El Bolsón,El Bolson,-41.9605,-71.5334,AR,16,America/Argentina/Salta,2016-01-30,EHL
El Bolsón,AR,R,AREHL,EHL,4158S 07131W,El Bolsón Airport,El Bolson Airport,-41.9432,-71.5323,AR,16,America/Argentina/Salta,2016-01-30,EHL
Eldorado,AR,N,ARELO,ELO,,Eldorado,Eldorado,-26.4048,-54.6248,AR,14,America/Argentina/Cordoba,2015-04-22,ELO
Eldorado,AR,N,ARELO,ELO,,Eldorado Airport,Eldorado Airport,-26.3975,-54.5747,AR,14,America/Argentina/Cordoba,2016-01-30,ELO
El Maitén,AR,U,AREMX,EMX,4203S 07110W,El Maitén,El Maiten,-42.0492,-71.1669,AR,04,America/Argentina/Catamarca,2017-03-25,EMX
El Maitén,AR,U,AREMX,EMX,4203S 07110W,El Maitén Airport,El Maiten Airport,-42.0292,-71.1725,AR,04,America/Argentina/Catamarca,2017-03-25,EMX
El Palomar,AR,B,AREPA,EPA,3432S 05836W,El Palomar,El Palomar,-34.5417,-58.6153,AR,01,America/Argentina/Buenos_Aires,2017-03-24,EPA
El Palomar,AR,B,AREPA,EPA,3432S 05836W,El Palomar Airport,El Palomar Airport,-34.6099,-58.6126,AR,01,America/Argentina/Buenos_Aires,2016-01-30,EPA
Esquel,AR,U,AREQS,EQS,,Esquel,Esquel,-42.9115,-71.3195,AR,04,America/Argentina/Catamarca,2015-04-22,EQS
Esquel,AR,U,AREQS,EQS,,Esquel Airport,Esquel Airport,-42.9079,-71.1395,AR,04,America/Argentina/Catamarca,2015-04-22,EQS
Ministro Pistarini Apt/Buenos Aires,AR,B,AREZE,EZE,3450S 05831W,Buenos Aires - Ministro Pistarini International Airport,Buenos Aires - Ministro Pistarini International Airport,-34.8222,-58.5358,AR,01,America/Argentina/Buenos_Aires,2017-09-21,EZE
Formosa,AR,P,ARFMA,FMA,,Formosa,Formosa,-26.1849,-58.1731,AR,09,America/Argentina/Cordoba,2018-11-30,FMA
Formosa,AR,P,ARFMA,FMA,,Formosa Aerodrome,Formosa Aerodrome,-26.2127,-58.2281,AR,09,America/Argentina/Cordoba,2016-01-30,FMA
El Calafate,AR,Z,ARFTE,FTE,5016S 07203W,El Calafate,El Calafate,-50.3407,-72.2768,AR,20,America/Argentina/Rio_Gallegos,2017-07-20,FTE
El Calafate,AR,Z,ARFTE,FTE,5016S 07203W,El Calafate Airport,El Calafate Airport,-50.2803,-72.0531,AR,20,America/Argentina/Rio_Gallegos,2016-01-30,FTE
Gobernador Gregores,AR,Z,ARGGS,GGS,,Gobernador Gregores,Gobernador Gregores,-48.7506,-70.2474,AR,20,America/Argentina/Rio_Gallegos,2016-01-30,GGS
Gobernador Gregores,AR,Z,ARGGS,GGS,,Gobernador Gregores Aerodrome,Gobernador Gregores Aerodrome,-48.7833,-70.1667,AR,20,America/Argentina/Rio_Gallegos,2016-01-30,GGS
Gualeguaychú,AR,E,ARGHU,GHU,3301S 05831W,Gualeguaychú,Gualeguaychu,-33.0094,-58.5172,AR,08,America/Argentina/Cordoba,2016-01-30,GHU
Gualeguaychú,AR,E,ARGHU,GHU,3301S 05831W,Gualeguaychu Aerodrome,Gualeguaychu Aerodrome,-33.0103,-58.6131,AR,08,America/Argentina/Cordoba,2016-01-30,GHU
General Roca,AR,R,ARGNR,GNR,3902S 06735W,General Roca,General Roca,-39.0333,-67.5833,AR,16,America/Argentina/Salta,2015-04-22,GNR
General Roca,AR,R,ARGNR,GNR,3902S 06735W,Dr. Arturo Umberto Illia Airport,Dr. Arturo Umberto Illia Airport,-39.0007,-67.6205,AR,16,America/Argentina/Salta,2016-01-30,GNR
General Pico,AR,L,ARGPO,GPO,,General Pico,General Pico,-35.6566,-63.7568,AR,11,America/Argentina/Salta,2016-01-30,GPO
General Pico,AR,L,ARGPO,GPO,,General Pico Airport,General Pico Airport,-35.6962,-63.7583,AR,11,America/Argentina/Salta,2016-01-30,GPO
Chos Malal,AR,Q,ARHOS,HOS,,Chos Malal,Chos Malal,-37.3781,-70.2708,AR,15,America/Argentina/Salta,2016-01-30,HOS
Chos Malal,AR,Q,ARHOS,HOS,,Chos Malal Airport,Chos Malal Airport,-37.4450,-70.2229,AR,15,America/Argentina/Salta,2017-03-24,HOS
Ingeniero Jacobacci,AR,R,ARIGB,IGB,,Ingeniero Jacobacci,Ingeniero Jacobacci,-41.3292,-69.5502,AR,16,America/Argentina/Salta,2016-01-30,IGB
Ingeniero Jacobacci,AR,R,ARIGB,IGB,,Ingeniero Jacobacci Airport,Ingeniero Jacobacci Airport,-41.3209,-69.5749,AR,16,America/Argentina/Salta,2016-01-30,IGB
Iguazú,AR,N,ARIGR,IGR,2534S 05434W,Puerto Iguazú,Puerto Iguazu,-25.5991,-54.5735,AR,14,America/Argentina/Cordoba,2015-04-22,IGR
Iguazú,AR,N,ARIGR,IGR,2534S 05434W,Cataratas del Iguazú International Airport,Cataratas del Iguazu International Airport,-25.7373,-54.4734,AR,14,America/Argentina/Cordoba,2015-08-29,IGR
Lago Argentino,AR,Z,ARING,ING,,Lago Argentino Aerodrome,Lago Argentino Aerodrome,-50.3333,-72.3000,AR,20,America/Argentina/Rio_Gallegos,2017-09-16,ING
La Rioja,AR,F,ARIRJ,IRJ,,La Rioja,La Rioja,-29.4110,-66.8507,AR,12,America/Argentina/La_Rioja,2019-09-05,IRJ
La Rioja,AR,F,ARIRJ,IRJ,,Capitán Vicente Almandos Almonacid Airport,Capitan Vicente Almandos Almonacid Airport,-29.3816,-66.7958,AR,12,America/Argentina/La_Rioja,2020-04-05,IRJ
Junín,AR,B,ARJNI,JNI,3435S 06058W,Junín,Junin,-34.5838,-60.9433,AR,01,America/Argentina/Buenos_Aires,2015-04-22,JNI
Junín,AR,B,ARJNI,JNI,3435S 06058W,Junín Airport,Junin Airport,-34.5459,-60.9306,AR,01,America/Argentina/Buenos_Aires,2016-01-30,JNI
José de San Martín,AR,U,ARJSM,JSM,4402S 07029W,José de San Martín,Jose de San Martin,-44.0503,-70.4697,AR,04,America/Argentina/Catamarca,2017-03-25,JSM
José de San Martín,AR,U,ARJSM,JSM,4402S 07029W,Jose De San Martin Airport,Jose De San Martin Airport,-44.0486,-70.4589,AR,04,America/Argentina/Catamarca,2017-03-25,JSM
Jujuy,AR,Y,ARJUJ,JUJ,,San Salvador de Jujuy,San Salvador de Jujuy,-24.1946,-65.2971,AR,10,America/Argentina/Jujuy,2019-09-05,JUJ
Jujuy,AR,Y,ARJUJ,JUJ,,Gobernador Horacio Guzmán International Airport,Gobernador Horacio Guzman International Airport,-24.3928,-65.0978,AR,10,America/Argentina/Jujuy,2020-04-05,JUJ
La Cumbre,AR,X,ARLCM,LCM,,La Cumbre,La Cumbre,-30.9820,-64.4914,AR,05,America/Argentina/Cordoba,2016-01-30,LCM
La Cumbre,AR,X,ARLCM,LCM,,La Cumbre Airport,La Cumbre Airport,-31.0058,-64.5319,AR,05,America/Argentina/Cordoba,2016-01-30,LCM
Loncopué,AR,Q,ARLCP,LCP,3804S 07037W,Loncopué,Loncopue,-38.0728,-70.6161,AR,15,America/Argentina/Salta,2017-03-25,LCP
Loncopué,AR,Q,ARLCP,LCP,3804S 07037W,Loncopue Airport,Loncopue Airport,-38.0819,-70.6439,AR,15,America/Argentina/Salta,2016-01-30,LCP
Malargüe,AR,M,ARLGS,LGS,3528S 06935W,Malargüe,Malarguee,-35.4755,-69.5843,AR,13,America/Argentina/Mendoza,2016-01-30,LGS
Malargüe,AR,M,ARLGS,LGS,3528S 06935W,Malargue Airport,Malargue Airport,-35.4936,-69.5743,AR,13,America/Argentina/Mendoza,2016-01-30,LGS
Las Heras,AR,Z,ARLHS,LHS,,Las Heras,Las Heras,-46.5419,-68.9359,AR,20,America/Argentina/Rio_Gallegos,2016-01-30,LHS
Las Heras,AR,Z,ARLHS,LHS,,Las Heras Airport,Las Heras Airport,-46.5383,-68.9653,AR,20,America/Argentina/Rio_Gallegos,2016-01-30,LHS
Las Lomitas,AR,P,ARLLS,LLS,,Las Lomitas,Las Lomitas,-24.7096,-60.5930,AR,09,America/Argentina/Cordoba,2016-01-30,LLS
Los Menucos,AR,R,ARLMD,LMD,,Los Menucos,Los Menucos,-40.8440,-68.0872,AR,16,America/Argentina/Salta,2016-01-30,LMD
Los Menucos,AR,R,ARLMD,LMD,,Los Menucos Airport,Los Menucos Airport,-40.8177,-68.0747,AR,16,America/Argentina/Salta,2016-01-30,LMD
La Plata,AR,B,ARLPG,LPG,3451S 05753W,La Plata,La Plata,-34.9215,-57.9545,AR,01,America/Argentina/Buenos_Aires,2019-09-05,LPG
La Plata,AR,B,ARLPG,LPG,3451S 05753W,La Plata Airport,La Plata Airport,-34.9667,-57.8921,AR,01,America/Argentina/Buenos_Aires,2016-01-30,LPG
San Luis,AR,D,ARLUQ,LUQ,3318S 06621W,San Luis,San Luis,-33.2950,-66.3356,AR,19,America/Argentina/San_Luis,2016-09-05,LUQ
San Luis,AR,D,ARLUQ,LUQ,3318S 06621W,Brigadier Mayor César Raúl Ojeda Airport,Brigadier Mayor Cesar Raul Ojeda Airport,-33.2732,-66.3564,AR,19,America/Argentina/San_Luis,2020-04-05,LUQ
Monte Caseros,AR,W,ARMCS,MCS,,Monte Caseros,Monte Caseros,-30.2536,-57.6363,AR,06,America/Argentina/Cordoba,2015-04-22,MCS
Monte Caseros,AR,W,ARMCS,MCS,,Monte Caseros Aerodrome,Monte Caseros Aerodrome,-30.2719,-57.6402,AR,06,America/Argentina/Cordoba,2016-01-30,MCS
Mar del Plata,AR,B,ARMDQ,MDQ,3803S 05732W,Mar del Plata,Mar del Plata,-38.0004,-57.5562,AR,01,America/Argentina/Buenos_Aires,2019-09-05,MDQ
Mar del Plata,AR,B,ARMDQ,MDQ,3803S 05732W,Astor Piazzolla International Airport,Astor Piazzolla International Airport,-37.9342,-57.5733,AR,01,America/Argentina/Buenos_Aires,2016-02-13,MDQ
Mercedes,AR,W,ARMDX,MDX,,Mercedes,Mercedes,-29.1842,-58.0752,AR,06,America/Argentina/Cordoba,2015-06-15,MDX
Mercedes,AR,W,ARMDX,MDX,,Mercedes Airport,Mercedes Airport,-29.2214,-58.0878,AR,06,America/Argentina/Cordoba,2016-01-30,MDX
Mendoza,AR,M,ARMDZ,MDZ,,Mendoza,Mendoza,-32.8908,-68.8272,AR,13,America/Argentina/Mendoza,2020-07-08,MDZ
Mendoza,AR,M,ARMDZ,MDZ,,Mendoza Aerodrome,Mendoza Aerodrome,-32.8317,-68.7929,AR,13,America/Argentina/Mendoza,2016-01-30,MDZ
Miramar,AR,B,ARMJR,MJR,,Miramar,Miramar,-38.2716,-57.8389,AR,01,America/Argentina/Buenos_Aires,2016-01-30,MJR
Miramar,AR,B,ARMJR,MJR,,Miramar Airport,Miramar Airport,-38.2279,-57.8720,AR,01,America/Argentina/Buenos_Aires,2016-01-30,MJR
Maquinchao,AR,R,ARMQD,MQD,,Maquinchao,Maquinchao,-41.2491,-68.7032,AR,16,America/Argentina/Salta,2019-03-24,MQD
Maquinchao,AR,R,ARMQD,MQD,,Maquinchao Airport,Maquinchao Airport,-41.2431,-68.7078,AR,16,America/Argentina/Salta,2016-01-30,MQD
Necochea,AR,B,ARNEC,NEC,,Necochea,Necochea,-38.5545,-58.7396,AR,01,America/Argentina/Buenos_Aires,2016-01-27,NEC
Necochea,AR,B,ARNEC,NEC,,Necochea Airport,Necochea Airport,-38.4854,-58.8139,AR,01,America/Argentina/Buenos_Aires,2016-01-30,NEC
Neuquén,AR,Q,ARNQN,NQN,3857S 06804W,Neuquén,Neuquen,-38.9516,-68.0591,AR,15,America/Argentina/Salta,2020-06-10,NQN
Neuquén,AR,Q,ARNQN,NQN,3857S 06804W,Presidente Perón International Airport,Presidente Peron International Airport,-38.9490,-68.1557,AR,15,America/Argentina/Salta,2016-01-30,NQN
San Antonio Oeste,AR,R,AROES,OES,,San Antonio Oeste,San Antonio Oeste,-40.7319,-64.9477,AR,16,America/Argentina/Salta,2016-01-30,OES
San Antonio Oeste,AR,R,AROES,OES,,Antoine de Saint Exupéry Airport,Antoine de Saint Exupery Airport,-40.7520,-65.0329,AR,16,America/Argentina/Salta,2016-01-30,OES
Colonia Sarmiento,AR,U,AROLN,OLN,,Sarmiento,Sarmiento,-45.5881,-69.0700,AR,04,America/Argentina/Catamarca,2017-02-07,OLN
Colonia Sarmiento,AR,U,AROLN,OLN,,Lago Musters Airport,Lago Musters Airport,-45.5833,-69.0000,AR,04,America/Argentina/Catamarca,2017-02-08,OLN
Oran,AR,A,ARORA,ORA,,San Ramón de la Nueva Orán,San Ramon de la Nueva Oran,-23.1370,-64.3243,AR,17,America/Argentina/Salta,2016-01-30,ORA
Oran,AR,A,ARORA,ORA,,Oran Airport,Oran Airport,-23.1528,-64.3292,AR,17,America/Argentina/Salta,2020-04-05,ORA
Goya,AR,W,AROYA,OYA,,Goya,Goya,-29.1399,-59.2634,AR,06,America/Argentina/Cordoba,2018-11-30,OYA
Goya,AR,W,AROYA,OYA,,Goya Airport,Goya Airport,-29.1058,-59.2189,AR,06,America/Argentina/Cordoba,2016-01-30,OYA
Tres Arroyos,AR,B,AROYO,OYO,3823S 06017W,Tres Arroyos,Tres Arroyos,-38.3739,-60.2798,AR,01,America/Argentina/Buenos_Aires,2015-04-22,OYO
Tres Arroyos,AR,B,AROYO,OYO,3823S 06017W,Tres Arroyos Airport,Tres Arroyos Airport,-38.3888,-60.3293,AR,01,America/Argentina/Buenos_Aires,2016-01-30,OYO
Pehuajó,AR,B,ARPEH,PEH,3549S 06154W,Pehuajó,Pehuajo,-35.8108,-61.8968,AR,01,America/Argentina/Buenos_Aires,2015-04-22,PEH
Pehuajó,AR,B,ARPEH,PEH,3549S 06154W,Comodoro Pedro Zanni Airport,Comodoro Pedro Zanni Airport,-35.8446,-61.8576,AR,01,America/Argentina/Buenos_Aires,2016-01-30,PEH
Perito Moreno,AR,Z,ARPMQ,PMQ,,Perito Moreno,Perito Moreno,-46.5900,-70.9297,AR,20,America/Argentina/Rio_Gallegos,2016-01-30,PMQ
Perito Moreno,AR,Z,ARPMQ,PMQ,,Perito Moreno Aerodrome,Perito Moreno Aerodrome,-46.5379,-70.9787,AR,20,America/Argentina/Rio_Gallegos,2016-01-30,PMQ
Puerto Madryn,AR,U,ARPMY,PMY,4245S 06502W,Puerto Madryn,Puerto Madryn,-42.7692,-65.0385,AR,04,America/Argentina/Catamarca,2016-01-30,PMY
Puerto Madryn,AR,U,ARPMY,PMY,4245S 06502W,"Puerto Madryn, CHT","Puerto Madryn, CHT",-42.7592,-65.1028,AR,04,America/Argentina/Catamarca,2016-01-30,PMY
Paraná,AR,E,ARPRA,PRA,3144S 06032W,Paraná,Parana,-31.7327,-60.5290,AR,08,America/Argentina/Cordoba,2018-11-30,PRA
Paraná,AR,E,ARPRA,PRA,3144S 06032W,Parana Airport,Parana Airport,-31.7948,-60.4804,AR,08,America/Argentina/Cordoba,2016-01-30,PRA
Presidente Roque Sáenz Peña,AR,H,ARPRQ,PRQ,3433S 05830W,Presidencia Roque Sáenz Peña,Presidencia Roque Saenz Pena,-26.7852,-60.4388,AR,03,America/Argentina/Cordoba,2016-10-30,PRQ
Presidente Roque Sáenz Peña,AR,H,ARPRQ,PRQ,3433S 05830W,Presidencia Roque Sáenz Peña Airport,Presidencia Roque Saenz Pena Airport,-26.7565,-60.4931,AR,03,America/Argentina/Cordoba,2016-10-30,PRQ
Posadas,AR,N,ARPSS,PSS,,Posadas,Posadas,-27.3671,-55.8961,AR,14,America/Argentina/Cordoba,2015-04-22,PSS
Posadas,AR,N,ARPSS,PSS,,Posadas Airport,Posadas Airport,-27.3858,-55.9707,AR,14,America/Argentina/Cordoba,2015-04-22,PSS
Puerto Deseado,AR,Z,ARPUD,PUD,4745S 06554W,Puerto Deseado,Puerto Deseado,-47.7503,-65.8938,AR,20,America/Argentina/Rio_Gallegos,2016-01-30,PUD
Puerto Deseado,AR,Z,ARPUD,PUD,4745S 06554W,Puerto Deseado Aerodrome,Puerto Deseado Aerodrome,-47.7353,-65.9041,AR,20,America/Argentina/Rio_Gallegos,2016-01-30,PUD
Olivos,AR,B,ARQLV,QLV,,Olivos,Olivos,-34.5075,-58.4870,AR,01,America/Argentina/Buenos_Aires,2015-04-22,QLV
Pinamar,AR,B,ARQPQ,QPQ,,Pinamar,Pinamar,-37.1080,-56.8614,AR,01,America/Argentina/Buenos_Aires,2016-01-30,QPQ
Rafaela,AR,S,ARRAF,RAF,3116S 06129W,Rafaela Airport,Rafaela Airport,-31.2833,-61.5000,AR,21,America/Argentina/Cordoba,2016-01-30,RAF
Rafaela,AR,S,ARRAF,RAF,3116S 06129W,Rafaela,Rafaela,-31.2503,-61.4867,AR,21,America/Argentina/Cordoba,2016-01-30,RAF
Reconquista,AR,S,ARRCQ,RCQ,2909S 05939W,Reconquista,Reconquista,-29.1500,-59.6500,AR,21,America/Argentina/Cordoba,2018-03-27,RCQ
Reconquista,AR,S,ARRCQ,RCQ,2909S 05939W,Reconquista Airport,Reconquista Airport,-29.2103,-59.6800,AR,21,America/Argentina/Cordoba,2016-01-30,RCQ
Río Cuarto,AR,X,ARRCU,RCU,3308S 06421W,Río Cuarto,Rio Cuarto,-33.1307,-64.3499,AR,05,America/Argentina/Cordoba,2015-04-22,RCU
Río Cuarto,AR,X,ARRCU,RCU,3308S 06421W,Rio Cuarto Airport,Rio Cuarto Airport,-33.0851,-64.2613,AR,05,America/Argentina/Cordoba,2016-01-30,RCU
Rincón de los Sauces,AR,Q,ARRDS,RDS,,Rincon De Los Sauces Airport,Rincon De Los Sauces Airport,-37.3906,-68.9042,AR,15,America/Argentina/Salta,2016-01-30,RDS
Rincón de los Sauces,AR,Q,ARRDS,RDS,,Rincón de Los Sauces,Rincon de Los Sauces,-37.3984,-68.9287,AR,15,America/Argentina/Salta,2017-03-24,RDS
Trelew,AR,U,ARREL,REL,,Trelew,Trelew,-43.2490,-65.3050,AR,04,America/Argentina/Catamarca,2016-01-30,REL
Trelew,AR,U,ARREL,REL,,Almirante Marcos A. Zar Airport,Almirante Marcos A. Zar Airport,-43.2105,-65.2703,AR,04,America/Argentina/Catamarca,2016-01-30,REL
Resistencia,AR,H,ARRES,RES,,Resistencia,Resistencia,-27.4606,-58.9839,AR,03,America/Argentina/Cordoba,2016-01-30,RES
Resistencia,AR,H,ARRES,RES,,Resistencia International Airport,Resistencia International Airport,-27.4500,-59.0561,AR,03,America/Argentina/Cordoba,2016-11-29,RES
Río Grande,AR,V,ARRGA,RGA,5347S 06742W,Río Grande,Rio Grande,-53.7877,-67.7095,AR,23,America/Argentina/Ushuaia,2017-12-21,RGA
Río Grande,AR,V,ARRGA,RGA,5347S 06742W,Hermes Quijada International Airport,Hermes Quijada International Airport,-53.7777,-67.7494,AR,23,America/Argentina/Ushuaia,2016-01-30,RGA
Río Gallegos,AR,Z,ARRGL,RGL,5138S 06913W,Río Gallegos,Rio Gallegos,-51.6226,-69.2181,AR,20,America/Argentina/Rio_Gallegos,2020-06-10,RGL
Río Gallegos,AR,Z,ARRGL,RGL,5138S 06913W,Piloto Civil Norberto Fernández International Airport,Piloto Civil Norberto Fernandez International Airport,-51.6089,-69.3126,AR,20,America/Argentina/Rio_Gallegos,2016-01-30,RGL
Río Hondo,AR,G,ARRHD,RHD,2734S 06457W,Termas de Río Hondo,Termas de Rio Hondo,-27.4936,-64.8597,AR,22,America/Argentina/Cordoba,2017-03-25,RHD
Río Hondo,AR,G,ARRHD,RHD,2734S 06457W,Las Termas Airport,Las Termas Airport,-27.4960,-64.9350,AR,22,America/Argentina/Cordoba,2020-04-05,RHD
Merlo,AR,D,ARRLO,RLO,3221S 06501W,Merlo,Merlo,-32.3429,-65.0140,AR,19,America/Argentina/San_Luis,2019-03-24,RLO
Merlo,AR,D,ARRLO,RLO,3221S 06501W,Valle del Conlara Airport,Valle del Conlara Airport,-32.3838,-65.1856,AR,19,America/Argentina/San_Luis,2015-06-07,RLO
Rosario,AR,S,ARROS,ROS,3257S 06039W,Rosario International Airport,Rosario International Airport,-32.9036,-60.7850,AR,21,America/Argentina/Cordoba,2016-01-30,ROS
Rosario,AR,S,ARROS,ROS,3257S 06039W,Rosario,Rosario,-32.9468,-60.6393,AR,21,America/Argentina/Cordoba,2015-04-22,ROS
Río Mayo,AR,U,ARROY,ROY,4541S 07016W,Río Mayo,Rio Mayo,-45.6857,-70.2580,AR,04,America/Argentina/Catamarca,2020-06-10,ROY
Río Mayo,AR,U,ARROY,ROY,4541S 07016W,Rio Mayo Airport,Rio Mayo Airport,-45.7039,-70.2456,AR,04,America/Argentina/Catamarca,2016-01-30,ROY
Santa Rosa,AR,L,ARRSA,RSA,,Santa Rosa,Santa Rosa,-36.6167,-64.2833,AR,11,America/Argentina/Salta,2016-01-30,RSA
Santa Rosa,AR,L,ARRSA,RSA,,Santa Rosa Aerodrome,Santa Rosa Aerodrome,-36.5883,-64.2757,AR,11,America/Argentina/Salta,2016-01-30,RSA
Río Turbio,AR,Z,ARRYO,RYO,5132S 07218W,Río Turbio Airport,Rio Turbio Airport,-51.6055,-72.2176,AR,20,America/Argentina/Rio_Gallegos,2016-01-30,RYO
Santa Cruz,AR,Z,ARRZA,RZA,5001S 06825W,Puerto Santa Cruz,Puerto Santa Cruz,-50.0191,-68.5232,AR,20,America/Argentina/Rio_Gallegos,2017-03-25,RZA
Santa Cruz,AR,Z,ARRZA,RZA,5001S 06825W,Santa Cruz Aerodrome,Santa Cruz Aerodrome,-50.0166,-68.5792,AR,20,America/Argentina/Rio_Gallegos,2016-01-30,RZA
San Antonio de Arredondo,AR,X,ARSAA,SAA,3129S 06431W,Rosario International Airport,Rosario International Airport,-32.9036,-60.7850,AR,21,America/Argentina/Cordoba,2016-01-30,SAA
San Antonio de Arredondo,AR,X,ARSAA,SAA,3129S 06431W,Pergamino Aeroclub,Pergamino Aeroclub,-33.9212,-60.6499,AR,01,America/Argentina/Buenos_Aires,2016-01-30,SAA
San Antonio de Arredondo,AR,X,ARSAA,SAA,3129S 06431W,Comodoro Pierrestegui Airport,Comodoro Pierrestegui Airport,-31.2969,-57.9966,AR,08,America/Argentina/Cordoba,2016-01-30,SAA
San Antonio de Arredondo,AR,X,ARSAA,SAA,3129S 06431W,Gualeguaychu Aerodrome,Gualeguaychu Aerodrome,-33.0103,-58.6131,AR,08,America/Argentina/Cordoba,2016-01-30,SAA
San Antonio de Arredondo,AR,X,ARSAA,SAA,3129S 06431W,Junín Airport,Junin Airport,-34.5459,-60.9306,AR,01,America/Argentina/Buenos_Aires,2016-01-30,SAA
San Antonio de Arredondo,AR,X,ARSAA,SAA,3129S 06431W,Parana Airport,Parana Airport,-31.7948,-60.4804,AR,08,America/Argentina/Cordoba,2016-01-30,SAA
San Antonio de Arredondo,AR,X,ARSAA,SAA,3129S 06431W,Villaguay Aerodrome,Villaguay Aerodrome,-31.8500,-59.0833,AR,08,America/Argentina/Cordoba,2016-01-30,SAA
San Antonio de Arredondo,AR,X,ARSAA,SAA,3129S 06431W,Sauce Viejo Airport,Sauce Viejo Airport,-31.7117,-60.8117,AR,21,America/Argentina/Cordoba,2017-09-22,SAA
San Antonio de Arredondo,AR,X,ARSAA,SAA,3129S 06431W,Martín García Island Airport,Martin Garcia Island Airport,-34.1811,-58.2473,AR,01,America/Argentina/Buenos_Aires,2016-01-30,SAA
San Antonio de Arredondo,AR,X,ARSAA,SAA,3129S 06431W,Mazaruca Airport,Mazaruca Airport,-33.5914,-59.2639,AR,08,America/Argentina/Cordoba,2016-01-30,SAA
San Antonio de Arredondo,AR,X,ARSAA,SAA,3129S 06431W,San Antonio de Areco Airport,San Antonio de Areco Airport,-34.2112,-59.3912,AR,01,America/Argentina/Buenos_Aires,2016-01-30,SAA
San Antonio Este,AR,R,ARSAE,SAE,4048S 06444W,Buenos Aires - Ministro Pistarini International Airport,Buenos Aires - Ministro Pistarini International Airport,-34.8222,-58.5358,AR,01,America/Argentina/Buenos_Aires,2017-09-21,SAE
San Antonio Este,AR,R,ARSAE,SAE,4048S 06444W,Las Flores Airport,Las Flores Airport,-36.0665,-59.1045,AR,01,America/Argentina/Buenos_Aires,2016-01-30,SAE
San Antonio Este,AR,R,ARSAE,SAE,4048S 06444W,General Acha Airport,General Acha Airport,-37.4002,-64.6115,AR,11,America/Argentina/Salta,2016-01-30,SAE
San Antonio Este,AR,R,ARSAE,SAE,4048S 06444W,Ñanco Lauquen Airport,Nanco Lauquen Airport,-35.9722,-62.7730,AR,01,America/Argentina/Buenos_Aires,2016-01-30,SAE
Santa Ana,AR,N,ARSAN,SAN,2720S 05535W,Coronel Felipe Varela International Airport,Coronel Felipe Varela International Airport,-28.5932,-65.7509,AR,02,America/Argentina/Catamarca,2016-10-22,SAN
Santa Ana,AR,N,ARSAN,SAN,2720S 05535W,Vicecomodoro Ángel de la Paz Aragonés Airport,Vicecomodoro Angel de la Paz Aragones Airport,-27.7656,-64.3101,AR,22,America/Argentina/Cordoba,2016-10-22,SAN
Santa Ana,AR,N,ARSAN,SAN,2720S 05535W,Tinogasta Airport,Tinogasta Airport,-28.0377,-67.5803,AR,02,America/Argentina/Catamarca,2016-01-30,SAN
Santa Ana,AR,N,ARSAN,SAN,2720S 05535W,Capitán Vicente Almandos Almonacid Airport,Capitan Vicente Almandos Almonacid Airport,-29.3816,-66.7958,AR,12,America/Argentina/La_Rioja,2020-04-05,SAN
Santa Ana,AR,N,ARSAN,SAN,2720S 05535W,Teniente General Benjamín Matienzo International Airport,Teniente General Benjamin Matienzo International Airport,-26.8409,-65.1049,AR,24,America/Argentina/Tucuman,2016-01-30,SAN
Santa Ana,AR,N,ARSAN,SAN,2720S 05535W,Domingo Faustino Sarmiento Airport,Domingo Faustino Sarmiento Airport,-31.5715,-68.4182,AR,18,America/Argentina/San_Juan,2020-04-05,SAN
Santa Ana,AR,N,ARSAN,SAN,2720S 05535W,Ceres Aerodrome,Ceres Aerodrome,-29.8734,-61.9292,AR,21,America/Argentina/Cordoba,2020-04-05,SAN
Santa Ana,AR,N,ARSAN,SAN,2720S 05535W,Las Termas Airport,Las Termas Airport,-27.4960,-64.9350,AR,22,America/Argentina/Cordoba,2020-04-05,SAN
San Antonio de Areco,AR,B,ARSAO,SAO,3415S 05928W,Rio Tercero,Rio Tercero,-32.1667,-64.0833,AR,05,America/Argentina/Cordoba,2016-01-30,SAO
San Antonio de Areco,AR,B,ARSAO,SAO,3415S 05928W,Marcos Juárez Airport,Marcos Juarez Airport,-32.6833,-62.1500,AR,05,America/Argentina/Cordoba,2016-01-30,SAO
San Antonio de Areco,AR,B,ARSAO,SAO,3415S 05928W,Rio Cuarto Airport,Rio Cuarto Airport,-33.0851,-64.2613,AR,05,America/Argentina/Cordoba,2016-01-30,SAO
San Antonio de Areco,AR,B,ARSAO,SAO,3415S 05928W,Villa Dolores Aerodrome,Villa Dolores Aerodrome,-31.9452,-65.1463,AR,05,America/Argentina/Cordoba,2016-01-30,SAO
San Antonio de Areco,AR,B,ARSAO,SAO,3415S 05928W,Laboulaye Airport,Laboulaye Airport,-34.1354,-63.3623,AR,05,America/Argentina/Cordoba,2016-01-30,SAO
San Antonio de Areco,AR,B,ARSAO,SAO,3415S 05928W,Villa Reynolds Airport,Villa Reynolds Airport,-33.7251,-65.3781,AR,19,America/Argentina/San_Luis,2016-01-30,SAO
San Antonio de Areco,AR,B,ARSAO,SAO,3415S 05928W,Brigadier Mayor César Raúl Ojeda Airport,Brigadier Mayor Cesar Raul Ojeda Airport,-33.2732,-66.3564,AR,19,America/Argentina/San_Luis,2020-04-05,SAO
San Antonio de Areco,AR,B,ARSAO,SAO,3415S 05928W,Valle del Conlara Airport,Valle del Conlara Airport,-32.3838,-65.1856,AR,19,America/Argentina/San_Luis,2015-06-07,SAO
Sarandi,AR,B,ARSAR,SAR,3440S 05820W,Corrientes International Airport,Corrientes International Airport,-27.4455,-58.7619,AR,06,America/Argentina/Cordoba,2016-11-29,SAR
Sarandi,AR,B,ARSAR,SAR,3440S 05820W,Resistencia International Airport,Resistencia International Airport,-27.4500,-59.0561,AR,03,America/Argentina/Cordoba,2016-11-29,SAR
Sarandi,AR,B,ARSAR,SAR,3440S 05820W,Formosa Aerodrome,Formosa Aerodrome,-26.2127,-58.2281,AR,09,America/Argentina/Cordoba,2016-01-30,SAR
Sarandi,AR,B,ARSAR,SAR,3440S 05820W,Cataratas del Iguazú International Airport,Cataratas del Iguazu International Airport,-25.7373,-54.4734,AR,14,America/Argentina/Cordoba,2015-08-29,SAR
Sarandi,AR,B,ARSAR,SAR,3440S 05820W,Paso de los Libres Airport,Paso de los Libres Airport,-29.6894,-57.1521,AR,06,America/Argentina/Cordoba,2016-01-30,SAR
Sarandi,AR,B,ARSAR,SAR,3440S 05820W,Monte Caseros Aerodrome,Monte Caseros Aerodrome,-30.2719,-57.6402,AR,06,America/Argentina/Cordoba,2016-01-30,SAR
Sarandi,AR,B,ARSAR,SAR,3440S 05820W,Posadas Airport,Posadas Airport,-27.3858,-55.9707,AR,14,America/Argentina/Cordoba,2015-04-22,SAR
Sarandi,AR,B,ARSAR,SAR,3440S 05820W,Presidencia Roque Sáenz Peña Airport,Presidencia Roque Saenz Pena Airport,-26.7565,-60.4931,AR,03,America/Argentina/Cordoba,2016-10-30,SAR
Sarandi,AR,B,ARSAR,SAR,3440S 05820W,Ituzaingó Yacireta Airport,Ituzaingo Yacireta Airport,-27.5257,-56.6337,AR,06,America/Argentina/Cordoba,2016-01-30,SAR
Sarandi,AR,B,ARSAR,SAR,3440S 05820W,Resistencia Aeroclub,Resistencia Aeroclub,-27.6312,-59.1805,AR,03,America/Argentina/Cordoba,2016-01-30,SAR
Sarandi,AR,B,ARSAR,SAR,3440S 05820W,Villa Angela Airport,Villa Angela Airport,-27.5946,-60.6837,AR,03,America/Argentina/Cordoba,2016-01-30,SAR
San Martin,AR,B,ARSAT,SAT,3434S 05831W,Clorinda Airport,Clorinda Airport,-25.3000,-57.7333,AR,09,America/Argentina/Cordoba,2020-04-05,SAT
San Martin,AR,B,ARSAT,SAT,3434S 05831W,Reconquista Airport,Reconquista Airport,-29.2103,-59.6800,AR,21,America/Argentina/Cordoba,2016-01-30,SAT
San Martin,AR,B,ARSAT,SAT,3434S 05831W,Curuzú Cuatiá Airport,Curuzu Cuatia Airport,-29.7706,-57.9789,AR,06,America/Argentina/Cordoba,2016-01-30,SAT
San Martin,AR,B,ARSAT,SAT,3434S 05831W,Goya Airport,Goya Airport,-29.1058,-59.2189,AR,06,America/Argentina/Cordoba,2016-01-30,SAT
San Martin,AR,B,ARSAT,SAT,3434S 05831W,Eldorado Airport,Eldorado Airport,-26.3975,-54.5747,AR,14,America/Argentina/Cordoba,2016-01-30,SAT
San Martin,AR,B,ARSAT,SAT,3434S 05831W,Mercedes Airport,Mercedes Airport,-29.2214,-58.0878,AR,06,America/Argentina/Cordoba,2016-01-30,SAT
San Martin,AR,B,ARSAT,SAT,3434S 05831W,Oberá Airport,Obera Airport,-27.5177,-55.1244,AR,14,America/Argentina/Cordoba,2016-01-30,SAT
Santiago del Estero,AR,G,ARSDE,SDE,,Santiago del Estero,Santiago del Estero,-27.7951,-64.2615,AR,22,America/Argentina/Cordoba,2019-09-05,SDE
Santiago del Estero,AR,G,ARSDE,SDE,,Vicecomodoro Ángel de la Paz Aragonés Airport,Vicecomodoro Angel de la Paz Aragones Airport,-27.7656,-64.3101,AR,22,America/Argentina/Cordoba,2016-10-22,SDE
San Fernando,AR,B,ARSFE,SFE,,"Suipacha y 1 de Mayo, SFE","Suipacha y 1 de Mayo, SFE",-31.6393,-60.7085,AR,21,America/Argentina/Cordoba,2016-03-17,SFE
San Fernando,AR,B,ARSFE,SFE,,"Pellegrini y 1 de Mayo, SFE","Pellegrini y 1 de Mayo, SFE",-31.6348,-60.7072,AR,21,America/Argentina/Cordoba,2016-03-17,SFE
San Fernando,AR,B,ARSFE,SFE,,"2 Arco Puente Carretero, SFE","2 Arco Puente Carretero, SFE",-31.6666,-60.7458,AR,21,America/Argentina/Cordoba,2016-03-17,SFE
Santa Fe,AR,S,ARSFN,SFN,3136S 06041W,Santa Fe,Santa Fe,-31.6488,-60.7087,AR,21,America/Argentina/Cordoba,2019-03-21,SFN
Santa Fe,AR,S,ARSFN,SFN,3136S 06041W,Sauce Viejo Airport,Sauce Viejo Airport,-31.7117,-60.8117,AR,21,America/Argentina/Cordoba,2017-09-22,SFN
Sierra Grande,AR,R,ARSGV,SGV,,Sierra Grande,Sierra Grande,-41.6060,-65.3557,AR,16,America/Argentina/Salta,2016-01-30,SGV
Sierra Grande,AR,R,ARSGV,SGV,,Sierra Grande Airport,Sierra Grande Airport,-41.5917,-65.3394,AR,16,America/Argentina/Salta,2016-01-30,SGV
Salta,AR,A,ARSLA,SLA,,Salta,Salta,-24.7859,-65.4117,AR,17,America/Argentina/Salta,2019-09-05,SLA
Salta,AR,A,ARSLA,SLA,,Martín Miguel de Güemes International Airport,Martin Miguel de Gueemes International Airport,-24.8560,-65.4862,AR,17,America/Argentina/Salta,2017-09-21,SLA
Santa Teresita,AR,B,ARSST,SST,,Santa Teresita,Santa Teresita,-36.5413,-56.7011,AR,01,America/Argentina/Buenos_Aires,2016-01-30,SST
Sáenz Peña,AR,B,ARSZQ,SZQ,3436S 05832W,Presidencia Roque Sáenz Peña,Presidencia Roque Saenz Pena,-26.7852,-60.4388,AR,03,America/Argentina/Cordoba,2016-10-30,SZQ
Sáenz Peña,AR,B,ARSZQ,SZQ,3436S 05832W,Saenz Peña Airport (historical),Saenz Pena Airport (historical),-26.8158,-60.4483,AR,03,America/Argentina/Cordoba,2016-10-30,SZQ
Tandil,AR,B,ARTDL,TDL,,Tandil,Tandil,-37.3217,-59.1332,AR,01,America/Argentina/Buenos_Aires,2015-04-22,TDL
Tandil,AR,B,ARTDL,TDL,,Tandil Aerodrome,Tandil Aerodrome,-37.2374,-59.2279,AR,01,America/Argentina/Buenos_Aires,2016-01-30,TDL
Tartagal,AR,A,ARTTG,TTG,,Tartagal,Tartagal,-22.5164,-63.8013,AR,17,America/Argentina/Salta,2016-01-30,TTG
Tartagal,AR,A,ARTTG,TTG,,Tartagal Aerodrome,Tartagal Aerodrome,-22.6192,-63.7932,AR,17,America/Argentina/Salta,2020-04-05,TTG
Tucumán,AR,T,ARTUC,TUC,2649S 06513W,San Miguel de Tucumán,San Miguel de Tucuman,-26.8241,-65.2226,AR,24,America/Argentina/Tucuman,2019-09-05,TUC
Tucumán,AR,T,ARTUC,TUC,2649S 06513W,Teniente General Benjamín Matienzo International Airport,Teniente General Benjamin Matienzo International Airport,-26.8409,-65.1049,AR,24,America/Argentina/Tucuman,2016-01-30,TUC
San Juan,AR,J,ARUAQ,UAQ,,San Juan,San Juan,-31.5375,-68.5364,AR,18,America/Argentina/San_Juan,2019-09-05,UAQ
San Juan,AR,J,ARUAQ,UAQ,,Domingo Faustino Sarmiento Airport,Domingo Faustino Sarmiento Airport,-31.5715,-68.4182,AR,18,America/Argentina/San_Juan,2020-04-05,UAQ
San Julian,AR,Z,ARULA,ULA,4918S 06743W,San Julián,San Julian,-49.3055,-67.7274,AR,20,America/Argentina/Rio_Gallegos,2016-01-30,ULA
San Julian,AR,Z,ARULA,ULA,4918S 06743W,Capitán José Daniel Vazquez Airport,Capitan Jose Daniel Vazquez Airport,-49.3068,-67.8026,AR,20,America/Argentina/Rio_Gallegos,2016-01-30,ULA
Ushuaia,AR,V,ARUSH,USH,5448S 06818W,Ushuaia,Ushuaia,-54.8108,-68.3159,AR,23,America/Argentina/Ushuaia,2019-09-05,USH
Ushuaia,AR,V,ARUSH,USH,5448S 06818W,Ushuaia Aerodrome,Ushuaia Aerodrome,-54.8433,-68.2957,AR,23,America/Argentina/Ushuaia,2016-01-30,USH
Curuzú Cuatiá,AR,W,ARUZU,UZU,2947S 05803W,Curuzú Cuatiá,Curuzu Cuatia,-29.7917,-58.0546,AR,06,America/Argentina/Cordoba,2016-01-30,UZU
Curuzú Cuatiá,AR,W,ARUZU,UZU,2947S 05803W,Curuzú Cuatiá Airport,Curuzu Cuatia Airport,-29.7706,-57.9789,AR,06,America/Argentina/Cordoba,2016-01-30,UZU
Valcheta,AR,R,ARVCF,VCF,,Valcheta,Valcheta,-40.6799,-66.1628,AR,16,America/Argentina/Salta,2019-03-24,VCF
Valcheta,AR,R,ARVCF,VCF,,Valcheta Airport,Valcheta Airport,-40.7000,-66.1500,AR,16,America/Argentina/Salta,2016-01-30,VCF
Viedma,AR,R,ARVDM,VDM,,Viedma,Viedma,-40.8135,-62.9967,AR,16,America/Argentina/Salta,2016-01-30,VDM
Viedma,AR,R,ARVDM,VDM,,Gobernador Edgardo Castello Airport,Gobernador Edgardo Castello Airport,-40.8692,-63.0004,AR,16,America/Argentina/Salta,2016-01-30,VDM
Villa Dolores,AR,X,ARVDR,VDR,,Villa Dolores,Villa Dolores,-31.9459,-65.1896,AR,05,America/Argentina/Cordoba,2016-01-30,VDR
Villa Dolores,AR,X,ARVDR,VDR,,Villa Dolores Aerodrome,Villa Dolores Aerodrome,-31.9452,-65.1463,AR,05,America/Argentina/Cordoba,2016-01-30,VDR
General Villegas,AR,B,ARVGS,VGS,,General Villegas,General Villegas,-35.0329,-63.0125,AR,01,America/Argentina/Buenos_Aires,2016-11-29,VGS
General Villegas,AR,B,ARVGS,VGS,,General Villegas Airport,General Villegas Airport,-35.0000,-63.0000,AR,01,America/Argentina/Buenos_Aires,2016-01-30,VGS
Villa Gesell,AR,B,ARVLG,VLG,,Villa Gesell,Villa Gesell,-37.2639,-56.9730,AR,01,America/Argentina/Buenos_Aires,2016-01-30,VLG
Villa Gesell,AR,B,ARVLG,VLG,,Villa Gesell Airport,Villa Gesell Airport,-37.2354,-57.0292,AR,01,America/Argentina/Buenos_Aires,2016-01-30,VLG
Villa Mercedes,AR,D,ARVME,VME,3340S 06528W,Villa Reynolds Airport,Villa Reynolds Airport,-33.7251,-65.3781,AR,19,America/Argentina/San_Luis,2016-01-30,VME
Pichanal,AR,A,ARXMV,XMV,,Pichanal,Pichanal,-23.3164,-64.2183,AR,17,America/Argentina/Salta,2016-01-30,XMV
Ledesma,AR,Y,ARXMX,XMX,,Ledesma,Ledesma,-23.8333,-64.7500,AR,10,America/Argentina/Jujuy,2016-01-30,XMX
Mosconi,AR,A,ARXOS,XOS,,General Mosconi,General Mosconi,-22.5959,-63.8126,AR,17,America/Argentina/Salta,2020-04-05,XOS
San Pedro,AR,Y,ARXPD,XPD,,San Pedro de Jujuy,San Pedro de Jujuy,-24.2313,-64.8661,AR,10,America/Argentina/Jujuy,2020-04-05,XPD
San Pedro,AR,Y,ARXPD,XPD,,San Pedro de Jujuy Airport,San Pedro de Jujuy Airport,-24.2034,-64.8351,AR,02,America/Argentina/Jujuy,2020-04-05,XPD
Embarcacíon,AR,A,ARZAI,ZAI,2313S 06406W,Embarcación,Embarcacion,-23.2100,-64.0996,AR,17,America/Argentina/Salta,2015-05-23,ZAI
Embarcacíon,AR,A,ARZAI,ZAI,2313S 06406W,Embarcacion Airport,Embarcacion Airport,-23.2497,-64.0863,AR,17,America/Argentina/Salta,2015-05-23,ZAI
Fitiuta,AS,,ASFTI,FTI,,Fitiuta,Fitiuta,-14.2167,-169.4249,AS,020,Pacific/Pago_Pago,2015-05-02,FTI
Fitiuta,AS,,ASFTI,FTI,,Fitiuta Airport,Fitiuta Airport,-14.2158,-169.4238,AS,020,Pacific/Pago_Pago,2015-05-02,FTI
Ofu,AS,,ASOFU,OFU,,Ofu,Ofu,-14.1753,-169.6775,AS,020,Pacific/Pago_Pago,2012-02-03,OFU
Ofu,AS,,ASOFU,OFU,,Ofu Airport,Ofu Airport,-14.1848,-169.6707,AS,020,Pacific/Pago_Pago,2014-10-08,OFU
Pago Pago,AS,,ASPPG,PPG,1416N 17042W,Pago Pago,Pago Pago,-14.2781,-170.7025,AS,010,Pacific/Pago_Pago,2019-09-05,PPG
Pago Pago,AS,,ASPPG,PPG,1416N 17042W,Pago Pago International Airport,Pago Pago International Airport,-14.3310,-170.7105,AS,010,Pacific/Pago_Pago,2013-01-30,PPG
Tau,AS,,ASTAV,TAV,,Tau Airport,Tau Airport,-14.2292,-169.5111,AS,020,Pacific/Pago_Pago,2017-10-14,TAV
Tau,AS,,ASTAV,TAV,,Ta`ū,Ta`u,-14.2336,-169.5144,AS,020,Pacific/Pago_Pago,2017-08-16,TAV
Sankt Anton,AT,7,ATANT,ANT,4707N 01016E,St Anton am Arlberg,St Anton am Arlberg,47.1275,10.2637,AT,07,Europe/Vienna,2018-07-29,ANT
Sankt Anton,AT,7,ATANT,ANT,4707N 01016E,St Anton Heliport,St Anton Heliport,47.1358,10.2784,AT,07,Europe/Vienna,2018-07-29,ANT
Gloggnitz,AT,3,ATGGZ,GGZ,4740N 01556E,Graz Hauptbahnhof,Graz Hauptbahnhof,47.0732,15.4164,AT,06,Europe/Vienna,2015-12-05,GGZ
Graz,AT,6,ATGRZ,GRZ,4704N 01527E,Graz,Graz,47.0667,15.4500,AT,06,Europe/Vienna,2019-09-05,GRZ
Graz,AT,6,ATGRZ,GRZ,4704N 01527E,Graz Airport,Graz Airport,46.9911,15.4396,AT,06,Europe/Vienna,2013-07-28,GRZ
Hohenems,AT,8,ATHOH,HOH,4722N 00941E,Hohenems,Hohenems,47.3667,9.6831,AT,08,Europe/Vienna,2018-07-28,HOH
Hohenems,AT,8,ATHOH,HOH,4722N 00941E,Dornbirn,Dornbirn,47.4143,9.7419,AT,08,Europe/Vienna,2019-09-05,HOH
Hohenems,AT,8,ATHOH,HOH,4722N 00941E,Hohenems-Dornbirn Airport,Hohenems-Dornbirn Airport,47.3833,9.6988,AT,08,Europe/Vienna,2018-07-29,HOH
Innsbruck,AT,7,ATINN,INN,4716N 01124E,Innsbruck,Innsbruck,47.2627,11.3945,AT,07,Europe/Vienna,2019-09-05,INN
Innsbruck,AT,7,ATINN,INN,4716N 01124E,Innsbruck Airport,Innsbruck Airport,47.2602,11.3440,AT,07,Europe/Vienna,2018-07-29,INN
Klagenfurt,AT,2,ATKLU,KLU,4637N 01418E,Klagenfurt Airport,Klagenfurt Airport,46.6450,14.3267,AT,02,Europe/Vienna,2015-12-06,KLU
Linz,AT,4,ATLNZ,LNZ,4818N 01418E,Linz,Linz,48.3064,14.2861,AT,04,Europe/Vienna,2019-09-05,LNZ
Linz,AT,4,ATLNZ,LNZ,4818N 01418E,Linz Airport,Linz Airport,48.2332,14.1875,AT,04,Europe/Vienna,2018-07-29,LNZ
Loimersdorf,AT,,ATLOI,LOI,4810N 01650E,Hohenems-Dornbirn Airport,Hohenems-Dornbirn Airport,47.3833,9.6988,AT,08,Europe/Vienna,2018-07-29,LOI
Loimersdorf,AT,,ATLOI,LOI,4810N 01650E,Sankt Johann Airport,Sankt Johann Airport,47.5195,12.4489,AT,07,Europe/Vienna,2014-05-18,LOI
Loimersdorf,AT,,ATLOI,LOI,4810N 01650E,Kufstein-Langkampfen Airport,Kufstein-Langkampfen Airport,47.5643,12.1263,AT,07,Europe/Vienna,2014-05-10,LOI
Loimersdorf,AT,,ATLOI,LOI,4810N 01650E,Reutte-Höfen Airport,Reutte-Hoefen Airport,47.4706,10.6899,AT,07,Europe/Vienna,2014-05-12,LOI
Losenstein,AT,4,ATLOS,LOS,4755N 01426E,Mauterndorf Airport,Mauterndorf Airport,47.1320,13.6958,AT,05,Europe/Vienna,2014-05-04,LOS
Micheldorf am Kienberge,AT,4,ATMAK,MAK,4751N 01408E,MAK-Austrian Museum of applied arts,MAK-Austrian Museum of applied arts,48.2078,16.3814,AT,09,Europe/Vienna,2013-08-12,MAK
Wörgl,AT,,ATQXZ,QXZ,4729N 01204E,Wörgl,Woergl,47.4891,12.0617,AT,07,Europe/Vienna,2018-07-28,QXZ
Wörgl,AT,,ATQXZ,QXZ,4729N 01204E,Wörgl Bus Station,Woergl Bus Station,47.4909,12.0609,AT,07,Europe/Vienna,2018-07-29,QXZ
Salzburg,AT,5,ATSZG,SZG,4748N 01302E,Salzburg Airport,Salzburg Airport,47.7933,13.0043,AT,05,Europe/Vienna,2018-07-29,SZG
Wien,AT,9,ATVIE,VIE,4812N 01622E,Vienna International Airport,Vienna International Airport,48.1221,16.5575,AT,03,Europe/Vienna,2017-06-16,VIE
Wien,AT,9,ATVIE,VIE,4812N 01622E,Vienna,Vienna,48.2085,16.3721,AT,09,Europe/Vienna,2019-07-30,VIE
Arrabury,AU,QLD,AUAAB,AAB,,Arrabury,Arrabury,-26.7641,141.0285,AU,04,Australia/Brisbane,2016-06-18,AAB
Arrabury,AU,QLD,AUAAB,AAB,,Arrabury Airport,Arrabury Airport,-26.6932,141.0478,AU,04,Australia/Brisbane,2016-06-18,AAB
Beulah,AU,VIC,AUABC,ABC,3556S 14225E,ABC Bore,ABC Bore,-31.6131,138.6962,AU,05,Australia/Adelaide,2014-04-09,ABC
Abingdon,AU,QLD,AUABG,ABG,,Abingdon Downs,Abingdon Downs,-17.6044,143.1808,AU,04,Australia/Brisbane,2019-02-21,ABG
Abingdon,AU,QLD,AUABG,ABG,,Abingdon Airport,Abingdon Airport,-17.6086,143.1839,AU,04,Australia/Brisbane,2015-08-08,ABG
Alpha,AU,QLD,AUABH,ABH,,Alpha,Alpha,-23.6491,146.6398,AU,04,Australia/Brisbane,2019-07-18,ABH
Alpha,AU,QLD,AUABH,ABH,,Alpha Airport,Alpha Airport,-23.6461,146.5840,AU,04,Australia/Brisbane,2011-06-04,ABH
Bamaga,AU,QLD,AUABM,ABM,,Bamaga,Bamaga,-10.8920,142.3893,AU,04,Australia/Brisbane,2019-07-18,ABM
Bamaga,AU,QLD,AUABM,ABM,,Northern Peninsula Airport,Northern Peninsula Airport,-10.9508,142.4590,AU,04,Australia/Brisbane,2018-04-27,ABM
Albury,AU,NSW,AUABX,ABX,3605S 14655E,Albury,Albury,-36.0748,146.9240,AU,02,Australia/Sydney,2019-07-18,ABX
Albury,AU,NSW,AUABX,ABX,3605S 14655E,Albury Airport,Albury Airport,-36.0678,146.9581,AU,02,Australia/Sydney,2011-06-04,ABX
Adelaide,AU,SA,AUADL,ADL,3455S 13835E,Adelaide,Adelaide,-34.9287,138.5986,AU,05,Australia/Adelaide,2020-06-19,ADL
Adelaide,AU,SA,AUADL,ADL,3455S 13835E,Adelaide Airport,Adelaide Airport,-34.9450,138.5306,AU,05,Australia/Adelaide,2014-10-07,ADL
Andamooka,AU,SA,AUADO,ADO,,Andamooka Airport,Andamooka Airport,-30.4383,137.1370,AU,05,Australia/Adelaide,2011-03-17,ADO
Agnew,AU,QLD,AUAGW,AGW,,Agnew Airport,Agnew Airport,-12.1456,142.1490,AU,04,Australia/Brisbane,2013-12-15,AGW
Agnew,AU,QLD,AUAGW,AGW,,Mapoon,Mapoon,-12.1096,141.9022,AU,04,Australia/Brisbane,2014-08-02,AGW
Albany,AU,WA,AUALH,ALH,,Albany,Albany,-35.0269,117.8837,AU,08,Australia/Perth,2019-07-21,ALH
Albany,AU,WA,AUALH,ALH,,Albany Aerodrome,Albany Aerodrome,-34.9458,117.8081,AU,08,Australia/Perth,2013-04-16,ALH
Amata,AU,NT,AUAMT,AMT,,Amata,Amata,-26.1581,131.1483,AU,05,Australia/Adelaide,2019-07-18,AMT
Amata,AU,NT,AUAMT,AMT,,Amata Airport,Amata Airport,-26.0989,131.2038,AU,05,Australia/Adelaide,2018-02-11,AMT
Ammaroo,AU,NT,AUAMX,AMX,,Ammaroo,Ammaroo,-21.7365,135.2563,AU,03,Australia/Darwin,2017-08-19,AMX
Ammaroo,AU,NT,AUAMX,AMX,,Ammaroo Airport,Ammaroo Airport,-21.7375,135.2435,AU,03,Australia/Darwin,2017-08-19,AMX
Angus Downs,AU,NT,AUANZ,ANZ,,Angus Downs Stn,Angus Downs Stn,-25.0833,132.1670,AU,03,Australia/Darwin,2012-05-18,ANZ
Armidale,AU,NSW,AUARM,ARM,,Armidale,Armidale,-30.5012,151.6655,AU,02,Australia/Sydney,2019-07-18,ARM
Armidale,AU,NSW,AUARM,ARM,,Armidale Airport,Armidale Airport,-30.5281,151.6170,AU,02,Australia/Sydney,2019-05-21,ARM
Ararat,AU,VIC,AUARY,ARY,,Ararat,Ararat,-37.2854,142.9273,AU,07,Australia/Melbourne,2019-07-18,ARY
Ararat,AU,VIC,AUARY,ARY,,Ararat Airport,Ararat Airport,-37.3094,142.9890,AU,07,Australia/Melbourne,2011-06-04,ARY
Alice Springs,AU,NT,AUASP,ASP,,Alice Springs,Alice Springs,-23.6975,133.8836,AU,03,Australia/Darwin,2019-07-20,ASP
Alice Springs,AU,NT,AUASP,ASP,,Alice Springs Airport,Alice Springs Airport,-23.8036,133.9004,AU,03,Australia/Darwin,2017-08-18,ASP
Augustus Downs,AU,QLD,AUAUD,AUD,,Augustus Downs,Augustus Downs,-18.5500,139.8667,AU,04,Australia/Brisbane,2017-09-09,AUD
Augustus Downs,AU,QLD,AUAUD,AUD,,Augustus Downs Airport,Augustus Downs Airport,-18.5150,139.8780,AU,04,Australia/Brisbane,2011-06-04,AUD
Aurukun Mission,AU,QLD,AUAUU,AUU,,Aurukun,Aurukun,-13.3558,141.7271,AU,04,Australia/Brisbane,2019-07-18,AUU
Aurukun Mission,AU,QLD,AUAUU,AUU,,Aurukun Airport,Aurukun Airport,-13.3539,141.7210,AU,04,Australia/Brisbane,2013-11-02,AUU
Auvergne,AU,NT,AUAVG,AVG,,Auvergne Station,Auvergne Station,-15.6836,130.0097,AU,03,Australia/Darwin,2019-05-22,AVG
Auvergne,AU,NT,AUAVG,AVG,,Auvergne Airport,Auvergne Airport,-15.6900,130.0090,AU,03,Australia/Darwin,2019-05-22,AVG
Avalon,AU,VIC,AUAVV,AVV,,Avalon Airport,Avalon Airport,-38.0394,144.4694,AU,07,Australia/Melbourne,2017-09-02,AVV
Austral Downs,AU,NT,AUAWP,AWP,,Austral Downs,Austral Downs,-20.5019,137.7737,AU,03,Australia/Darwin,2017-04-29,AWP
Austral Downs,AU,NT,AUAWP,AWP,,Austral Downs Airport,Austral Downs Airport,-20.4930,137.7660,AU,03,Australia/Darwin,2017-04-29,AWP
Aramac,AU,QLD,AUAXC,AXC,,Aramac,Aramac,-22.9683,145.2450,AU,04,Australia/Brisbane,2019-07-18,AXC
Aramac,AU,QLD,AUAXC,AXC,,Aramac Airport,Aramac Airport,-22.9667,145.2420,AU,04,Australia/Brisbane,2011-06-04,AXC
Alexandria,AU,NT,AUAXL,AXL,,Alexandria,Alexandria,-19.0571,136.7068,AU,03,Australia/Darwin,2017-08-25,AXL
Alexandria,AU,NT,AUAXL,AXL,,Alexandria Homestead Airport,Alexandria Homestead Airport,-19.0602,136.7100,AU,03,Australia/Darwin,2011-06-04,AXL
Alroy Downs,AU,NT,AUAYD,AYD,,Alroy Downs,Alroy Downs,-19.2961,136.0713,AU,03,Australia/Darwin,2017-08-17,AYD
Alroy Downs,AU,NT,AUAYD,AYD,,Alroy Downs Airport,Alroy Downs Airport,-19.2908,136.0790,AU,03,Australia/Darwin,2011-06-04,AYD
Anthony Lagoon,AU,NT,AUAYL,AYL,,Anthony Lagoon,Anthony Lagoon,-17.9768,135.5317,AU,03,Australia/Darwin,2017-08-19,AYL
Anthony Lagoon,AU,NT,AUAYL,AYL,,Anthony Lagoon Airport,Anthony Lagoon Airport,-18.0217,135.5420,AU,03,Australia/Darwin,2017-08-19,AYL
Ayers Rock,AU,NT,AUAYQ,AYQ,,Ayers Rock Airport,Ayers Rock Airport,-25.1891,130.9775,AU,03,Australia/Darwin,2013-11-02,AYQ
Ayers Rock,AU,NT,AUAYQ,AYQ,,Uluru,Uluru,-25.3443,131.0328,AU,03,Australia/Darwin,2013-11-02,AYQ
Ayr,AU,QLD,AUAYR,AYR,,Ayr,Ayr,-19.5739,147.4067,AU,04,Australia/Brisbane,2019-07-18,AYR
Ayr,AU,QLD,AUAYR,AYR,,Ayr Airport,Ayr Airport,-19.5844,147.3290,AU,04,Australia/Brisbane,2011-06-04,AYR
Big Bell,AU,WA,AUBBE,BBE,,Big Bell Airport,Big Bell Airport,-27.3286,117.6730,AU,08,Australia/Perth,2012-04-21,BBE
Beelbangera,AU,NSW,AUBBL,BBL,3416S 14606E,Ballera Airport,Ballera Airport,-27.4000,141.8126,AU,04,Australia/Brisbane,2013-09-22,BBL
Beelbangera,AU,NSW,AUBBL,BBL,3416S 14606E,Ballera,Ballera,-27.3905,141.8066,AU,04,Australia/Brisbane,2013-09-22,BBL
Barcaldine,AU,QLD,AUBCI,BCI,,Barcaldine,Barcaldine,-23.5535,145.2854,AU,04,Australia/Brisbane,2019-07-18,BCI
Barcaldine,AU,QLD,AUBCI,BCI,,Barcaldine Airport,Barcaldine Airport,-23.5653,145.3070,AU,04,Australia/Brisbane,2011-06-04,BCI
Bolwarra,AU,QLD,AUBCK,BCK,,Bolwarra,Bolwarra,-17.4000,144.1833,AU,04,Australia/Brisbane,2019-05-22,BCK
Bolwarra,AU,QLD,AUBCK,BCK,,Bolwarra Airport,Bolwarra Airport,-17.3883,144.1690,AU,04,Australia/Brisbane,2019-05-22,BCK
Bickerton Island,AU,NT,AUBCZ,BCZ,,Bickerton Island,Bickerton Island,-13.7553,136.2025,AU,03,Australia/Darwin,2020-06-26,BCZ
Bickerton Island,AU,NT,AUBCZ,BCZ,,Bickerton Island Airport,Bickerton Island Airport,-13.7822,136.2043,AU,03,Australia/Darwin,2014-04-19,BCZ
Bundaberg,AU,QLD,AUBDB,BDB,,Bundaberg,Bundaberg,-24.8662,152.3479,AU,04,Australia/Brisbane,2013-06-25,BDB
Bundaberg,AU,QLD,AUBDB,BDB,,Bundaberg Airport,Bundaberg Airport,-24.9039,152.3190,AU,04,Australia/Brisbane,2011-06-04,BDB
Badu Island,AU,QLD,AUBDD,BDD,,Badu Island,Badu Island,-10.1156,142.1447,AU,04,Australia/Brisbane,2017-07-18,BDD
Badu Island,AU,QLD,AUBDD,BDD,,Badu Island Airport,Badu Island Airport,-10.1500,142.1748,AU,04,Australia/Brisbane,2011-06-04,BDD
Beagle Bay,AU,WA,AUBEE,BEE,,Beagle Bay Airport,Beagle Bay Airport,-17.0162,122.6471,AU,08,Australia/Perth,2017-10-28,BEE
Belmont,AU,NSW,AUBEO,BEO,,Aeropelican Airport,Aeropelican Airport,-33.0667,151.6480,AU,02,Australia/Sydney,2011-06-04,BEO
Bedourie,AU,QLD,AUBEU,BEU,,Bedourie,Bedourie,-24.3637,139.4653,AU,04,Australia/Brisbane,2019-07-18,BEU
Bedourie,AU,QLD,AUBEU,BEU,,Bedourie Airport,Bedourie Airport,-24.3461,139.4600,AU,04,Australia/Brisbane,2011-06-04,BEU
Bloomfield,AU,QLD,AUBFC,BFC,,Bloomfield Airport,Bloomfield Airport,-15.8736,145.3300,AU,04,Australia/Brisbane,2017-10-28,BFC
Broken Hill,AU,NSW,AUBHQ,BHQ,,Broken Hill,Broken Hill,-31.9652,141.4512,AU,02,Australia/Broken_Hill,2019-07-18,BHQ
Broken Hill,AU,NSW,AUBHQ,BHQ,,Broken Hill Airport,Broken Hill Airport,-32.0014,141.4720,AU,02,Australia/Broken_Hill,2011-06-04,BHQ
Bathurst,AU,NSW,AUBHS,BHS,,Bathurst,Bathurst,-33.4166,149.5806,AU,02,Australia/Sydney,2019-07-20,BHS
Bathurst,AU,NSW,AUBHS,BHS,,Bathurst Airport,Bathurst Airport,-33.4080,149.6514,AU,02,Australia/Sydney,2014-04-16,BHS
Brighton Downs,AU,QLD,AUBHT,BHT,,Brighton Downs,Brighton Downs,-23.3606,141.5624,AU,04,Australia/Brisbane,2017-09-27,BHT
Brighton Downs,AU,QLD,AUBHT,BHT,,Brighton Downs Airport,Brighton Downs Airport,-23.3654,141.5628,AU,04,Australia/Brisbane,2017-09-27,BHT
Billiluna,AU,WA,AUBIW,BIW,,Mindibungu,Mindibungu,-19.5558,127.6613,AU,08,Australia/Perth,2017-06-30,BIW
Billiluna,AU,WA,AUBIW,BIW,,Billiluna,Billiluna,-19.5640,127.6710,AU,08,Australia/Perth,2017-10-28,BIW
Blackall,AU,QLD,AUBKQ,BKQ,,Blackall,Blackall,-24.4233,145.4630,AU,04,Australia/Brisbane,2019-07-18,BKQ
Blackall,AU,QLD,AUBKQ,BKQ,,Blackall Airport,Blackall Airport,-24.4298,145.4332,AU,04,Australia/Brisbane,2016-03-07,BKQ
Benalla,AU,VIC,AUBLN,BLN,,Benalla,Benalla,-36.5511,145.9843,AU,07,Australia/Melbourne,2019-07-18,BLN
Benalla,AU,VIC,AUBLN,BLN,,Benalla Airport,Benalla Airport,-36.5519,146.0070,AU,07,Australia/Melbourne,2011-06-04,BLN
Bollon,AU,QLD,AUBLS,BLS,,Bollon,Bollon,-28.0333,147.4833,AU,04,Australia/Brisbane,2019-07-18,BLS
Bollon,AU,QLD,AUBLS,BLS,,Bollon Airport,Bollon Airport,-28.0583,147.4830,AU,04,Australia/Brisbane,2011-06-04,BLS
Blackwater,AU,QLD,AUBLT,BLT,,Blackwater,Blackwater,-23.5835,148.8791,AU,04,Australia/Brisbane,2019-07-18,BLT
Blackwater,AU,QLD,AUBLT,BLT,,Blackwater Airport,Blackwater Airport,-23.6031,148.8070,AU,04,Australia/Brisbane,2011-06-04,BLT
Broome,AU,WA,AUBME,BME,,Broome,Broome,-17.9554,122.2392,AU,08,Australia/Perth,2019-07-18,BME
Broome,AU,WA,AUBME,BME,,Broome International Airport,Broome International Airport,-17.9488,122.2272,AU,08,Australia/Perth,2014-08-26,BME
Brampton,AU,QLD,AUBMP,BMP,,Brampton Island,Brampton Island,-20.8079,149.2734,AU,04,Australia/Brisbane,2018-10-10,BMP
Brampton,AU,QLD,AUBMP,BMP,,Brampton Island Airport,Brampton Island Airport,-20.8050,149.2800,AU,04,Australia/Brisbane,2017-06-14,BMP
Brisbane,AU,QLD,AUBNE,BNE,2728S 15301E,Brisbane,Brisbane,-27.4679,153.0281,AU,04,Australia/Brisbane,2019-09-05,BNE
Brisbane,AU,QLD,AUBNE,BNE,2728S 15301E,Brisbane Airport,Brisbane Airport,-27.3842,153.1175,AU,04,Australia/Brisbane,2011-06-04,BNE
Ballina,AU,NSW,AUBNK,BNK,,Ballina,Ballina,-28.8641,153.5654,AU,02,Australia/Sydney,2019-07-18,BNK
Ballina,AU,NSW,AUBNK,BNK,,Ballina Byron Gateway Airport,Ballina Byron Gateway Airport,-28.8339,153.5620,AU,02,Australia/Sydney,2014-04-15,BNK
Borroloola,AU,NT,AUBOX,BOX,,Borroloola,Borroloola,-16.0697,136.3080,AU,03,Australia/Darwin,2019-07-18,BOX
Borroloola,AU,NT,AUBOX,BOX,,Borroloola Airport,Borroloola Airport,-16.0753,136.3020,AU,03,Australia/Darwin,2011-06-04,BOX
Boulia,AU,QLD,AUBQL,BQL,,Boulia,Boulia,-22.9114,139.9093,AU,04,Australia/Brisbane,2019-07-18,BQL
Boulia,AU,QLD,AUBQL,BQL,,Boulia Airport,Boulia Airport,-22.9133,139.9000,AU,04,Australia/Brisbane,2011-06-04,BQL
Balgo Hills,AU,WA,AUBQW,BQW,,Balgo Hill,Balgo Hill,-20.1429,127.9840,AU,08,Australia/Perth,2013-05-08,BQW
Balgo Hills,AU,WA,AUBQW,BQW,,Balgo Hill Airport,Balgo Hill Airport,-20.1491,127.9751,AU,08,Australia/Perth,2013-05-08,BQW
Bourke,AU,NSW,AUBRK,BRK,,Bourke,Bourke,-30.0901,145.9365,AU,02,Australia/Sydney,2020-01-17,BRK
Bourke,AU,NSW,AUBRK,BRK,,Bourke Airport,Bourke Airport,-30.0392,145.9520,AU,02,Australia/Sydney,2020-01-17,BRK
Bathurst Island,AU,NT,AUBRT,BRT,,Bathurst Island,Bathurst Island,-11.7356,130.4345,AU,03,Australia/Darwin,2016-11-27,BRT
Bathurst Island,AU,NT,AUBRT,BRT,,Bathurst Island Airport,Bathurst Island Airport,-11.7682,130.6178,AU,03,Australia/Darwin,2013-10-21,BRT
Bairnsdale,AU,VIC,AUBSJ,BSJ,,Bairnsdale,Bairnsdale,-37.8229,147.6104,AU,07,Australia/Melbourne,2019-09-07,BSJ
Bairnsdale,AU,VIC,AUBSJ,BSJ,,Bairnsdale Airport,Bairnsdale Airport,-37.8875,147.5680,AU,07,Australia/Melbourne,2011-06-04,BSJ
Brunette Downs,AU,NT,AUBTD,BTD,,Brunette Downs,Brunette Downs,-18.6395,135.9482,AU,03,Australia/Darwin,2017-09-05,BTD
Betoota,AU,QLD,AUBTX,BTX,,Betoota,Betoota,-25.6971,140.7465,AU,04,Australia/Brisbane,2013-11-09,BTX
Betoota,AU,QLD,AUBTX,BTX,,Betoota Airport,Betoota Airport,-25.6417,140.7830,AU,04,Australia/Brisbane,2011-06-04,BTX
Burketown,AU,QLD,AUBUC,BUC,1744S 13932E,Burketown,Burketown,-17.7411,139.5477,AU,04,Australia/Brisbane,2019-07-18,BUC
Burketown,AU,QLD,AUBUC,BUC,1744S 13932E,Burketown Airport,Burketown Airport,-17.7486,139.5340,AU,04,Australia/Brisbane,2011-06-04,BUC
Bunbury,AU,WA,AUBUY,BUY,,Bunbury,Bunbury,-33.3271,115.6414,AU,08,Australia/Perth,2019-07-20,BUY
Bunbury,AU,WA,AUBUY,BUY,,Bunbury Airport,Bunbury Airport,-33.3783,115.6770,AU,08,Australia/Perth,2011-07-22,BUY
Birdsville,AU,QLD,AUBVI,BVI,,Birdsville,Birdsville,-25.8980,139.3517,AU,04,Australia/Brisbane,2019-07-18,BVI
Birdsville,AU,QLD,AUBVI,BVI,,Birdsville Airport,Birdsville Airport,-25.8975,139.3480,AU,04,Australia/Brisbane,2011-06-04,BVI
Batavia Downs,AU,QLD,AUBVW,BVW,,Batavia Downs Airport,Batavia Downs Airport,-12.6592,142.6750,AU,04,Australia/Brisbane,2017-08-04,BVW
Batavia Downs,AU,QLD,AUBVW,BVW,,Batavia Downs,Batavia Downs,-12.6667,142.6667,AU,04,Australia/Brisbane,2017-08-04,BVW
Beverley Springs,AU,WA,AUBVZ,BVZ,,Beverley Springs Airport,Beverley Springs Airport,-16.7333,125.4330,AU,08,Australia/Perth,2011-06-04,BVZ
Barrow Island,AU,WA,AUBWB,BWB,,Barrow Island,Barrow Island,-20.7799,115.4031,AU,08,Australia/Perth,2017-07-18,BWB
Barrow Island,AU,WA,AUBWB,BWB,,Barrow Island Airport,Barrow Island Airport,-20.8644,115.4060,AU,08,Australia/Perth,2011-06-04,BWB
Brewarrina,AU,NSW,AUBWQ,BWQ,,Brewarrina,Brewarrina,-29.9607,146.8599,AU,02,Australia/Sydney,2019-07-18,BWQ
Brewarrina,AU,NSW,AUBWQ,BWQ,,Brewarrina Airport,Brewarrina Airport,-29.9739,146.8170,AU,02,Australia/Sydney,2011-06-04,BWQ
Burnie,AU,TAS,AUBWT,BWT,,Burnie,Burnie,-41.0558,145.9038,AU,06,Australia/Hobart,2019-07-21,BWT
Burnie,AU,TAS,AUBWT,BWT,,Wynyard Airport,Wynyard Airport,-40.9989,145.7310,AU,06,Australia/Hobart,2011-06-04,BWT
Bankstown,AU,NSW,AUBWU,BWU,,Bankstown,Bankstown,-33.9167,151.0333,AU,02,Australia/Sydney,2019-07-18,BWU
Bankstown,AU,NSW,AUBWU,BWU,,Bankstown Airport Aws,Bankstown Airport Aws,-33.9244,150.9883,AU,02,Australia/Sydney,2019-05-21,BWU
Bowen Hills,AU,QLD,AUBWW,BWW,2726S 15302E,Toowoomba Wellcamp Airport,Toowoomba Wellcamp Airport,-27.5589,151.7959,AU,04,Australia/Brisbane,2017-11-03,BWW
Beauty Point,AU,TAS,AUBYP,BYP,,Barimunya,Barimunya,-22.7057,119.1167,AU,08,Australia/Perth,2013-06-15,BYP
Baniyala,AU,NT,AUBYX,BYX,,Baniyala Airport,Baniyala Airport,-13.1981,136.2270,AU,03,Australia/Darwin,2011-06-04,BYX
Baniyala,AU,NT,AUBYX,BYX,,Baniyala,Baniyala,-13.2006,136.2256,AU,03,Australia/Darwin,2017-03-06,BYX
Balranald,AU,NSW,AUBZD,BZD,,Balranald,Balranald,-34.6365,143.5614,AU,02,Australia/Sydney,2019-07-18,BZD
Balranald,AU,NSW,AUBZD,BZD,,Balranald Airport,Balranald Airport,-34.6236,143.5780,AU,02,Australia/Sydney,2011-06-04,BZD
Bizant,AU,QLD,AUBZP,BZP,,Bizant,Bizant,-15.2167,144.6330,AU,04,Australia/Brisbane,2012-05-18,BZP
Caloundra Head,AU,QLD,AUCAL,CAL,,McCALLUM PARK,McCALLUM PARK,-30.5153,142.9021,AU,02,Australia/Sydney,2014-04-09,CAL
Cobar,AU,NSW,AUCAZ,CAZ,,Cobar,Cobar,-31.4967,145.8344,AU,02,Australia/Sydney,2019-07-18,CAZ
Cobar,AU,NSW,AUCAZ,CAZ,,Cobar Airport,Cobar Airport,-31.5383,145.7940,AU,02,Australia/Sydney,2011-06-04,CAZ
Cherrabun,AU,WA,AUCBC,CBC,,Cherrabun Airfield,Cherrabun Airfield,-18.9173,125.5365,AU,08,Australia/Perth,2017-08-06,CBC
Carabooda,AU,WA,AUCBD,CBD,3136S 11542E,Sydney Central Business District,Sydney Central Business District,-33.8648,151.2077,AU,02,Australia/Sydney,2019-07-20,CBD
Cape Barren Island,AU,TAS,AUCBI,CBI,,Cape Barren Island Airport,Cape Barren Island Airport,-40.3902,148.0180,AU,06,Australia/Hobart,2016-11-27,CBI
Canberra,AU,ACT,AUCBR,CBR,,Canberra,Canberra,-35.2835,149.1281,AU,01,Australia/Sydney,2019-09-05,CBR
Canberra,AU,ACT,AUCBR,CBR,,Canberra International Airport,Canberra International Airport,-35.3069,149.1950,AU,01,Australia/Sydney,2017-10-14,CBR
Condobolin,AU,NSW,AUCBX,CBX,,Condobolin,Condobolin,-33.0888,147.1514,AU,02,Australia/Sydney,2019-07-18,CBX
Condobolin,AU,NSW,AUCBX,CBX,,Condobolin Airport,Condobolin Airport,-33.0644,147.2090,AU,02,Australia/Sydney,2011-06-04,CBX
Canobie,AU,QLD,AUCBY,CBY,,Canobie,Canobie,-19.4833,140.9333,AU,04,Australia/Brisbane,2017-06-18,CBY
Canobie,AU,QLD,AUCBY,CBY,,Canobie Airport,Canobie Airport,-19.4794,140.9270,AU,04,Australia/Brisbane,2011-06-04,CBY
Chinchilla,AU,QLD,AUCCL,CCL,,Chinchilla,Chinchilla,-26.7379,150.6297,AU,04,Australia/Brisbane,2019-07-18,CCL
Chinchilla,AU,QLD,AUCCL,CCL,,Chinchilla Airport,Chinchilla Airport,-26.7750,150.6170,AU,04,Australia/Brisbane,2011-06-04,CCL
Cowell,AU,SA,AUCCW,CCW,,Cowell,Cowell,-33.6823,136.9212,AU,05,Australia/Adelaide,2019-07-18,CCW
Cowell,AU,SA,AUCCW,CCW,,Cowell Airport,Cowell Airport,-33.6667,136.8920,AU,05,Australia/Adelaide,2011-06-04,CCW
Cooinda,AU,NT,AUCDA,CDA,,Cooinda Airport,Cooinda Airport,-12.9033,132.5320,AU,03,Australia/Darwin,2011-06-04,CDA
Cooinda,AU,NT,AUCDA,CDA,,Cooinda,Cooinda,-12.9058,132.5205,AU,03,Australia/Darwin,2017-11-05,CDA
Croydon,AU,QLD,AUCDQ,CDQ,,Croydon,Croydon,-18.2043,142.2446,AU,04,Australia/Brisbane,2019-07-18,CDQ
Croydon,AU,QLD,AUCDQ,CDQ,,Croydon Airport,Croydon Airport,-18.2250,142.2580,AU,04,Australia/Brisbane,2011-06-04,CDQ
Camden,AU,NSW,AUCDU,CDU,,Camden,Camden,-34.0540,150.6962,AU,02,Australia/Sydney,2019-07-18,CDU
Camden,AU,NSW,AUCDU,CDU,,Camden Airport,Camden Airport,-34.0403,150.6872,AU,02,Australia/Sydney,2011-06-04,CDU
Ceduna,AU,SA,AUCED,CED,,Ceduna,Ceduna,-32.1266,133.6727,AU,05,Australia/Adelaide,2019-07-18,CED
Ceduna,AU,SA,AUCED,CED,,Ceduna Airport,Ceduna Airport,-32.1249,133.7015,AU,05,Australia/Adelaide,2013-06-15,CED
Cessnock,AU,NSW,AUCES,CES,,Cessnock,Cessnock,-32.8321,151.3562,AU,02,Australia/Sydney,2019-07-18,CES
Cessnock,AU,NSW,AUCES,CES,,Cessnock Airport,Cessnock Airport,-32.7875,151.3420,AU,02,Australia/Sydney,2011-06-04,CES
Clifton Hills,AU,SA,AUCFH,CFH,,Clifton Hills Station,Clifton Hills Station,-27.0180,138.8940,AU,05,Australia/Adelaide,2017-09-17,CFH
Clifton Hills,AU,SA,AUCFH,CFH,,Clifton Hills Airstrip,Clifton Hills Airstrip,-27.0160,138.8920,AU,05,Australia/Adelaide,2017-10-28,CFH
Camfield,AU,NT,AUCFI,CFI,,Camfield Airport,Camfield Airport,-17.0217,131.3270,AU,03,Australia/Darwin,2019-05-22,CFI
Camfield,AU,NT,AUCFI,CFI,,Camfield,Camfield,-17.0352,131.2949,AU,03,Australia/Darwin,2019-05-22,CFI
Carpentaria Downs,AU,QLD,AUCFP,CFP,,Carpentaria Downs,Carpentaria Downs,-18.7181,144.3178,AU,04,Australia/Brisbane,2017-10-29,CFP
Carpentaria Downs,AU,QLD,AUCFP,CFP,,Carpentaria Downs Airport,Carpentaria Downs Airport,-18.7170,144.3124,AU,04,Australia/Brisbane,2017-10-29,CFP
Coffs Harbour,AU,NSW,AUCFS,CFS,,Coffs Harbour,Coffs Harbour,-30.2963,153.1135,AU,02,Australia/Sydney,2019-07-18,CFS
Coffs Harbour,AU,NSW,AUCFS,CFS,,Coffs Harbour Airport,Coffs Harbour Airport,-30.3206,153.1164,AU,02,Australia/Sydney,2018-12-24,CFS
Caiguna,AU,WA,AUCGV,CGV,,Caiguna Airport,Caiguna Airport,-32.2810,125.4780,AU,08,Australia/Perth,2017-09-08,CGV
Caiguna,AU,WA,AUCGV,CGV,,Caiguna,Caiguna,-32.2734,125.4939,AU,08,Australia/Perth,2019-07-18,CGV
Collie,AU,WA,AUCIE,CIE,,Collie,Collie,-33.3621,116.1562,AU,08,Australia/Perth,2019-07-18,CIE
Collie,AU,WA,AUCIE,CIE,,Collie Airport,Collie Airport,-33.3590,116.2000,AU,08,Australia/Perth,2017-10-28,CIE
Croker Island,AU,NT,AUCKI,CKI,,Croker Island,Croker Island,-11.1727,132.5267,AU,03,Australia/Darwin,2020-06-26,CKI
Croker Island,AU,NT,AUCKI,CKI,,Croker Island Airport,Croker Island Airport,-11.1635,132.4831,AU,03,Australia/Darwin,2013-05-08,CKI
Coolah,AU,NSW,AUCLH,CLH,,Coolah,Coolah,-31.8279,149.7156,AU,02,Australia/Sydney,2019-07-18,CLH
Coolah,AU,NSW,AUCLH,CLH,,Coolah Airport,Coolah Airport,-31.7733,149.6100,AU,02,Australia/Sydney,2011-06-04,CLH
Cunnamulla,AU,QLD,AUCMA,CMA,,Cunnamulla,Cunnamulla,-28.0677,145.6844,AU,04,Australia/Brisbane,2019-07-18,CMA
Cunnamulla,AU,QLD,AUCMA,CMA,,Cunnamulla Airport,Cunnamulla Airport,-28.0300,145.6220,AU,04,Australia/Brisbane,2011-06-04,CMA
Cootamundra,AU,NSW,AUCMD,CMD,,Cootamundra,Cootamundra,-34.6409,148.0284,AU,02,Australia/Sydney,2019-07-18,CMD
Cootamundra,AU,NSW,AUCMD,CMD,,Cootamundra Airport,Cootamundra Airport,-34.6239,148.0280,AU,02,Australia/Sydney,2019-05-21,CMD
Camooweal,AU,QLD,AUCML,CML,,Camooweal,Camooweal,-19.9215,138.1201,AU,04,Australia/Brisbane,2019-07-18,CML
Camooweal,AU,QLD,AUCML,CML,,Camooweal Airport,Camooweal Airport,-19.9117,138.1250,AU,04,Australia/Brisbane,2011-06-04,CML
Clermont,AU,QLD,AUCMQ,CMQ,,Clermont,Clermont,-22.8241,147.6363,AU,04,Australia/Brisbane,2019-07-18,CMQ
Clermont,AU,QLD,AUCMQ,CMQ,,Clermont Airport,Clermont Airport,-22.7731,147.6210,AU,04,Australia/Brisbane,2011-06-04,CMQ
Coonamble,AU,NSW,AUCNB,CNB,,Coonamble,Coonamble,-30.9539,148.3888,AU,02,Australia/Sydney,2019-07-18,CNB
Coonamble,AU,NSW,AUCNB,CNB,,Coonamble Airport,Coonamble Airport,-30.9833,148.3760,AU,02,Australia/Sydney,2011-06-04,CNB
Coconut Island,AU,QLD,AUCNC,CNC,,Coconut Island,Coconut Island,-10.0501,143.0690,AU,04,,2018-10-11,CNC
Coconut Island,AU,QLD,AUCNC,CNC,,Coconut Island Airport,Coconut Island Airport,-10.0500,143.0700,AU,04,Australia/Brisbane,2011-06-04,CNC
Cloncurry,AU,QLD,AUCNJ,CNJ,,Cloncurry,Cloncurry,-20.7072,140.5130,AU,04,Australia/Brisbane,2019-07-18,CNJ
Cloncurry,AU,QLD,AUCNJ,CNJ,,Cloncurry Airport,Cloncurry Airport,-20.6686,140.5040,AU,04,Australia/Brisbane,2011-06-04,CNJ
Cairns,AU,QLD,AUCNS,CNS,,Cairns,Cairns,-16.9237,145.7661,AU,04,Australia/Brisbane,2019-05-22,CNS
Cairns,AU,QLD,AUCNS,CNS,,Cairns International Airport,Cairns International Airport,-16.8858,145.7553,AU,04,Australia/Brisbane,2019-05-22,CNS
Coonabarabran,AU,NSW,AUCOJ,COJ,,Coonabarabran,Coonabarabran,-31.2773,149.2790,AU,02,Australia/Sydney,2019-07-18,COJ
Coonabarabran,AU,NSW,AUCOJ,COJ,,Coonabarabran Airport,Coonabarabran Airport,-31.3325,149.2670,AU,02,Australia/Sydney,2011-06-04,COJ
Coolawanyah,AU,WA,AUCOY,COY,,Coolawanyah,Coolawanyah,-21.8051,117.8061,AU,08,Australia/Perth,2014-01-25,COY
Coolawanyah,AU,WA,AUCOY,COY,,Coolawanyah Station Airport,Coolawanyah Station Airport,-21.7941,117.7593,AU,08,Australia/Perth,2014-01-25,COY
Coober Pedy,AU,SA,AUCPD,CPD,,Coober Pedy,Coober Pedy,-29.0142,134.7550,AU,05,Australia/Adelaide,2019-07-18,CPD
Coober Pedy,AU,SA,AUCPD,CPD,,Coober Pedy Airport,Coober Pedy Airport,-29.0400,134.7210,AU,05,Australia/Adelaide,2011-06-04,CPD
Cape Flattery,AU,QLD,AUCQP,CQP,,Cape Flattery Airport,Cape Flattery Airport,-14.9710,145.3110,AU,04,Australia/Brisbane,2017-10-28,CQP
Collarenebri,AU,NSW,AUCRB,CRB,,Collarenebri,Collarenebri,-29.5438,148.5759,AU,02,Australia/Sydney,2019-07-18,CRB
Collarenebri,AU,NSW,AUCRB,CRB,,Collarenebri Airport,Collarenebri Airport,-29.5217,148.5820,AU,02,Australia/Sydney,2011-06-04,CRB
Cherribah,AU,QLD,AUCRH,CRH,,Cherrabah,Cherrabah,-27.6500,151.9500,AU,04,Australia/Brisbane,2012-05-18,CRH
Coorabie,AU,SA,AUCRJ,CRJ,,Coorabie,Coorabie,-31.8998,132.2953,AU,05,Australia/Adelaide,2014-04-08,CRJ
Coorabie,AU,SA,AUCRJ,CRJ,,Coorabie Airport,Coorabie Airport,-31.8885,132.2854,AU,05,Australia/Adelaide,2019-06-10,CRJ
Carlton Hill,AU,WA,AUCRY,CRY,,Carlton Hill,Carlton Hill,-15.4866,128.5349,AU,08,Australia/Perth,2019-05-23,CRY
Carlton Hill,AU,WA,AUCRY,CRY,,Carlton Hill Airport,Carlton Hill Airport,-15.5019,128.5340,AU,08,Australia/Perth,2019-05-23,CRY
Cresswell Downs,AU,NT,AUCSD,CSD,,Cresswell Downs Airport,Cresswell Downs Airport,-17.9480,135.9160,AU,03,Australia/Darwin,2011-06-04,CSD
Cresswell Downs,AU,NT,AUCSD,CSD,,Cresswell Downs,Cresswell Downs,-17.9475,135.9003,AU,03,Australia/Darwin,2017-08-29,CSD
Casino,AU,NSW,AUCSI,CSI,,Casino,Casino,-28.8582,153.0475,AU,02,Australia/Sydney,2019-07-18,CSI
Casino,AU,NSW,AUCSI,CSI,,Casino Airport,Casino Airport,-28.8828,153.0670,AU,02,Australia/Sydney,2011-06-04,CSI
Charleville,AU,QLD,AUCTL,CTL,,Charleville,Charleville,-26.4054,146.2427,AU,04,Australia/Brisbane,2019-07-18,CTL
Charleville,AU,QLD,AUCTL,CTL,,Charleville Airport,Charleville Airport,-26.4133,146.2625,AU,04,Australia/Brisbane,2011-06-04,CTL
Cooktown,AU,QLD,AUCTN,CTN,,Cooktown,Cooktown,-15.4657,145.2498,AU,04,Australia/Brisbane,2019-07-18,CTN
Cooktown,AU,QLD,AUCTN,CTN,,Cooktown Airport,Cooktown Airport,-15.4447,145.1840,AU,04,Australia/Brisbane,2020-02-22,CTN
Cattle Creek,AU,NT,AUCTR,CTR,,Cattle Creek Airport,Cattle Creek Airport,-17.6070,131.5490,AU,03,Australia/Darwin,2019-05-22,CTR
Caloundra,AU,QLD,AUCUD,CUD,,Caloundra,Caloundra,-26.8035,153.1219,AU,04,Australia/Brisbane,2019-07-18,CUD
Caloundra,AU,QLD,AUCUD,CUD,,Caloundra Airport,Caloundra Airport,-26.8000,153.1000,AU,04,Australia/Brisbane,2019-05-22,CUD
Cudal,AU,NSW,AUCUG,CUG,,Cudal,Cudal,-33.2856,148.7407,AU,02,Australia/Sydney,2019-07-18,CUG
Cudal,AU,NSW,AUCUG,CUG,,Cudal Airport,Cudal Airport,-33.2783,148.7630,AU,02,Australia/Sydney,2011-06-04,CUG
Coen,AU,QLD,AUCUQ,CUQ,,Coen,Coen,-13.9456,143.1990,AU,04,Australia/Brisbane,2019-07-18,CUQ
Coen,AU,QLD,AUCUQ,CUQ,,Coen Airport,Coen Airport,-13.7608,143.1140,AU,04,Australia/Brisbane,2011-06-04,CUQ
Cue,AU,WA,AUCUY,CUY,,Cue,Cue,-27.4240,117.8974,AU,08,Australia/Perth,2019-07-18,CUY
Cue,AU,WA,AUCUY,CUY,,Cue Airport,Cue Airport,-27.4467,117.9180,AU,08,Australia/Perth,2011-06-04,CUY
Cleve,AU,SA,AUCVC,CVC,,Cleve,Cleve,-33.7000,136.5000,AU,05,Australia/Adelaide,2019-07-18,CVC
Cleve,AU,SA,AUCVC,CVC,,Cleve Airport,Cleve Airport,-33.7097,136.5050,AU,05,Australia/Adelaide,2011-06-04,CVC
Carnarvon,AU,WA,AUCVQ,CVQ,,Carnarvon,Carnarvon,-24.8826,113.6571,AU,08,Australia/Perth,2019-07-21,CVQ
Carnarvon,AU,WA,AUCVQ,CVQ,,Carnarvon Airport,Carnarvon Airport,-24.8806,113.6720,AU,08,Australia/Perth,2011-06-04,CVQ
Cowarie,AU,SA,AUCWR,CWR,,Cowarie,Cowarie,-27.7025,138.3357,AU,05,Australia/Adelaide,2017-08-09,CWR
Cowarie,AU,SA,AUCWR,CWR,,Cowarie Airport,Cowarie Airport,-27.7123,138.3279,AU,05,Australia/Adelaide,2015-01-31,CWR
Cowra,AU,NSW,AUCWT,CWT,,Cowra,Cowra,-33.8355,148.6966,AU,02,Australia/Sydney,2019-07-18,CWT
Cowra,AU,NSW,AUCWT,CWT,,Cowra Airport,Cowra Airport,-33.8447,148.6490,AU,02,Australia/Sydney,2011-06-04,CWT
Corowa,AU,NSW,AUCWW,CWW,,Corowa,Corowa,-35.9970,146.3855,AU,02,Australia/Sydney,2019-07-18,CWW
Corowa,AU,NSW,AUCWW,CWW,,Corowa Airport,Corowa Airport,-35.9947,146.3570,AU,02,Australia/Sydney,2019-05-21,CWW
Christmas Creek,AU,WA,AUCXQ,CXQ,,Christmas Creek Airport,Christmas Creek Airport,-18.8722,125.9366,AU,08,Australia/Perth,2016-03-19,CXQ
Charters Towers,AU,QLD,AUCXT,CXT,,Charters Towers,Charters Towers,-20.0767,146.2635,AU,04,Australia/Brisbane,2012-02-28,CXT
Charters Towers,AU,QLD,AUCXT,CXT,,Charters Towers Airport,Charters Towers Airport,-20.0431,146.2730,AU,04,Australia/Brisbane,2011-06-04,CXT
Corryong,AU,VIC,AUCYG,CYG,,Corryong,Corryong,-36.1970,147.9026,AU,07,Australia/Melbourne,2019-07-18,CYG
Corryong,AU,VIC,AUCYG,CYG,,Corryong Airport,Corryong Airport,-36.1828,147.8880,AU,07,Australia/Melbourne,2011-06-04,CYG
Cluny,AU,QLD,AUCZY,CZY,,Cluny,Cluny,-24.5053,139.5866,AU,04,Australia/Brisbane,2017-09-26,CZY
Cluny,AU,QLD,AUCZY,CZY,,Cluny Airport,Cluny Airport,-24.5167,139.6170,AU,04,Australia/Brisbane,2011-06-04,CZY
Dauan Island,AU,QLD,AUDAJ,DAJ,,Dauan Island,Dauan Island,-9.4232,142.5361,AU,04,Pacific/Port_Moresby,2018-02-07,DAJ
Dauan Island,AU,QLD,AUDAJ,DAJ,,Dauan,Dauan,-9.4186,142.5399,AU,04,Australia/Brisbane,2015-06-08,DAJ
Dauan Island,AU,QLD,AUDAJ,DAJ,,Dauan Island Heliport,Dauan Island Heliport,-9.4176,142.5317,AU,04,Pacific/Port_Moresby,2015-05-23,DAJ
Dubbo,AU,NSW,AUDBO,DBO,,Dubbo,Dubbo,-32.2430,148.6048,AU,02,Australia/Sydney,2019-07-18,DBO
Dalby,AU,QLD,AUDBY,DBY,,Dalby,Dalby,-27.1817,151.2620,AU,04,Australia/Brisbane,2019-07-18,DBY
Dalby,AU,QLD,AUDBY,DBY,,Dalby Airport,Dalby Airport,-27.1585,151.2634,AU,04,Australia/Brisbane,2014-08-16,DBY
RAAF Curtin,AU,WA,AUDCN,DCN,1734S 12349E,Derby RAAF Curtin Base,Derby RAAF Curtin Base,-17.5794,123.8253,AU,08,Australia/Perth,2013-03-16,DCN
Daydream Is,AU,QLD,AUDDI,DDI,,Daydream Island,Daydream Island,-20.2567,148.8140,AU,04,Australia/Lindeman,2019-04-16,DDI
Daydream Is,AU,QLD,AUDDI,DDI,,Daydream Island Heliport,Daydream Island Heliport,-20.2557,148.8138,AU,04,Australia/Brisbane,2019-04-16,DDI
Delta Downs,AU,QLD,AUDDN,DDN,,Delta Downs,Delta Downs,-17.0000,141.3167,AU,04,Australia/Brisbane,2017-07-20,DDN
Delta Downs,AU,QLD,AUDDN,DDN,,Delta Downs Airport,Delta Downs Airport,-16.9917,141.3170,AU,04,Australia/Brisbane,2011-06-04,DDN
Drumduff,AU,QLD,AUDFP,DFP,,Drumduff,Drumduff,-16.0500,143.0167,AU,04,Australia/Brisbane,2017-09-11,DFP
Drumduff,AU,QLD,AUDFP,DFP,,Drumduff Airport,Drumduff Airport,-16.0530,143.0120,AU,04,Australia/Brisbane,2011-06-04,DFP
Mudgee,AU,NSW,AUDGE,DGE,,Mudgee,Mudgee,-32.5943,149.5871,AU,02,Australia/Sydney,2019-07-18,DGE
Mudgee,AU,NSW,AUDGE,DGE,,Mudgee Airport,Mudgee Airport,-32.5625,149.6110,AU,02,Australia/Sydney,2011-06-04,DGE
Durham Downs,AU,QLD,AUDHD,DHD,,Durham Downs,Durham Downs,-27.0842,141.9061,AU,04,Australia/Brisbane,2017-08-19,DHD
Durham Downs,AU,QLD,AUDHD,DHD,,Durham Downs Airport,Durham Downs Airport,-27.0748,141.8992,AU,04,Australia/Brisbane,2017-08-19,DHD
Dajarra,AU,QLD,AUDJR,DJR,2141S 13931E,Dajarra,Dajarra,-21.6959,139.5163,AU,04,Australia/Brisbane,2019-07-18,DJR
Dajarra,AU,QLD,AUDJR,DJR,2141S 13931E,Dajarra Airport,Dajarra Airport,-21.7010,139.5324,AU,04,Australia/Brisbane,2017-07-11,DJR
Dunk Island,AU,QLD,AUDKI,DKI,,Dunk Island,Dunk Island,-17.9437,146.1567,AU,04,Australia/Brisbane,2018-11-26,DKI
Dunk Island,AU,QLD,AUDKI,DKI,,Dunk Island Airport,Dunk Island Airport,-17.9391,146.1415,AU,04,Australia/Lindeman,2013-05-24,DKI
Docker River,AU,NT,AUDKV,DKV,,Docker River Airport,Docker River Airport,-24.8596,129.1193,AU,03,Australia/Darwin,2017-09-13,DKV
Docker River,AU,NT,AUDKV,DKV,,Kaltukatjara,Kaltukatjara,-24.8744,129.0825,AU,03,Australia/Darwin,2019-07-18,DKV
Dulkaninna,AU,SA,AUDLK,DLK,,Dulkaninna,Dulkaninna,-29.0179,138.4575,AU,05,Australia/Adelaide,2017-06-25,DLK
Dulkaninna,AU,SA,AUDLK,DLK,,Dulkaninna Airport,Dulkaninna Airport,-29.0133,138.4810,AU,05,Australia/Adelaide,2011-03-17,DLK
Delissaville,AU,NT,AUDLV,DLV,,Delissaville Airport,Delissaville Airport,-12.5500,130.6850,AU,03,Australia/Darwin,2011-06-04,DLV
Delissaville,AU,NT,AUDLV,DLV,,Belyuen,Belyuen,-12.5382,130.6832,AU,03,Australia/Darwin,2017-02-19,DLV
Doomadgee,AU,QLD,AUDMD,DMD,,Doomadgee Airport,Doomadgee Airport,-17.9401,138.8202,AU,04,Australia/Brisbane,2015-11-22,DMD
Dunbar,AU,QLD,AUDNB,DNB,,Dunbar Airport,Dunbar Airport,-16.0500,142.4000,AU,04,Australia/Brisbane,2011-06-04,DNB
Denham,AU,WA,AUDNM,DNM,,Denham,Denham,-25.9268,113.5333,AU,08,Australia/Perth,2019-07-18,DNM
Denham,AU,WA,AUDNM,DNM,,Shark Bay Airport,Shark Bay Airport,-25.8894,113.5755,AU,08,Australia/Perth,2020-03-15,DNM
Deniliquin,AU,NSW,AUDNQ,DNQ,,Deniliquin,Deniliquin,-35.5324,144.9536,AU,02,Australia/Sydney,2019-07-18,DNQ
Deniliquin,AU,NSW,AUDNQ,DNQ,,Deniliquin Airport,Deniliquin Airport,-35.5583,144.9479,AU,02,Australia/Sydney,2019-05-21,DNQ
Dongara,AU,WA,AUDOX,DOX,,Dongara,Dongara,-29.2582,114.9328,AU,08,Australia/Perth,2019-07-18,DOX
Dongara,AU,WA,AUDOX,DOX,,Dongara Airport,Dongara Airport,-29.2992,114.9273,AU,08,Australia/Perth,2017-09-26,DOX
Devonport,AU,TAS,AUDPO,DPO,,Devonport,Devonport,-41.1769,146.3515,AU,06,Australia/Hobart,2019-07-18,DPO
Devonport,AU,TAS,AUDPO,DPO,,Devonport Airport,Devonport Airport,-41.1697,146.4300,AU,06,Australia/Hobart,2017-07-09,DPO
Derby,AU,WA,AUDRB,DRB,,Derby,Derby,-17.3029,123.6286,AU,08,Australia/Perth,2019-07-18,DRB
Derby,AU,WA,AUDRB,DRB,,Derby Airport,Derby Airport,-17.3698,123.6628,AU,08,Australia/Perth,2014-03-29,DRB
Dorunda Station,AU,QLD,AUDRD,DRD,,Dorunda Airport,Dorunda Airport,-16.5530,141.8230,AU,04,Australia/Brisbane,2017-07-16,DRD
Dorunda Station,AU,QLD,AUDRD,DRD,,Dorunda Outstation,Dorunda Outstation,-16.5505,141.8227,AU,04,Australia/Brisbane,2017-07-16,DRD
Dirranbandi,AU,QLD,AUDRN,DRN,,Dirranbandi,Dirranbandi,-28.5854,148.2255,AU,04,Australia/Brisbane,2019-07-18,DRN
Dirranbandi,AU,QLD,AUDRN,DRN,,Dirranbandi Airport,Dirranbandi Airport,-28.5917,148.2170,AU,04,Australia/Brisbane,2011-06-04,DRN
Durrie,AU,QLD,AUDRR,DRR,,Durrie,Durrie,-25.6486,140.2422,AU,04,Australia/Brisbane,2017-06-25,DRR
Durrie,AU,QLD,AUDRR,DRR,,Durrie Airport,Durrie Airport,-25.6850,140.2280,AU,04,Australia/Brisbane,2011-06-04,DRR
Darwin,AU,NT,AUDRW,DRW,1227S 13050E,Darwin,Darwin,-12.4611,130.8418,AU,03,Australia/Darwin,2019-09-05,DRW
Darwin,AU,NT,AUDRW,DRW,1227S 13050E,Darwin International Airport,Darwin International Airport,-12.4147,130.8767,AU,03,Australia/Darwin,2011-06-04,DRW
Davenport Downs,AU,QLD,AUDVP,DVP,,Davenport Downs,Davenport Downs,-24.1526,141.1037,AU,04,Australia/Brisbane,2017-09-11,DVP
Davenport Downs,AU,QLD,AUDVP,DVP,,Davenport Downs Airport,Davenport Downs Airport,-24.1500,141.1080,AU,04,Australia/Brisbane,2011-06-04,DVP
Daly River,AU,NT,AUDVR,DVR,,Daly River Airport,Daly River Airport,-13.7498,130.6939,AU,03,Australia/Darwin,2019-05-22,DVR
Dixie,AU,QLD,AUDXD,DXD,,Dixie,Dixie,-15.1139,143.3135,AU,04,Australia/Brisbane,2019-07-18,DXD
Dixie,AU,QLD,AUDXD,DXD,,Dixie Airport,Dixie Airport,-15.1176,143.3154,AU,04,Australia/Brisbane,2017-04-10,DXD
Dysart,AU,QLD,AUDYA,DYA,,Dysart Airport,Dysart Airport,-22.6222,148.3640,AU,04,Australia/Brisbane,2016-10-25,DYA
Dysart,AU,QLD,AUDYA,DYA,,Dysart,Dysart,-22.5882,148.3492,AU,04,Australia/Brisbane,2019-07-18,DYA
Diamantina Lakes,AU,QLD,AUDYM,DYM,,Diamantina Lakes Station,Diamantina Lakes Station,-23.7636,141.1414,AU,04,Australia/Brisbane,2017-07-14,DYM
Diamantina Lakes,AU,QLD,AUDYM,DYM,,Diamantina Lakes Airport,Diamantina Lakes Airport,-23.7617,141.1450,AU,04,Australia/Brisbane,2017-07-14,DYM
Daly Waters,AU,NT,AUDYW,DYW,,Daly Waters,Daly Waters,-16.2533,133.3693,AU,03,Australia/Darwin,2019-07-18,DYW
Daly Waters,AU,NT,AUDYW,DYW,,Daly Waters Airfield,Daly Waters Airfield,-16.2660,133.3843,AU,03,Australia/Darwin,2017-11-05,DYW
Echuca,AU,VIC,AUECH,ECH,,Echuca,Echuca,-36.1406,144.7518,AU,07,Australia/Melbourne,2019-07-18,ECH
Echuca,AU,VIC,AUECH,ECH,,Echuca Airport,Echuca Airport,-36.1572,144.7620,AU,07,Australia/Melbourne,2011-06-04,ECH
Erldunda,AU,NT,AUEDD,EDD,,Erldunda,Erldunda,-25.2288,133.1961,AU,03,Australia/Darwin,2017-09-23,EDD
Erldunda,AU,NT,AUEDD,EDD,,Erldunda Airport,Erldunda Airport,-25.2058,133.2540,AU,03,Australia/Darwin,2017-10-28,EDD
Edward River,AU,QLD,AUEDR,EDR,,Pormpuraaw Airport,Pormpuraaw Airport,-14.8967,141.6090,AU,04,Australia/Brisbane,2011-06-04,EDR
Einasleigh,AU,QLD,AUEIH,EIH,,Einasleigh,Einasleigh,-18.5167,144.1000,AU,04,Australia/Brisbane,2019-07-18,EIH
Einasleigh,AU,QLD,AUEIH,EIH,,Einasleigh Airport,Einasleigh Airport,-18.5033,144.0940,AU,04,Australia/Brisbane,2011-06-04,EIH
Elkedra,AU,NT,AUEKD,EKD,,Elkedra,Elkedra,-21.1664,135.4464,AU,03,Australia/Darwin,2017-07-14,EKD
Elkedra,AU,NT,AUEKD,EKD,,Elkedra Airport,Elkedra Airport,-21.1725,135.4440,AU,03,Australia/Darwin,2017-10-28,EKD
Elcho Island,AU,NT,AUELC,ELC,,Elcho Island,Elcho Island,-11.9592,135.7427,AU,03,Australia/Darwin,2020-06-26,ELC
Elcho Island,AU,NT,AUELC,ELC,,Elcho Island Airport,Elcho Island Airport,-12.0194,135.5710,AU,03,Australia/Darwin,2011-06-04,ELC
Emerald,AU,QLD,AUEMD,EMD,,Emerald,Emerald,-23.5230,148.1578,AU,04,Australia/Brisbane,2019-07-18,EMD
Emerald,AU,QLD,AUEMD,EMD,,Emerald Airport,Emerald Airport,-23.5675,148.1790,AU,04,Australia/Brisbane,2011-06-04,EMD
Eneabba West,AU,WA,AUENB,ENB,,Eneabba Airport,Eneabba Airport,-29.8325,115.2460,AU,08,Australia/Perth,2011-06-04,ENB
Eneabba West,AU,WA,AUENB,ENB,,Eneabba,Eneabba,-29.8196,115.2659,AU,08,Australia/Perth,2019-07-18,ENB
Esperance,AU,WA,AUEPR,EPR,,Esperance,Esperance,-33.8592,121.8916,AU,08,Australia/Perth,2019-07-18,EPR
Esperance,AU,WA,AUEPR,EPR,,Esperance Airport,Esperance Airport,-33.6844,121.8230,AU,08,Australia/Perth,2011-06-04,EPR
Ernabella,AU,SA,AUERB,ERB,,Pukatja,Pukatja,-26.2542,132.1915,AU,05,Australia/Adelaide,2017-07-14,ERB
Ernabella,AU,SA,AUERB,ERB,,Ernabella Airport,Ernabella Airport,-26.2649,132.1772,AU,05,Australia/Adelaide,2017-07-14,ERB
Etadunna,AU,SA,AUETD,ETD,,Etadunna Airport,Etadunna Airport,-28.7408,138.5890,AU,05,Australia/Adelaide,2013-08-27,ETD
Eucla,AU,WA,AUEUC,EUC,,Eucla,Eucla,-31.6769,128.8883,AU,08,Australia/Eucla,2019-07-18,EUC
Eucla,AU,WA,AUEUC,EUC,,Eucla Airport,Eucla Airport,-31.7067,128.8772,AU,08,Australia/Eucla,2014-11-09,EUC
Eva Downs,AU,NT,AUEVD,EVD,,Eva Downs,Eva Downs,-18.0010,134.8618,AU,03,Australia/Darwin,2017-09-16,EVD
Eva Downs,AU,NT,AUEVD,EVD,,Eva Downs Airport,Eva Downs Airport,-18.0010,134.8630,AU,03,Australia/Darwin,2011-06-04,EVD
Evans Head,AU,NSW,AUEVH,EVH,,Evans Head Aerodrome,Evans Head Aerodrome,-29.0933,153.4200,AU,02,Australia/Sydney,2011-06-04,EVH
Exmouth Gulf,AU,WA,AUEXM,EXM,,Exmouth,Exmouth,-21.9306,114.1209,AU,08,Australia/Perth,2019-07-18,EXM
Exmouth Gulf,AU,WA,AUEXM,EXM,,Exmouth Gulf Airport,Exmouth Gulf Airport,-22.0407,114.1026,AU,08,Australia/Perth,2016-12-09,EXM
Finke,AU,NT,AUFIK,FIK,,Finke,Finke,-25.5862,134.5751,AU,03,Australia/Darwin,2019-07-18,FIK
Finke,AU,NT,AUFIK,FIK,,Finke Airport,Finke Airport,-25.5947,134.5830,AU,03,Australia/Darwin,2011-06-04,FIK
Falls Creek,AU,VIC,AUFLC,FLC,,Falls Creek,Falls Creek,-36.8653,147.2778,AU,07,Australia/Melbourne,2020-04-18,FLC
Falls Creek,AU,VIC,AUFLC,FLC,,Falls Creek Helipad,Falls Creek Helipad,-36.8612,147.2773,AU,07,Australia/Melbourne,2020-04-18,FLC
Flinders Island,AU,TAS,AUFLS,FLS,,Flinders Island,Flinders Island,-40.0167,148.0333,AU,06,Australia/Hobart,2017-08-28,FLS
Flinders Island,AU,TAS,AUFLS,FLS,,Flinders Island Airport,Flinders Island Airport,-40.0917,147.9930,AU,06,Australia/Hobart,2011-06-04,FLS
Finley,AU,NSW,AUFLY,FLY,,Finley,Finley,-35.6550,145.5711,AU,02,Australia/Sydney,2019-07-18,FLY
Finley,AU,NSW,AUFLY,FLY,,Finley Airport,Finley Airport,-35.6586,145.5611,AU,02,Australia/Sydney,2017-06-17,FLY
Forrest,AU,WA,AUFOS,FOS,,Forrest,Forrest,-30.8510,128.1000,AU,08,Australia/Perth,2013-06-01,FOS
Forrest,AU,WA,AUFOS,FOS,,Forrest Airport,Forrest Airport,-30.8436,128.1130,AU,08,Australia/Perth,2013-06-01,FOS
Forster,AU,NSW,AUFOT,FOT,,Forster,Forster,-32.1814,152.5171,AU,02,Australia/Sydney,2019-07-18,FOT
Forster,AU,NSW,AUFOT,FOT,,Forster (Wallis Is) Airport,Forster (Wallis Is) Airport,-32.2042,152.4790,AU,02,Australia/Sydney,2019-05-22,FOT
Forbes,AU,NSW,AUFRB,FRB,,Forbes,Forbes,-33.3844,148.0076,AU,02,Australia/Sydney,2019-07-18,FRB
Forbes,AU,NSW,AUFRB,FRB,,Forbes Airport,Forbes Airport,-33.3636,147.9350,AU,02,Australia/Sydney,2011-06-04,FRB
Fossil Downs,AU,WA,AUFSL,FSL,,Fossil Downs Stn,Fossil Downs Stn,-18.1350,125.7815,AU,08,Australia/Perth,2017-11-06,FSL
Gayndah,AU,QLD,AUGAH,GAH,,Gayndah,Gayndah,-25.6252,151.6114,AU,04,Australia/Brisbane,2019-07-18,GAH
Gayndah,AU,QLD,AUGAH,GAH,,Gayndah Airport,Gayndah Airport,-25.6144,151.6190,AU,04,Australia/Brisbane,2011-06-04,GAH
Goulburn Island,AU,NT,AUGBL,GBL,,South Goulburn Island,South Goulburn Island,-11.6184,133.4042,AU,03,Australia/Darwin,2017-07-03,GBL
Goulburn Island,AU,NT,AUGBL,GBL,,Goulburn Island Mission,Goulburn Island Mission,-11.6500,133.3883,AU,03,Australia/Darwin,2017-11-21,GBL
Goulburn Island,AU,NT,AUGBL,GBL,,South Goulburn Island Airport,South Goulburn Island Airport,-11.6509,133.3807,AU,03,Australia/Darwin,2017-07-03,GBL
Gamboola,AU,QLD,AUGBP,GBP,,Gamboola,Gamboola,-16.5415,143.6695,AU,04,Australia/Brisbane,2019-05-22,GBP
Gamboola,AU,QLD,AUGBP,GBP,,Gamboola Airport,Gamboola Airport,-16.5437,143.6699,AU,04,Australia/Brisbane,2019-05-22,GBP
Gibb River,AU,WA,AUGBV,GBV,,Gibb River Airport,Gibb River Airport,-16.4233,126.4450,AU,08,Australia/Perth,2019-05-23,GBV
Gordon Downs,AU,WA,AUGDD,GDD,,Gordon Downs,Gordon Downs,-18.7500,128.5857,AU,08,Australia/Perth,2017-08-18,GDD
Gordon Downs,AU,WA,AUGDD,GDD,,Gordon Downs Airport,Gordon Downs Airport,-18.6781,128.5920,AU,08,Australia/Perth,2011-06-04,GDD
George Town,AU,TAS,AUGEE,GEE,,George Town,George Town,-41.1056,146.8261,AU,06,Australia/Hobart,2019-09-20,GEE
George Town,AU,TAS,AUGEE,GEE,,George Town Aerodrome,George Town Aerodrome,-41.0800,146.8400,AU,06,Australia/Hobart,2013-05-07,GEE
Geraldton,AU,WA,AUGET,GET,,Geraldton,Geraldton,-28.7790,114.6146,AU,08,Australia/Perth,2019-07-20,GET
Geraldton,AU,WA,AUGET,GET,,Geraldton Airport,Geraldton Airport,-28.7957,114.7040,AU,08,Australia/Perth,2019-05-23,GET
Geelong,AU,VIC,AUGEX,GEX,,Geelong,Geelong,-38.1471,144.3607,AU,07,Australia/Melbourne,2019-07-20,GEX
Geelong,AU,VIC,AUGEX,GEX,,Geelong Airport (historical),Geelong Airport (historical),-38.2250,144.3330,AU,07,Australia/Melbourne,2018-07-21,GEX
Grenfell,AU,NSW,AUGFE,GFE,,Grenfell,Grenfell,-33.8955,148.1644,AU,02,Australia/Sydney,2019-07-18,GFE
Griffith,AU,NSW,AUGFF,GFF,,Griffith,Griffith,-34.2885,146.0509,AU,02,Australia/Sydney,2019-07-18,GFF
Griffith,AU,NSW,AUGFF,GFF,,Griffith Airport,Griffith Airport,-34.2508,146.0670,AU,02,Australia/Sydney,2011-06-04,GFF
Grafton,AU,NSW,AUGFN,GFN,,Grafton,Grafton,-29.6810,152.9339,AU,02,Australia/Sydney,2019-07-18,GFN
Grafton,AU,NSW,AUGFN,GFN,,Clarence Valley Regional Airport,Clarence Valley Regional Airport,-29.7594,153.0300,AU,02,Australia/Sydney,2013-05-04,GFN
Gregory Downs,AU,QLD,AUGGD,GGD,,Gregory Downs,Gregory Downs,-18.6333,139.2500,AU,04,Australia/Brisbane,2017-08-08,GGD
Gregory Downs,AU,QLD,AUGGD,GGD,,Gregory Downs Airport,Gregory Downs Airport,-18.6250,139.2330,AU,04,Australia/Brisbane,2011-06-04,GGD
Boigu Island,AU,QLD,AUGIC,GIC,,Boigu Island,Boigu Island,-9.2603,142.2136,AU,04,Pacific/Port_Moresby,2017-02-28,GIC
Boigu Island,AU,QLD,AUGIC,GIC,,Boigu Airport,Boigu Airport,-9.2328,142.2180,AU,04,Pacific/Port_Moresby,2014-06-16,GIC
Great Keppel Island,AU,QLD,AUGKL,GKL,,Great Keppel Island,Great Keppel Island,-23.1789,150.9594,AU,04,Australia/Brisbane,2017-08-25,GKL
Great Keppel Island,AU,QLD,AUGKL,GKL,,Great Keppel Isla,Great Keppel Isla,-23.1833,150.9500,AU,04,Australia/Brisbane,2019-05-22,GKL
Glengyle,AU,QLD,AUGLG,GLG,,Glengyle,Glengyle,-24.7848,139.5972,AU,04,Australia/Brisbane,2017-02-13,GLG
Glengyle,AU,QLD,AUGLG,GLG,,Glengyle Airport,Glengyle Airport,-24.8083,139.6000,AU,04,Australia/Brisbane,2011-06-04,GLG
Glen Innes,AU,NSW,AUGLI,GLI,,Glen Innes,Glen Innes,-29.7349,151.7385,AU,02,Australia/Sydney,2019-07-18,GLI
Glen Innes,AU,NSW,AUGLI,GLI,,Glen Innes Airport,Glen Innes Airport,-29.6750,151.6890,AU,02,Australia/Sydney,2011-06-04,GLI
Glenormiston,AU,QLD,AUGLM,GLM,,Glenormiston Station,Glenormiston Station,-22.9160,138.8035,AU,04,Australia/Brisbane,2017-09-10,GLM
Glenormiston,AU,QLD,AUGLM,GLM,,Glenormiston Airport,Glenormiston Airport,-22.8895,138.8218,AU,04,Australia/Brisbane,2017-09-10,GLM
Gladstone,AU,QLD,AUGLT,GLT,,Gladstone,Gladstone,-23.8485,151.2577,AU,04,Australia/Brisbane,2019-07-20,GLT
Gladstone,AU,QLD,AUGLT,GLT,,Gladstone Airport,Gladstone Airport,-23.8689,151.2203,AU,04,Australia/Brisbane,2014-01-05,GLT
Goldsworthy,AU,WA,AUGLY,GLY,,Goldsworthy,Goldsworthy,-20.3500,119.5333,AU,08,Australia/Perth,2013-07-15,GLY
Goldsworthy,AU,WA,AUGLY,GLY,,Mount Goldsworthy Aerodrome,Mount Goldsworthy Aerodrome,-20.3320,119.5013,AU,08,Australia/Perth,2017-09-09,GLY
Goondiwindi,AU,QLD,AUGOO,GOO,,Goondiwindi,Goondiwindi,-28.5471,150.3055,AU,04,Australia/Brisbane,2019-07-18,GOO
Goondiwindi,AU,QLD,AUGOO,GOO,,Goondiwindi Airport,Goondiwindi Airport,-28.5214,150.3200,AU,04,Australia/Brisbane,2013-06-24,GOO
Gosford,AU,NSW,AUGOS,GOS,,Gosford,Gosford,-33.4244,151.3440,AU,02,Australia/Sydney,2019-07-18,GOS
Gove,AU,NT,AUGOV,GOV,,Nhulunbuy,Nhulunbuy,-12.1816,136.7784,AU,03,Australia/Darwin,2019-07-18,GOV
Gove,AU,NT,AUGOV,GOV,,Gove Airport,Gove Airport,-12.2713,136.8202,AU,03,Australia/Darwin,2016-04-10,GOV
Garden Point,AU,NT,AUGPN,GPN,,Garden Point,Garden Point,-11.3893,130.4246,AU,03,Australia/Darwin,2017-04-23,GPN
