name,country_code,subdivision,unlocode,location,asciiname,coordinates,latitude,longitude,timezone,modification date
Andorra la Vella,AD,,ADALV,ALV,Andorra la Vella,4230N 00131E,42.5078,1.5211,Europe/Andorra,2020-03-03
Al Ain,AE,,AEAAN,AAN,Al Ain City,,24.1917,55.7606,Asia/Dubai,2019-05-29
Abu Dhabi,AE,AZ,AEAUH,AUH,Abu Dhabi,2428N 05422E,24.4512,54.3970,Asia/Dubai,2019-09-05
Dubai,AE,DU,AEDXB,DXB,Dubai,2515N 05516E,25.0772,55.3093,Asia/Dubai,2019-08-28
Al Fujayrah,AE,FU,AEFJR,FJR,Al Fujairah City,2507N 05620E,25.1164,56.3414,Asia/Dubai,2019-05-29
Ras Al Khor,AE,DU,AERAK,RAK,Ras Al Khaimah City,2517N 05534E,25.7895,55.9432,Asia/Dubai,2019-09-09
Ras al Khaimah,AE,,AERKT,RKT,Ras Al Khaimah City,2547N 05557E,25.7895,55.9432,Asia/Dubai,2019-09-09
Sharjah,AE,SH,AESHJ,SHJ,Sharjah,2521N 05523E,25.3374,55.4121,Asia/Dubai,2019-09-05
Bamian,AF,,AFBIN,BIN,Bamyan,,34.8216,67.8273,Asia/Kabul,2020-06-09
Bost,AF,,AFBST,BST,Lashkar Gah,,31.5938,64.3716,Asia/Kabul,2020-06-09
Farah,AF,,AFFAH,FAH,Farah,,32.3745,62.1164,Asia/Kabul,2018-02-17
Faizabad,AF,,AFFBD,FBD,Fayzabad,,37.1166,70.5800,Asia/Kabul,2018-02-17
Gardez,AF,,AFGRG,GRG,Gardez,,33.5974,69.2259,Asia/Kabul,2018-02-13
Ghazni,AF,,AFGZI,GZI,Ghazni,,33.5539,68.4210,Asia/Kabul,2018-02-17
Herat,AF,,AFHEA,HEA,Herat,,34.3482,62.1997,Asia/Kabul,2020-06-09
Jalalabad,AF,,AFJAA,JAA,Jalalabad,,34.4265,70.4515,Asia/Kabul,2020-06-09
Kabul,AF,,AFKBL,KBL,Kabul,,34.5281,69.1723,Asia/Kabul,2019-09-05
Kandahar,AF,,AFKDH,KDH,Kandahar,,31.6133,65.7101,Asia/Kabul,2020-06-09
Khost,AF,,AFKHT,KHT,Khost,,33.3395,69.9204,Asia/Kabul,2020-06-09
Maimana,AF,,AFMMZ,MMZ,Maymana,,35.9214,64.7836,Asia/Kabul,2018-02-17
Mazar-i-Sharif,AF,,AFMZR,MZR,Mazar-e Sharif,3642N 06706E,36.7090,67.1109,Asia/Kabul,2020-06-09
Taluqan,AF,,AFTQN,TQN,Taloqan,,36.7360,69.5345,Asia/Kabul,2018-02-17
Kunduz,AF,,AFUND,UND,Kunduz,,36.7289,68.8570,Asia/Kabul,2019-02-26
Zaranj,AF,,AFZAJ,ZAJ,Zaranj,,30.9596,61.8604,Asia/Kabul,2018-02-13
Tirana,AL,,ALTIA,TIA,Tirana,,41.3275,19.8189,Europe/Tirane,2019-09-05
Yerevan,AM,ER,AMEVN,EVN,Yerevan,4011N 04431E,40.1811,44.5136,Asia/Yerevan,2019-09-05
Gyumri,AM,,AMLWN,LWN,Gyumri,4048N 04350E,40.7942,43.8453,Asia/Yerevan,2019-09-05
N'Zeto,AO,,AOARZ,ARZ,N'zeto,,-7.2312,12.8666,Africa/Luanda,2017-07-07
Benguela,AO,,AOBUG,BUG,Benguela,,-12.5763,13.4055,Africa/Luanda,2011-10-28
Cabinda,AO,,AOCAB,CAB,Cabinda,,-5.5500,12.2000,Africa/Luanda,2012-01-17
Catumbela,AO,,AOCBT,CBT,Catumbela,,-12.4300,13.5468,Africa/Luanda,2013-11-08
Luanda,AO,,AOLAD,LAD,Luanda,,-8.8368,13.2343,Africa/Luanda,2019-09-05
Lukapa,AO,,AOLBZ,LBZ,Lucapa,,-8.4192,20.7447,Africa/Luanda,2017-08-01
Luena,AO,,AOLUO,LUO,Luena,,-11.7833,19.9167,Africa/Luanda,2012-01-17
Malange,AO,,AOMEG,MEG,Malanje,,-9.5402,16.3410,Africa/Luanda,2018-03-18
Namibe,AO,,AOMSZ,MSZ,Mocamedes,,-15.1961,12.1522,Africa/Luanda,2020-08-01
Sumbe,AO,,AONDD,NDD,Sumbe,,-11.2060,13.8437,Africa/Luanda,2012-01-17
N'dalatando,AO,CNO,AONDF,NDF,N'dalatando,0918S 01455E,-9.2978,14.9116,Africa/Luanda,2017-05-07
Huambo,AO,,AONOV,NOV,Huambo,,-12.7761,15.7392,Africa/Luanda,2019-02-26
Lubango,AO,,AOSDD,SDD,Lubango,,-14.9172,13.4925,Africa/Luanda,2020-06-02
Menongue,AO,,AOSPP,SPP,Menongue,,-14.6585,17.6910,Africa/Luanda,2014-06-23
M'banza Congo,AO,,AOSSY,SSY,Mbanza Kongo,,-6.2667,14.2383,Africa/Luanda,2020-07-08
Kuito,AO,,AOSVP,SVP,Cuito,,-12.3833,16.9333,Africa/Luanda,2013-06-04
Soyo,AO,,AOSZA,SZA,Soio,,-6.1349,12.3689,Africa/Luanda,2018-01-15
Luau,AO,,AOUAL,UAL,Luau,,-10.7073,22.2247,Africa/Luanda,2012-01-17
Uíge,AO,,AOUGO,UGO,Uige,0737S 01503E,-7.6087,15.0613,Africa/Luanda,2017-05-07
Saurimo,AO,,AOVHC,VHC,Saurimo,,-9.6608,20.3915,Africa/Luanda,2012-01-17
San Rafael,AR,M,ARAFA,AFA,San Rafael,,-34.6177,-68.3301,America/Argentina/Mendoza,2016-01-30
Paso de los Libres,AR,W,ARAOL,AOL,Paso de los Libres,,-29.7125,-57.0877,America/Argentina/Cordoba,2015-04-22
Zapala,AR,Q,ARAPZ,APZ,Zapala,,-38.8992,-70.0544,America/Argentina/Salta,2015-04-22
Bahía Blanca,AR,B,ARBHI,BHI,Bahia Blanca,3843S 06217W,-38.7196,-62.2724,America/Argentina/Buenos_Aires,2015-04-22
San Carlos de Bariloche,AR,R,ARBRC,BRC,San Carlos de Bariloche,4109S 07118W,-41.1456,-71.3082,America/Argentina/Salta,2015-04-22
Buenos Aires,AR,C,ARBUE,BUE,Buenos Aires,3435S 05840W,-34.6131,-58.3772,America/Argentina/Buenos_Aires,2019-09-05
Colonia Catriel,AR,R,ARCCT,CCT,Catriel,,-37.8791,-67.7956,America/Argentina/Salta,2016-03-06
Corrientes,AR,W,ARCNQ,CNQ,Corrientes,,-27.4678,-58.8344,America/Argentina/Cordoba,2019-09-05
Charata,AR,H,ARCNT,CNT,Charata,,-27.2144,-61.1880,America/Argentina/Cordoba,2016-01-30
Concordia,AR,E,ARCOC,COC,Concordia,,-31.3930,-58.0209,America/Argentina/Cordoba,2016-01-30
Córdoba,AR,X,ARCOR,COR,Cordoba,3124S 06411W,-31.4135,-64.1810,America/Argentina/Cordoba,2019-09-05
San Martín de los Andes,AR,Q,ARCPC,CPC,San Martin de los Andes,4010S 07121W,-40.1579,-71.3534,America/Argentina/Salta,2015-04-22
Comodoro Rivadavia,AR,U,ARCRD,CRD,Comodoro Rivadavia,,-45.8641,-67.4966,America/Argentina/Rio_Gallegos,2019-09-09
Coronel Suarez,AR,B,ARCSZ,CSZ,Coronel Suarez,3728S 06155W,-37.4547,-61.9334,America/Argentina/Buenos_Aires,2016-03-06
Catamarca,AR,K,ARCTC,CTC,San Fernando del Valle de Catamarca,,-28.4696,-65.7852,America/Argentina/Catamarca,2016-01-30
Cutral-Có,AR,Q,ARCUT,CUT,Cutral-Co,3856S 06914W,-38.9342,-69.2305,America/Argentina/Salta,2015-12-09
Caleta Olivia,AR,Z,ARCVI,CVI,Caleta Olivia,,-46.4393,-67.5281,America/Argentina/Rio_Gallegos,2016-01-30
El Bolsón,AR,R,AREHL,EHL,El Bolson,4158S 07131W,-41.9605,-71.5334,America/Argentina/Salta,2016-01-30
Esquel,AR,U,AREQS,EQS,Esquel,,-42.9115,-71.3195,America/Argentina/Catamarca,2015-04-22
Formosa,AR,P,ARFMA,FMA,Formosa,,-26.1849,-58.1731,America/Argentina/Cordoba,2018-11-30
Gualeguaychú,AR,E,ARGHU,GHU,Gualeguaychu,3301S 05831W,-33.0094,-58.5172,America/Argentina/Cordoba,2016-01-30
General Roca,AR,R,ARGNR,GNR,General Roca,3902S 06735W,-39.0333,-67.5833,America/Argentina/Salta,2015-04-22
General Pico,AR,L,ARGPO,GPO,General Pico,,-35.6566,-63.7568,America/Argentina/Salta,2016-01-30
Iguazú,AR,N,ARIGR,IGR,Puerto Iguazu,2534S 05434W,-25.5991,-54.5735,America/Argentina/Cordoba,2015-04-22
La Rioja,AR,F,ARIRJ,IRJ,La Rioja,,-29.4110,-66.8507,America/Argentina/La_Rioja,2019-09-05
Junín,AR,B,ARJNI,JNI,Junin,3435S 06058W,-34.5838,-60.9433,America/Argentina/Buenos_Aires,2015-04-22
Jujuy,AR,Y,ARJUJ,JUJ,San Salvador de Jujuy,,-24.1946,-65.2971,America/Argentina/Jujuy,2019-09-05
La Plata,AR,B,ARLPG,LPG,La Plata,3451S 05753W,-34.9215,-57.9545,America/Argentina/Buenos_Aires,2019-09-05
San Luis,AR,D,ARLUQ,LUQ,San Luis,3318S 06621W,-33.2950,-66.3356,America/Argentina/San_Luis,2016-09-05
Monte Caseros,AR,W,ARMCS,MCS,Monte Caseros,,-30.2536,-57.6363,America/Argentina/Cordoba,2015-04-22
Mar del Plata,AR,B,ARMDQ,MDQ,Mar del Plata,3803S 05732W,-38.0004,-57.5562,America/Argentina/Buenos_Aires,2019-09-05
Mercedes,AR,W,ARMDX,MDX,Mercedes,,-29.1842,-58.0752,America/Argentina/Cordoba,2015-06-15
Mendoza,AR,M,ARMDZ,MDZ,Mendoza,,-32.8908,-68.8272,America/Argentina/Mendoza,2020-07-08
Necochea,AR,B,ARNEC,NEC,Necochea,,-38.5545,-58.7396,America/Argentina/Buenos_Aires,2016-01-27
Neuquén,AR,Q,ARNQN,NQN,Neuquen,3857S 06804W,-38.9516,-68.0591,America/Argentina/Salta,2020-06-10
San Antonio Oeste,AR,R,AROES,OES,San Antonio Oeste,,-40.7319,-64.9477,America/Argentina/Salta,2016-01-30
Oran,AR,A,ARORA,ORA,San Ramon de la Nueva Oran,,-23.1370,-64.3243,America/Argentina/Salta,2016-01-30
Goya,AR,W,AROYA,OYA,Goya,,-29.1399,-59.2634,America/Argentina/Cordoba,2018-11-30
Tres Arroyos,AR,B,AROYO,OYO,Tres Arroyos,3823S 06017W,-38.3739,-60.2798,America/Argentina/Buenos_Aires,2015-04-22
Puerto Madryn,AR,U,ARPMY,PMY,Puerto Madryn,4245S 06502W,-42.7692,-65.0385,America/Argentina/Catamarca,2016-01-30
Paraná,AR,E,ARPRA,PRA,Parana,3144S 06032W,-31.7327,-60.5290,America/Argentina/Cordoba,2018-11-30
Presidente Roque Sáenz Peña,AR,H,ARPRQ,PRQ,Presidencia Roque Saenz Pena,3433S 05830W,-26.7852,-60.4388,America/Argentina/Cordoba,2016-10-30
Posadas,AR,N,ARPSS,PSS,Posadas,,-27.3671,-55.8961,America/Argentina/Cordoba,2015-04-22
Rafaela,AR,S,ARRAF,RAF,Rafaela,3116S 06129W,-31.2503,-61.4867,America/Argentina/Cordoba,2016-01-30
Reconquista,AR,S,ARRCQ,RCQ,Reconquista,2909S 05939W,-29.1500,-59.6500,America/Argentina/Cordoba,2018-03-27
Río Cuarto,AR,X,ARRCU,RCU,Rio Cuarto,3308S 06421W,-33.1307,-64.3499,America/Argentina/Cordoba,2015-04-22
Trelew,AR,U,ARREL,REL,Trelew,,-43.2490,-65.3050,America/Argentina/Catamarca,2016-01-30
Resistencia,AR,H,ARRES,RES,Resistencia,,-27.4606,-58.9839,America/Argentina/Cordoba,2016-01-30
Río Grande,AR,V,ARRGA,RGA,Rio Grande,5347S 06742W,-53.7877,-67.7095,America/Argentina/Ushuaia,2017-12-21
Río Gallegos,AR,Z,ARRGL,RGL,Rio Gallegos,5138S 06913W,-51.6226,-69.2181,America/Argentina/Rio_Gallegos,2020-06-10
Río Hondo,AR,G,ARRHD,RHD,Termas de Rio Hondo,2734S 06457W,-27.4936,-64.8597,America/Argentina/Cordoba,2017-03-25
Rosario,AR,S,ARROS,ROS,Rosario,3257S 06039W,-32.9468,-60.6393,America/Argentina/Cordoba,2015-04-22
Santa Rosa,AR,L,ARRSA,RSA,Santa Rosa,,-36.6167,-64.2833,America/Argentina/Salta,2016-01-30
Santiago del Estero,AR,G,ARSDE,SDE,Santiago del Estero,,-27.7951,-64.2615,America/Argentina/Cordoba,2019-09-05
Santa Fe,AR,S,ARSFN,SFN,Santa Fe,3136S 06041W,-31.6488,-60.7087,America/Argentina/Cordoba,2019-03-21
Salta,AR,A,ARSLA,SLA,Salta,,-24.7859,-65.4117,America/Argentina/Salta,2019-09-05
Sáenz Peña,AR,B,ARSZQ,SZQ,Presidencia Roque Saenz Pena,3436S 05832W,-26.7852,-60.4388,America/Argentina/Cordoba,2016-10-30
Tandil,AR,B,ARTDL,TDL,Tandil,,-37.3217,-59.1332,America/Argentina/Buenos_Aires,2015-04-22
Tartagal,AR,A,ARTTG,TTG,Tartagal,,-22.5164,-63.8013,America/Argentina/Salta,2016-01-30
Tucumán,AR,T,ARTUC,TUC,San Miguel de Tucuman,2649S 06513W,-26.8241,-65.2226,America/Argentina/Tucuman,2019-09-05
San Juan,AR,J,ARUAQ,UAQ,San Juan,,-31.5375,-68.5364,America/Argentina/San_Juan,2019-09-05
Ushuaia,AR,V,ARUSH,USH,Ushuaia,5448S 06818W,-54.8108,-68.3159,America/Argentina/Ushuaia,2019-09-05
Curuzú Cuatiá,AR,W,ARUZU,UZU,Curuzu Cuatia,2947S 05803W,-29.7917,-58.0546,America/Argentina/Cordoba,2016-01-30
Viedma,AR,R,ARVDM,VDM,Viedma,,-40.8135,-62.9967,America/Argentina/Salta,2016-01-30
Villa Dolores,AR,X,ARVDR,VDR,Villa Dolores,,-31.9459,-65.1896,America/Argentina/Cordoba,2016-01-30
General Villegas,AR,B,ARVGS,VGS,General Villegas,,-35.0329,-63.0125,America/Argentina/Buenos_Aires,2016-11-29
Villa Gesell,AR,B,ARVLG,VLG,Villa Gesell,,-37.2639,-56.9730,America/Argentina/Buenos_Aires,2016-01-30
Villa Mercedes,AR,D,ARVME,VME,Villa Mercedes,3340S 06528W,-33.6757,-65.4578,America/Argentina/San_Luis,2016-01-30
Mosconi,AR,A,ARXOS,XOS,General Mosconi,,-22.5959,-63.8126,America/Argentina/Salta,2020-04-05
San Pedro,AR,Y,ARXPD,XPD,San Pedro de Jujuy,,-24.2313,-64.8661,America/Argentina/Jujuy,2020-04-05
Embarcacíon,AR,A,ARZAI,ZAI,Embarcacion,2313S 06406W,-23.2100,-64.0996,America/Argentina/Salta,2015-05-23
Pago Pago,AS,,ASPPG,PPG,Pago Pago,1416N 17042W,-14.2781,-170.7025,Pacific/Pago_Pago,2019-09-05
Graz,AT,6,ATGRZ,GRZ,Graz,4704N 01527E,47.0667,15.4500,Europe/Vienna,2019-09-05
Hohenems,AT,8,ATHOH,HOH,Hohenems,4722N 00941E,47.3667,9.6831,Europe/Vienna,2018-07-28
Innsbruck,AT,7,ATINN,INN,Innsbruck,4716N 01124E,47.2627,11.3945,Europe/Vienna,2019-09-05
Klagenfurt,AT,2,ATKLU,KLU,Klagenfurt am Woerthersee,4637N 01418E,46.6247,14.3053,Europe/Vienna,2018-03-13
Linz,AT,4,ATLNZ,LNZ,Linz,4818N 01418E,48.3064,14.2861,Europe/Vienna,2019-09-05
Salzburg,AT,5,ATSZG,SZG,Salzburg,4748N 01302E,47.7994,13.0440,Europe/Vienna,2019-09-05
Wien,AT,9,ATVIE,VIE,Vienna,4812N 01622E,48.2085,16.3721,Europe/Vienna,2019-07-30
Adelaide,AU,SA,AUADL,ADL,Adelaide,3455S 13835E,-34.9287,138.5986,Australia/Adelaide,2020-06-19
Albany,AU,WA,AUALH,ALH,Albany,,-35.0269,117.8837,Australia/Perth,2019-07-21
Armidale,AU,NSW,AUARM,ARM,Armidale,,-30.5012,151.6655,Australia/Sydney,2019-07-18
Alice Springs,AU,NT,AUASP,ASP,Alice Springs,,-23.6975,133.8836,Australia/Darwin,2019-07-20
Bundaberg,AU,QLD,AUBDB,BDB,Bundaberg,,-24.8662,152.3479,Australia/Brisbane,2013-06-25
Broken Hill,AU,NSW,AUBHQ,BHQ,Broken Hill,,-31.9652,141.4512,Australia/Broken_Hill,2019-07-18
Bathurst,AU,NSW,AUBHS,BHS,Bathurst,,-33.4166,149.5806,Australia/Sydney,2019-07-20
Brisbane,AU,QLD,AUBNE,BNE,Brisbane,2728S 15301E,-27.4679,153.0281,Australia/Brisbane,2019-09-05
Bairnsdale,AU,VIC,AUBSJ,BSJ,Bairnsdale,,-37.8229,147.6104,Australia/Melbourne,2020-08-07
Bunbury,AU,WA,AUBUY,BUY,Bunbury,,-33.3271,115.6414,Australia/Perth,2019-07-20
Burnie,AU,TAS,AUBWT,BWT,Burnie,,-41.0558,145.9038,Australia/Hobart,2019-07-21
Bankstown,AU,NSW,AUBWU,BWU,Bankstown,,-33.9167,151.0333,Australia/Sydney,2019-07-18
Carabooda,AU,WA,AUCBD,CBD,Sydney Central Business District,3136S 11542E,-33.8648,151.2077,Australia/Sydney,2019-07-20
Canberra,AU,ACT,AUCBR,CBR,Canberra,,-35.2835,149.1281,Australia/Sydney,2019-09-05
Cessnock,AU,NSW,AUCES,CES,Cessnock,,-32.8321,151.3562,Australia/Sydney,2019-07-18
Coffs Harbour,AU,NSW,AUCFS,CFS,Coffs Harbour,,-30.2963,153.1135,Australia/Sydney,2019-07-18
Cairns,AU,QLD,AUCNS,CNS,Cairns,,-16.9237,145.7661,Australia/Brisbane,2019-05-22
Dubbo,AU,NSW,AUDBO,DBO,Dubbo,,-32.2430,148.6048,Australia/Sydney,2019-07-18
Darwin,AU,NT,AUDRW,DRW,Darwin,1227S 13050E,-12.4611,130.8418,Australia/Darwin,2019-09-05
Geraldton,AU,WA,AUGET,GET,Geraldton,,-28.7790,114.6146,Australia/Perth,2019-07-20
Geelong,AU,VIC,AUGEX,GEX,Geelong,,-38.1471,144.3607,Australia/Melbourne,2019-07-20
Griffith,AU,NSW,AUGFF,GFF,Griffith,,-34.2885,146.0509,Australia/Sydney,2019-07-18
Gladstone,AU,QLD,AUGLT,GLT,Gladstone,,-23.8485,151.2577,Australia/Brisbane,2019-07-20
Goulburn,AU,NSW,AUGUL,GUL,Goulburn,,-34.7516,149.7209,Australia/Sydney,2019-07-18
Hobart,AU,TAS,AUHBA,HBA,Hobart,4252S 14718E,-42.8794,147.3294,Australia/Hobart,2019-09-05
Hervey Bay,AU,QLD,AUHVB,HVB,Hervey Bay,,-25.2876,152.7694,Australia/Brisbane,2018-09-07
Mount Isa,AU,QLD,AUISA,ISA,Mount Isa,,-20.7252,139.4973,Australia/Brisbane,2019-07-21
Launceston,AU,TAS,AULST,LST,Launceston,,-41.4388,147.1347,Australia/Hobart,2019-07-20
Maryborough,AU,QLD,AUMBH,MBH,Maryborough,,-25.5407,152.7049,Australia/Brisbane,2019-07-18
Maroochydore Apt/Sunshine Coast,AU,QLD,AUMCY,MCY,Maroochydore,,-26.6601,153.0995,Australia/Brisbane,2019-07-18
Melbourne,AU,VIC,AUMEL,MEL,Melbourne,3749S 14458E,-37.8140,144.9633,Australia/Melbourne,2019-07-20
Mount Gambier,AU,SA,AUMGB,MGB,Mount Gambier,,-37.8318,140.7792,Australia/Adelaide,2019-07-18
Mackay,AU,QLD,AUMKY,MKY,Mackay,2109S 14912E,-21.1534,149.1655,Australia/Brisbane,2019-07-21
Mildura,AU,VIC,AUMQL,MQL,Mildura,,-34.1855,142.1625,Australia/Melbourne,2019-07-18
Maitland,AU,NSW,AUMTL,MTL,Maitland,,-32.7331,151.5574,Australia/Sydney,2019-07-20
Newcastle,AU,NSW,AUNTL,NTL,Newcastle,,-32.9295,151.7801,Australia/Sydney,2019-09-05
Orange,AU,NSW,AUOAG,OAG,Orange,,-33.2840,149.1002,Australia/Sydney,2019-09-19
Gold Coast Apt/Coolangatta,AU,QLD,AUOOL,OOL,Gold Coast,2809S 15330E,-28.0003,153.4309,Australia/Brisbane,2016-03-21
Perth,AU,WA,AUPER,PER,Perth,3157S 11551E,-31.9522,115.8614,Australia/Perth,2019-09-05
Port Macquarie,AU,NSW,AUPQQ,PQQ,Port Macquarie,,-31.4308,152.9089,Australia/Sydney,2019-07-18
Rockhampton,AU,QLD,AUROK,ROK,Rockhampton,,-23.3803,150.5060,Australia/Brisbane,2019-05-22
Surfers Paradise,AU,QLD,AUSFP,SFP,Surfers Paradise,,-28.0027,153.4300,Australia/Brisbane,2019-07-18
Southport,AU,QLD,AUSHQ,SHQ,Southport,,-27.9672,153.3980,Australia/Brisbane,2019-07-18
Shepparton,AU,VIC,AUSHT,SHT,Shepparton,,-36.3805,145.3987,Australia/Melbourne,2019-07-18
Sydney,AU,NSW,AUSYD,SYD,Sydney,3351S 15112E,-33.8678,151.2073,Australia/Sydney,2019-09-05
Traralgon,AU,VIC,AUTGN,TGN,Traralgon,,-38.1953,146.5415,Australia/Melbourne,2019-07-18
Tamworth,AU,NSW,AUTMW,TMW,Tamworth,,-31.0905,150.9290,Australia/Sydney,2019-07-21
Taree,AU,NSW,AUTRO,TRO,Taree,,-31.9110,152.4539,Australia/Sydney,2019-07-18
Townsville,AU,QLD,AUTSV,TSV,Townsville,,-19.2664,146.8057,Australia/Brisbane,2013-06-25
Toowoomba,AU,QLD,AUTWB,TWB,Toowoomba,,-27.5606,151.9539,Australia/Brisbane,2013-06-25
Wangaratta,AU,VIC,AUWGT,WGT,Wangaratta,,-36.3585,146.3206,Australia/Melbourne,2019-07-18
Warrnambool,AU,VIC,AUWMB,WMB,Warrnambool,,-38.3818,142.4880,Australia/Melbourne,2019-07-18
Wollongong,AU,NSW,AUWOL,WOL,Wollongong,,-34.4240,150.8935,Australia/Sydney,2019-09-05
Maarianhamina (Mariehamn),AX,,AXMHQ,MHQ,Mariehamn,6006N 01957E,60.0973,19.9348,Europe/Mariehamn,2018-08-17
Baku,AZ,,AZBAK,BAK,Baku,,40.3777,49.8920,Asia/Baku,2019-09-05
Gyandzha,AZ,,AZKVD,KVD,Ganja,,40.6828,46.3606,Asia/Baku,2017-07-08
Naxcivan,AZ,NX,AZNAJ,NAJ,Nakhchivan,3912N 04514E,39.2089,45.4122,Asia/Baku,2018-07-21
Banja Luka,BA,SRP,BABNX,BNX,Banja Luka,4446N 01711E,44.7784,17.1939,Europe/Sarajevo,2019-09-05
Mostar,BA,,BAOMO,OMO,Mostar,,43.3433,17.8081,Europe/Sarajevo,2018-12-29
Sarajevo,BA,09,BASJJ,SJJ,Sarajevo,4351N 01823E,43.8486,18.3564,Europe/Sarajevo,2019-09-05
Tuzla,BA,,BATZL,TZL,Tuzla,4432N 01840E,44.5384,18.6671,Europe/Sarajevo,2019-09-05
Bridgetown,BB,,BBBGI,BGI,Bridgetown,,13.1073,-59.6202,America/Barbados,2016-10-28
Barisal,BD,,BDBZL,BZL,Barishal,,22.7050,90.3701,Asia/Dhaka,2020-08-13
Chattogram,BD,10,BDCGP,CGP,Chattogram,2220N 09150E,22.3384,91.8317,Asia/Dhaka,2020-08-12
Cumilla,BD,,BDCLA,CLA,Comilla,,23.4619,91.1850,Asia/Dhaka,2016-11-09
Cox's Bazar,BD,,BDCXB,CXB,Cox's Bazar,2126N 09159E,21.4397,92.0096,Asia/Dhaka,2017-04-04
Dhaka,BD,13,BDDAC,DAC,Dhaka,2410N 09025E,23.7104,90.4074,Asia/Dhaka,2020-03-18
Ishurdi,BD,,BDIRD,IRD,Ishurdi,,24.1286,89.0657,Asia/Dhaka,2020-05-28
Jashore,BD,,BDJSR,JSR,Jessore,,23.1697,89.2137,Asia/Dhaka,2016-11-09
Rangpur,BD,,BDRAU,RAU,Rangpur,,25.7466,89.2517,Asia/Dhaka,2016-11-09
Rajshahi,BD,,BDRJH,RJH,Rajshahi,,24.3740,88.6011,Asia/Dhaka,2020-06-10
Sirajganj,BD,,BDSAJ,SAJ,Sirajganj,,24.4577,89.7080,Asia/Dhaka,2017-05-04
Saidpur,BD,,BDSPD,SPD,Saidpur,,25.7777,88.8917,Asia/Dhaka,2013-07-20
Thakurgaon,BD,,BDTKR,TKR,Thakurgaon,,26.0310,88.4699,Asia/Dhaka,2020-06-10
Sylhet,BD,,BDZYL,ZYL,Sylhet,,24.8990,91.8720,Asia/Dhaka,2016-11-09
Antwerpen,BE,VAN,BEANR,ANR,Antwerpen,5113N 00425E,51.2205,4.4003,Europe/Brussels,2019-12-17
Brussel (Bruxelles),BE,BRU,BEBRU,BRU,Brussels,5050N 00420E,50.8505,4.3488,Europe/Brussels,2020-05-28
Gent (Ghent),BE,VOV,BEGNE,GNE,Gent,5103N 00343E,51.0500,3.7167,Europe/Brussels,2019-09-05
Kortrijk,BE,VWV,BEKJK,KJK,Kortrijk,5050N 00316E,50.8280,3.2649,Europe/Brussels,2019-09-05
Liège,BE,WLG,BELGG,LGG,Liege,5038N 00534E,50.6337,5.5675,Europe/Brussels,2019-09-05
Oostende (Ostend),BE,VWV,BEOST,OST,Ostend,5112N 00255E,51.2155,2.9270,Europe/Brussels,2014-10-30
Banfora,BF,,BFBNR,BNR,Banfora,,10.6333,-4.7667,Africa/Ouagadougou,2012-01-18
Bobo-Dioulasso,BF,HOU,BFBOY,BOY,Bobo-Dioulasso,1112N 00418W,11.1771,-4.2979,Africa/Ouagadougou,2017-05-21
Dédougou,BF,,BFDGU,DGU,Dedougou,1228N 00328W,12.4634,-3.4607,Africa/Ouagadougou,2020-06-10
Diapaga,BF,,BFDIP,DIP,Diapaga,,12.0731,1.7884,Africa/Ouagadougou,2012-06-05
Dori,BF,,BFDOR,DOR,Dori,,14.0341,-0.0326,Africa/Ouagadougou,2020-07-09
Fada-Ngourma,BF,,BFFNG,FNG,Fada N'gourma,1204N 00021E,12.0616,0.3584,Africa/Ouagadougou,2013-05-18
Ouagadougou,BF,,BFOUA,OUA,Ouagadougou,,12.3657,-1.5339,Africa/Ouagadougou,2019-09-05
Ouahigouya,BF,,BFOUG,OUG,Ouahigouya,,13.5828,-2.4216,Africa/Ouagadougou,2010-08-10
Po,BF,,BFPUP,PUP,Po,,11.1697,-1.1450,Africa/Ouagadougou,2017-05-21
Tenkodogo,BF,,BFTEG,TEG,Tenkodogo,,11.7800,-0.3697,Africa/Ouagadougou,2012-01-18
Tougan,BF,,BFTUQ,TUQ,Tougan,,13.0725,-3.0694,Africa/Ouagadougou,2012-06-05
Burgas,BG,,BGBOJ,BOJ,Burgas,,42.5061,27.4678,Europe/Sofia,2019-09-05
Gorna Oryakhovitsa,BG,,BGGOZ,GOZ,Gorna Oryahovitsa,4308N 02542E,43.1278,25.7017,Europe/Sofia,2018-12-05
Haskovo,BG,,BGHKV,HKV,Haskovo,,41.9342,25.5556,Europe/Sofia,2019-09-05
Jambol,BG,,BGJAM,JAM,Yambol,,42.4833,26.5000,Europe/Sofia,2017-01-30
Plovdiv,BG,,BGPDV,PDV,Plovdiv,,42.1500,24.7500,Europe/Sofia,2016-02-07
Silistra,BG,,BGSLS,SLS,Silistra,,44.1171,27.2606,Europe/Sofia,2019-12-10
Sofia,BG,22,BGSOF,SOF,Sofia,4241N 02319E,42.6975,23.3241,Europe/Sofia,2019-09-05
Stara Zagora,BG,,BGSZR,SZR,Stara Zagora,,42.4328,25.6419,Europe/Sofia,2019-09-05
Targovishte,BG,25,BGTGV,TGV,Targovishte,4315N 02635E,43.2512,26.5722,Europe/Sofia,2013-06-10
Varna,BG,,BGVAR,VAR,Varna,,43.2167,27.9167,Europe/Sofia,2019-09-05
Bujumbura,BI,,BIBJM,BJM,Bujumbura,,-3.3819,29.3614,Africa/Bujumbura,2019-09-05
Gitega,BI,,BIGID,GID,Gitega,,-3.4271,29.9246,Africa/Bujumbura,2019-05-10
Cotonou,BJ,,BJCOO,COO,Cotonou,,6.3654,2.4183,Africa/Porto-Novo,2019-09-05
Djougou,BJ,,BJDJA,DJA,Djougou,,9.7085,1.6660,Africa/Porto-Novo,2013-08-17
Kandi,BJ,,BJKDC,KDC,Kandi,,11.1342,2.9386,Africa/Porto-Novo,2012-01-18
Natitingou,BJ,,BJNAE,NAE,Natitingou,,10.3042,1.3796,Africa/Porto-Novo,2012-01-18
Parakou,BJ,,BJPKO,PKO,Parakou,,9.3372,2.6303,Africa/Porto-Novo,2012-01-18
Savé,BJ,,BJSVF,SVF,Save,0802N 00229E,8.0342,2.4866,Africa/Porto-Novo,2013-05-18
Hamilton,BM,,BMBDA,BDA,Hamilton,,32.2949,-64.7830,Atlantic/Bermuda,2019-09-05
Bandar Seri Begawan,BN,BM,BNBWN,BWN,Bandar Seri Begawan,0453N 11456E,4.8903,114.9401,Asia/Brunei,2019-09-05
Kuala Belait,BN,,BNKUB,KUB,Kuala Belait,,4.5836,114.2312,Asia/Brunei,2013-06-27
Ascensión,BO,S,BOASC,ASC,Ascencion de Guarayos,1542S 06305W,-15.8930,-63.1885,America/La_Paz,2017-12-13
Bermejo,BO,T,BOBJO,BJO,Bermejo,2239S 06422W,-22.7321,-64.3372,America/La_Paz,2017-12-14
Yacuiba,BO,T,BOBYC,BYC,Yacuiba,2202S 06341W,-22.0164,-63.6775,America/La_Paz,2014-11-30
Camiri,BO,S,BOCAM,CAM,Camiri,2006S 06332W,-20.0385,-63.5183,America/La_Paz,2013-01-11
Cochabamba,BO,C,BOCBB,CBB,Cochabamba,1723S 06609W,-17.3895,-66.1568,America/La_Paz,2012-01-19
Cobija,BO,N,BOCIJ,CIJ,Cobija,1102S 06844W,-11.0267,-68.7692,America/La_Paz,2010-08-21
Guayaramerín,BO,B,BOGYA,GYA,Guayaramerin,1048S 06523W,-10.8258,-65.3581,America/La_Paz,2017-10-02
La Paz,BO,L,BOLPB,LPB,La Paz,1630S 06809W,-16.5000,-68.1500,America/La_Paz,2019-09-05
Oruro,BO,O,BOORU,ORU,Oruro,1759S 06709W,-17.9833,-67.1500,America/La_Paz,2012-01-18
Potosí,BO,P,BOPOI,POI,Potosi,1935S 06545W,-19.5836,-65.7531,America/La_Paz,2020-06-10
Riberalta,BO,B,BORIB,RIB,Riberalta,1059S 06606W,-11.0065,-66.0631,America/La_Paz,2016-12-21
San Ignacio de Velasco,BO,S,BOSNG,SNG,San Ignacio de Velasco,1622S 06057W,-16.3667,-60.9500,America/La_Paz,2017-05-08
Sucre,BO,H,BOSRE,SRE,Sucre,1902S 06515W,-19.0333,-65.2627,America/La_Paz,2019-09-05
San Borja,BO,B,BOSRJ,SRJ,San Borja,1449S 06651W,-14.8520,-66.7495,America/La_Paz,2020-01-24
Santa Cruz,BO,L,BOSRZ,SRZ,Santa Cruz de la Sierra,1747S 06311W,-17.7863,-63.1812,America/La_Paz,2016-11-04
Trinidad,BO,B,BOTDD,TDD,Trinidad,1450S 06454W,-14.8333,-64.9000,America/La_Paz,2014-06-02
Tarija,BO,T,BOTJA,TJA,Tarija,2131S 06445W,-21.5355,-64.7296,America/La_Paz,2010-01-29
Villamontes,BO,T,BOVLM,VLM,Villamontes,2115S 06330W,-21.2624,-63.4690,America/La_Paz,2013-01-11
Araxá,BR,MG,BRAAX,AAX,Araxa,1935S 04655W,-19.5933,-46.9406,America/Sao_Paulo,2017-09-21
Assis,BR,SP,BRAIF,AIF,Assis,,-22.6617,-50.4122,America/Sao_Paulo,2016-03-07
Aracaju,BR,SE,BRAJU,AJU,Aracaju,,-10.9111,-37.0717,America/Maceio,2019-09-05
Alegrete,BR,RS,BRALQ,ALQ,Alegrete,,-29.7831,-55.7919,America/Sao_Paulo,2013-05-19
Alenquer,BR,PA,BRALT,ALT,Alenquer,,-1.9417,-54.7383,America/Santarem,2012-08-03
Almenara,BR,MG,BRAMJ,AMJ,Almenara,,-16.1836,-40.6944,America/Sao_Paulo,2012-08-03
Arapiraca,BR,AL,BRAPQ,APQ,Arapiraca,,-9.7525,-36.6611,America/Maceio,2012-08-03
Anápolis,BR,GO,BRAPS,APS,Anapolis,1620S 04858W,-16.3267,-48.9528,America/Sao_Paulo,2012-08-03
Apucarana,BR,PR,BRAPU,APU,Apucarana,,-23.5508,-51.4608,America/Sao_Paulo,2012-08-03
Arapongas,BR,PR,BRAPX,APX,Arapongas,,-23.4194,-51.4244,America/Sao_Paulo,2020-02-22
Araraquara,BR,SP,BRAQA,AQA,Araraquara,,-21.7944,-48.1756,America/Sao_Paulo,2013-12-01
Ariquemes,BR,RO,BRAQM,AQM,Ariquemes,,-9.9133,-63.0408,America/Porto_Velho,2017-09-18
Aragarças,BR,GO,BRARS,ARS,Aragarcas,1555S 05215W,-15.8975,-52.2508,America/Sao_Paulo,2017-07-20
Araçatuba,BR,SP,BRARU,ARU,Aracatuba,2112S 05025W,-21.2089,-50.4328,America/Sao_Paulo,2016-10-13
Altamira,BR,PA,BRATM,ATM,Altamira,,-3.2033,-52.2064,America/Santarem,2012-08-03
Araguaína,BR,TO,BRAUX,AUX,Araguaina,0712S 04812W,-7.1911,-48.2072,America/Araguaina,2014-01-01
Barretos,BR,SP,BRBAT,BAT,Barretos,,-20.5572,-48.5678,America/Sao_Paulo,2012-08-03
Barra do Corda,BR,MA,BRBDC,BDC,Barra do Corda,0530S 04515W,-5.5056,-45.2433,America/Fortaleza,2017-06-07
Belem,BR,PA,BRBEL,BEL,Belem,0127S 04830W,-1.4558,-48.5044,America/Belem,2014-05-12
Bento Gonçalves,BR,RS,BRBGV,BGV,Bento Goncalves,2910S 05131W,-29.1714,-51.5192,America/Sao_Paulo,2017-06-07
Bagé,BR,RS,BRBGX,BGX,Bage,3120S 05406W,-31.3314,-54.1069,America/Sao_Paulo,2017-06-14
Belo Horizonte,BR,MG,BRBHZ,BHZ,Belo Horizonte,,-19.9208,-43.9378,America/Sao_Paulo,2019-09-05
Braganca Paulista,BR,SP,BRBJP,BJP,Braganca Paulista,2257S 04632W,-22.9527,-46.5442,America/Sao_Paulo,2015-06-20
Brumado,BR,BA,BRBMS,BMS,Brumado,,-14.2036,-41.6653,America/Bahia,2012-08-03
Blumenau,BR,SC,BRBNU,BNU,Blumenau,,-26.9194,-49.0661,America/Sao_Paulo,2012-03-10
Barra do Garças,BR,MT,BRBPG,BPG,Barra do Garcas,1553S 05215W,-15.8900,-52.2567,America/Cuiaba,2014-04-12
Porto Seguro,BR,BA,BRBPS,BPS,Porto Seguro,,-16.4497,-39.0647,America/Bahia,2012-08-03
Barra,BR,BA,BRBQQ,BQQ,Barra,,-11.0894,-43.1417,America/Bahia,2012-08-03
Barreiras,BR,BA,BRBRA,BRA,Barreiras,,-12.1528,-44.9900,America/Bahia,2012-08-03
Barreirinhas,BR,MA,BRBRB,BRB,Barreirinhas,0246S 04250W,-2.7556,-42.8259,America/Fortaleza,2013-04-01
Brasília,BR,DF,BRBSB,BSB,Brasilia,1547S 04755W,-15.7797,-47.9297,America/Sao_Paulo,2019-09-05
Balsas,BR,MA,BRBSS,BSS,Balsas,,-7.5325,-46.0356,America/Fortaleza,2015-10-27
Boa Vista,BR,RR,BRBVB,BVB,Boa Vista,,2.8197,-60.6733,America/Boa_Vista,2017-07-06
Breves,BR,PA,BRBVS,BVS,Breves,0140S 05029W,-1.6822,-50.4803,America/Belem,2012-08-03
Cascavel,BR,PR,BRCAC,CAC,Cascavel,,-24.9558,-53.4553,America/Sao_Paulo,2012-08-03
Carauari,BR,AM,BRCAF,CAF,Carauari,,-4.8828,-66.8958,America/Manaus,2012-08-03
Caruaru,BR,PE,BRCAU,CAU,Caruaru,,-8.2833,-35.9761,America/Recife,2012-03-10
Campos,BR,RJ,BRCAW,CAW,Campos dos Goytacazes,,-21.7523,-41.3304,America/Sao_Paulo,2016-11-28
Campo Mourao,BR,PR,BRCBW,CBW,Campo Mourao,2403S 05222W,-24.0431,-52.3793,America/Sao_Paulo,2017-02-12
Camaçari,BR,BA,BRCCI,CCI,Concordia,1242S 03820W,-27.2342,-52.0278,America/Sao_Paulo,2017-08-15
Criciúma,BR,SC,BRCCM,CCM,Criciuma,2842S 04923W,-28.6775,-49.3697,America/Sao_Paulo,2017-02-26
Cachoeira,BR,BA,BRCCQ,CCQ,Cachoeira,,-12.6014,-38.9658,America/Bahia,2016-03-26
Cachoeiro de Itapemirim,BR,ES,BRCDI,CDI,Cachoeiro de Itapemirim,2051S 04107W,-20.8489,-41.1128,America/Sao_Paulo,2020-03-15
Conceição do Araguaia,BR,PA,BRCDJ,CDJ,Conceicao do Araguaia,0814S 04917W,-8.2644,-49.2698,America/Belem,2015-06-13
Coronel Fabriciano,BR,MG,BRCFB,CFB,Cabo Frio,1932S 04238W,-22.8872,-42.0262,America/Sao_Paulo,2020-03-21
Cacador,BR,SC,BRCFC,CFC,Cacador,2646S 05101W,-26.7753,-51.0150,America/Sao_Paulo,2013-05-16
Cuiabá,BR,MT,BRCGB,CGB,Cuiaba,1535S 05605W,-15.5961,-56.0967,America/Cuiaba,2010-01-21
Campo Grande,BR,MS,BRCGR,CGR,Campo Grande,,-20.4428,-54.6464,America/Campo_Grande,2019-09-05
Coari,BR,AM,BRCIZ,CIZ,Coari,,-4.0850,-63.1414,America/Manaus,2013-07-22
Cornélio Procópio,BR,PR,BRCKO,CKO,Cornelio Procopio,2308S 05039W,-23.1811,-50.6467,America/Sao_Paulo,2017-07-02
Carajás Apt/Parauapebas,BR,PA,BRCKS,CKS,Parauapebas,0607S 05000W,-6.0675,-49.9022,America/Belem,2019-07-21
Carolina,BR,MA,BRCLN,CLN,Carolina,,-7.3356,-47.4622,America/Fortaleza,2014-01-01
Caldas Novas,BR,GO,BRCLV,CLV,Caldas Novas,,-17.7443,-48.6279,America/Sao_Paulo,2014-10-22
Camocim,BR,CE,BRCMC,CMC,Camocim,,-2.9022,-40.8411,America/Fortaleza,2012-08-03
Corumba,BR,MS,BRCMG,CMG,Corumba,,-19.0092,-57.6533,America/Campo_Grande,2012-08-03
Candido Mota,BR,SP,BRCMT,CMT,Cameta,,-2.2444,-49.4958,America/Belem,2017-06-02
Canavieiras,BR,BA,BRCNV,CNV,Canavieiras,,-15.6750,-38.9472,America/Bahia,2012-08-03
Campinas,BR,SP,BRCPQ,CPQ,Campinas,,-22.9056,-47.0608,America/Sao_Paulo,2019-09-05
Cururupu,BR,MA,BRCPU,CPU,Cururupu,,-1.8283,-44.8683,America/Fortaleza,2012-08-03
Campina Grande,BR,PB,BRCPV,CPV,Campina Grande,,-7.2306,-35.8811,America/Fortaleza,2012-08-03
Cassilândia,BR,MS,BRCSS,CSS,Cassilandia,1909S 05145W,-19.1133,-51.7342,America/Campo_Grande,2017-02-13
Curitiba,BR,PR,BRCWB,CWB,Curitiba,2526S 04916W,-25.4278,-49.2731,America/Sao_Paulo,2019-09-05
Caxias do Sul,BR,RS,BRCXJ,CXJ,Caxias do Sul,,-29.1681,-51.1794,America/Sao_Paulo,2012-08-03
Cruz Alta,BR,RS,BRCZB,CZB,Cruz Alta,,-28.6440,-53.6063,America/Sao_Paulo,2017-07-22
Cruzeiro do Sul,BR,AC,BRCZS,CZS,Cruzeiro do Sul,,-7.6276,-72.6776,America/Rio_Branco,2014-07-24
Diamantino,BR,MT,BRDMT,DMT,Diamantino,,-14.4086,-56.4461,America/Cuiaba,2012-08-03
Dourados,BR,MS,BRDOU,DOU,Dourados,,-22.2211,-54.8056,America/Campo_Grande,2014-01-08
Duartina,BR,SP,BRDTI,DTI,Diamantina,2223S 04925W,-18.2469,-43.6035,America/Sao_Paulo,2015-06-13
Erechim,BR,RS,BRERM,ERM,Erechim,,-27.6346,-52.2754,America/Sao_Paulo,2014-12-23
Eirunepé,BR,AM,BRERN,ERN,Eirunepe,0640S 06952W,-6.6603,-69.8736,America/Eirunepe,2017-09-10
Espinosa,BR,MG,BRESI,ESI,Espinosa,,-14.9261,-42.8192,America/Sao_Paulo,2012-08-03
Francisco Beltrao,BR,PR,BRFBE,FBE,Francisco Beltrao,2605S 05304W,-26.0811,-53.0550,America/Sao_Paulo,2017-05-07
Feira de Santana,BR,BA,BRFEC,FEC,Feira de Santana,,-12.2667,-38.9667,America/Bahia,2017-06-05
Floriano,BR,PI,BRFLB,FLB,Floriano,,-6.7669,-43.0225,America/Fortaleza,2012-08-03
Florianópolis,BR,SC,BRFLN,FLN,Florianopolis,2735S 04834W,-27.5967,-48.5492,America/Sao_Paulo,2017-12-05
Fortaleza,BR,CE,BRFOR,FOR,Fortaleza,,-3.7172,-38.5431,America/Fortaleza,2019-09-05
Franca,BR,SP,BRFRC,FRC,Franca,,-20.5386,-47.4008,America/Sao_Paulo,2012-03-10
Santo Angelo,BR,RS,BRGEL,GEL,Santo Angelo,,-28.2992,-54.2631,America/Sao_Paulo,2013-05-01
Guajará-Mirim,BR,RO,BRGJM,GJM,Guajara Mirim,1048S 06522W,-10.7836,-65.3355,America/Porto_Velho,2017-10-02
Guanambi,BR,BA,BRGNM,GNM,Guanambi,,-14.2233,-42.7814,America/Bahia,2012-08-03
Guarulhos Apt/São Paulo,BR,SP,BRGRU,GRU,Guarulhos,2326S 04629W,-23.4628,-46.5333,America/Sao_Paulo,2017-12-12
Guarujá,BR,SP,BRGUJ,GUJ,Guaratingueta,2400S 04615W,-22.8164,-45.1925,America/Sao_Paulo,2017-09-19
Governador Valadares,BR,MG,BRGVR,GVR,Governador Valadares,,-18.8511,-41.9494,America/Sao_Paulo,2012-08-03
Goiânia,BR,GO,BRGYN,GYN,Goiania,1640S 04916W,-16.6786,-49.2539,America/Sao_Paulo,2010-01-21
Foz do Iguaçu,BR,PR,BRIGU,IGU,Foz do Iguacu,2533S 05435W,-25.5478,-54.5881,America/Sao_Paulo,2016-10-28
Ijuí,BR,RS,BRIJU,IJU,Ijui,2823S 05355W,-28.3878,-53.9147,America/Sao_Paulo,2017-06-17
Imperatriz,BR,MA,BRIMP,IMP,Imperatriz,,-5.5264,-47.4917,America/Fortaleza,2012-08-03
Ilheus,BR,BA,BRIOS,IOS,Ilheus,,-14.7936,-39.0395,America/Bahia,2015-06-03
Ipatinga,BR,MG,BRIPN,IPN,Ipatinga,,-19.4683,-42.5367,America/Sao_Paulo,2012-08-03
Ipiaú,BR,BA,BRIPU,IPU,Ipiau,1408S 03944W,-14.1345,-39.7395,America/Bahia,2017-06-01
Irecê,BR,BA,BRIRE,IRE,Irece,1118S 04152W,-11.3042,-41.8558,America/Bahia,2017-06-26
Itabuna,BR,BA,BRITA,ITA,Itacoatiara,1447S 03916W,-3.1431,-58.4442,America/Manaus,2012-08-03
Itaituba,BR,PA,BRITB,ITB,Itaituba,,-4.2761,-55.9836,America/Santarem,2013-07-22
Ituberá,BR,BA,BRITE,ITE,Itubera,1344S 03909W,-13.7354,-39.1478,America/Bahia,2017-04-24
Itabaiana,BR,PB,BRITN,ITN,Itabuna,0720S 03520W,-14.7856,-39.2803,America/Bahia,2012-08-03
Itaperuna,BR,RJ,BRITP,ITP,Itaperuna,,-21.2050,-41.8878,America/Sao_Paulo,2017-03-02
Itaqui,BR,RS,BRITQ,ITQ,Itaqui,,-29.1253,-56.5531,America/Sao_Paulo,2012-08-03
Itumbiara,BR,GO,BRITR,ITR,Itumbiara,,-18.4192,-49.2153,America/Sao_Paulo,2012-08-03
Joaçaba,BR,SC,BRJCB,JCB,Joacaba,2710S 05130W,-27.1781,-51.5047,America/Sao_Paulo,2015-06-27
Jacobina,BR,BA,BRJCM,JCM,Jacobina,,-11.1814,-40.5137,America/Bahia,2014-12-26
Juiz de Fora,BR,MG,BRJDF,JDF,Juiz de Fora,2145S 04321W,-21.7642,-43.3503,America/Sao_Paulo,2013-05-09
Jandaíra,BR,RN,BRJDR,JDR,Sao Joao del Rei,0521S 03607W,-21.1356,-44.2617,America/Sao_Paulo,2013-10-22
Jequié,BR,BA,BRJEQ,JEQ,Jequie,1351S 04005W,-13.8588,-40.0851,America/Bahia,2017-09-08
Jales,BR,SP,BRJLS,JLS,Jales,,-20.2689,-50.5458,America/Sao_Paulo,2012-08-03
Januária,BR,MG,BRJNA,JNA,Januaria,1529S 04422W,-15.4887,-44.3599,America/Sao_Paulo,2017-08-15
Joinville,BR,SC,BRJOI,JOI,Joinville,,-26.3044,-48.8456,America/Sao_Paulo,2012-08-03
Joao Pessoa,BR,PB,BRJPA,JPA,Joao Pessoa,0707S 03452W,-7.1150,-34.8631,America/Fortaleza,2019-09-05
Ji-Paraná,BR,RO,BRJPR,JPR,Ji Parana,1050S 06158W,-10.8853,-61.9517,America/Porto_Velho,2013-05-30
Jatai,BR,GO,BRJTI,JTI,Jatai,,-17.8794,-51.7217,America/Sao_Paulo,2015-05-23
Lages,BR,SC,BRLAJ,LAJ,Lages,,-27.8161,-50.3261,America/Sao_Paulo,2012-08-03
Londrina,BR,PR,BRLDB,LDB,Londrina,,-23.3103,-51.1628,America/Sao_Paulo,2012-03-10
Leopoldina,BR,MG,BRLEP,LEP,Leopoldina,,-21.5319,-42.6431,America/Sao_Paulo,2012-08-03
Lins,BR,SP,BRLIP,LIP,Lins,,-21.6786,-49.7425,America/Sao_Paulo,2012-03-10
Livramento,BR,RS,BRLVB,LVB,Santana do Livramento,,-30.8908,-55.5328,America/Sao_Paulo,2017-07-07
Marabá,BR,PA,BRMAB,MAB,Maraba,0521S 04907W,-5.3815,-49.1323,America/Belem,2015-11-22
Manaus,BR,AM,BRMAO,MAO,Manaus,,-3.1019,-60.0250,America/Manaus,2019-02-26
Maués,BR,AM,BRMBZ,MBZ,Maues,0324S 05742W,-3.3836,-57.7186,America/Manaus,2017-09-02
Santana Pt./Macapá,BR,AP,BRMCP,MCP,Macapa,0003S 05110W,0.0389,-51.0664,America/Belem,2012-08-03
Maceió,BR,AL,BRMCZ,MCZ,Maceio,0940S 03543W,-9.6658,-35.7353,America/Maceio,2010-01-21
Macaé,BR,RJ,BRMEA,MEA,Macae,2223S 04147W,-22.3848,-41.7832,America/Sao_Paulo,2017-05-07
Maringá,BR,PR,BRMGF,MGF,Maringa,2325S 05155W,-23.4253,-51.9386,America/Sao_Paulo,2012-03-10
Marília,BR,SP,BRMII,MII,Marilia,2213S 04956W,-22.2139,-49.9458,America/Sao_Paulo,2012-03-10
Montes Claros,BR,MG,BRMOC,MOC,Montes Claros,,-16.7350,-43.8617,America/Sao_Paulo,2012-08-03
Minacu,BR,GO,BRMQH,MQH,Minacu,,-13.5331,-48.2200,America/Sao_Paulo,2019-07-21
Monte Alegre,BR,PA,BRMTE,MTE,Monte Alegre,,-2.0008,-54.0810,America/Santarem,2020-03-15
Mossoró,BR,RN,BRMVF,MVF,Mossoro,0511S 03721W,-5.1875,-37.3442,America/Fortaleza,2012-08-03
Mucuri,BR,BA,BRMVS,MVS,Mucuri,,-18.0864,-39.5508,America/Bahia,2017-08-31
Natal,BR,RN,BRNAT,NAT,Natal,,-5.7950,-35.2094,America/Fortaleza,2019-02-27
Nanuque,BR,MG,BRNNU,NNU,Nanuque,1750S 04021W,-17.8392,-40.3539,America/Sao_Paulo,2012-08-03
Niquelândia,BR,GO,BRNQL,NQL,Niquelandia,1427S 04827W,-14.4739,-48.4597,America/Sao_Paulo,2017-08-08
Navegantes,BR,SC,BRNVT,NVT,Navegantes,2654S 04839W,-26.8989,-48.6542,America/Sao_Paulo,2012-08-03
Obidos,BR,PA,BROBI,OBI,Obidos,0155S 05531W,-1.9175,-55.5181,America/Santarem,2017-08-04
Sinop,BR,MT,BROPS,OPS,Sinop,,-11.8642,-55.5025,America/Cuiaba,2013-01-09
Oriximiná,BR,PA,BRORX,ORX,Oriximina,0146S 05552W,-1.7656,-55.8661,America/Santarem,2016-12-03
Ourinhos,BR,SP,BROUS,OUS,Ourinhos,,-22.9789,-49.8706,America/Sao_Paulo,2012-08-03
Paulo Afonso,BR,BA,BRPAV,PAV,Paulo Afonso,,-9.4061,-38.2147,America/Bahia,2012-08-03
Paranaiba,BR,MS,BRPBB,PBB,Paranaiba,,-19.6772,-51.1908,America/Campo_Grande,2017-08-12
Pimenta Bueno,BR,RO,BRPBQ,PBQ,Pimenta Bueno,,-11.6725,-61.1936,America/Porto_Velho,2012-08-03
Picos,BR,PI,BRPCS,PCS,Picos,,-7.0769,-41.4669,America/Fortaleza,2013-11-23
Prado,BR,BA,BRPDF,PDF,Prado,,-17.3411,-39.2208,America/Bahia,2012-08-03
Presidente Dutra,BR,MA,BRPDR,PDR,Presidente Dutra,,-5.2900,-44.4900,America/Fortaleza,2017-07-21
Pelotas,BR,RS,BRPET,PET,Pelotas,,-31.7700,-52.3410,America/Sao_Paulo,2018-12-05
Passo Fundo,BR,RS,BRPFB,PFB,Passo Fundo,,-28.2628,-52.4067,America/Sao_Paulo,2012-08-03
Ponta Grossa,BR,PR,BRPGZ,PGZ,Ponta Grossa,,-25.0950,-50.1619,America/Sao_Paulo,2012-08-03
Parnaíba,BR,PI,BRPHB,PHB,Parnaiba,0255S 04146W,-2.9047,-41.7767,America/Fortaleza,2017-08-28
Pinheiro,BR,MA,BRPHI,PHI,Pinheiro,,-2.5214,-45.0825,America/Fortaleza,2012-08-03
Parintins,BR,AM,BRPIN,PIN,Parintins,,-2.6283,-56.7358,America/Manaus,2012-08-03
Pirapora,BR,MG,BRPIV,PIV,Pirapora,,-17.3450,-44.9419,America/Sao_Paulo,2017-08-18
Ponta Pora,BR,MS,BRPMG,PMG,Ponta Pora,2232S 05543W,-22.5361,-55.7256,America/Campo_Grande,2017-05-07
Palmas,BR,TO,BRPMW,PMW,Palmas,,-10.1675,-48.3277,America/Araguaina,2013-10-22
Paranaguá,BR,PR,BRPNG,PNG,Paranagua,2531S 04830W,-25.5163,-48.5254,America/Sao_Paulo,2014-12-28
Petrolina,BR,PE,BRPNZ,PNZ,Petrolina,,-9.3986,-40.5008,America/Recife,2012-08-03
Pôrto Alegre,BR,RS,BRPOA,POA,Porto Alegre,,-30.0328,-51.2302,America/Sao_Paulo,2019-09-05
Patos de Minas,BR,MG,BRPOJ,POJ,Patos de Minas,,-18.5789,-46.5181,America/Sao_Paulo,2017-03-25
Poços de Caldas,BR,MG,BRPOO,POO,Pocos de Caldas,2148S 04634W,-21.7878,-46.5614,America/Sao_Paulo,2017-03-01
Passos,BR,MG,BRPSW,PSW,Passos,,-20.7189,-46.6097,America/Sao_Paulo,2012-08-03
Pato Branco,BR,PR,BRPTO,PTO,Pato Branco,,-26.2286,-52.6706,America/Sao_Paulo,2012-08-03
Pôrto Velho,BR,RO,BRPVH,PVH,Porto Velho,,-8.7619,-63.9039,America/Porto_Velho,2012-08-03
Paranavaí,BR,PR,BRPVI,PVI,Paranavai,2304S 05228W,-23.0731,-52.4653,America/Sao_Paulo,2017-07-24
Sobral,BR,CE,BRQBX,QBX,Sobral,,-3.6861,-40.3497,America/Fortaleza,2013-12-28
Botucatu,BR,SP,BRQCJ,QCJ,Botucatu,,-22.8858,-48.4450,America/Sao_Paulo,2012-03-10
Canela,BR,RS,BRQCN,QCN,Canela,,-29.3562,-50.8136,America/Sao_Paulo,2014-10-24
Guarulhos,BR,SP,BRQCV,QCV,Guarulhos,2329S 04632W,-23.4628,-46.5333,America/Sao_Paulo,2017-12-12
Sao Caetano do Sul,BR,SP,BRQCX,QCX,Sao Caetano do Sul,2336S 04634W,-23.6231,-46.5511,America/Sao_Paulo,2014-11-03
Piracicaba,BR,SP,BRQHB,QHB,Piracicaba,,-22.7253,-47.6492,America/Sao_Paulo,2012-03-10
Osasco,BR,SP,BRQOC,QOC,Osasco,,-23.5325,-46.7917,America/Sao_Paulo,2012-09-27
Resende,BR,RJ,BRQRZ,QRZ,Resende,2228S 04427W,-22.4689,-44.4467,America/Sao_Paulo,2020-03-21
Sao Bernardo do Campo,BR,SP,BRQSB,QSB,Sao Bernardo do Campo,2342S 04633W,-23.6939,-46.5650,America/Sao_Paulo,2014-03-05
Sao Carlos,BR,SP,BRQSC,QSC,Sao Carlos,,-22.0175,-47.8908,America/Sao_Paulo,2013-04-14
Quata,BR,SP,BRQTA,QTA,Atibaia,,-23.1169,-46.5503,America/Sao_Paulo,2017-09-02
Ribeirao Prêto,BR,SP,BRRAO,RAO,Ribeirao Preto,2110S 04748W,-21.1775,-47.8103,America/Sao_Paulo,2015-06-04
Rio Branco,BR,AC,BRRBR,RBR,Rio Branco,,-9.9747,-67.8100,America/Rio_Branco,2012-08-03
Redenção,BR,PA,BRRDC,RDC,Redencao,0802S 05002W,-8.0286,-50.0314,America/Belem,2019-07-21
Recife,BR,PE,BRREC,REC,Recife,,-8.0539,-34.8811,America/Recife,2019-09-05
Santa Maria,BR,RS,BRRIA,RIA,Santa Maria,,-29.6842,-53.8069,America/Sao_Paulo,2012-03-10
Rio Grande,BR,RS,BRRIG,RIG,Rio Grande,,-32.0350,-52.0986,America/Sao_Paulo,2016-06-13
Rio de Janeiro,BR,RJ,BRRIO,RIO,Rio de Janeiro,2253S 04314W,-22.9064,-43.1822,America/Sao_Paulo,2019-09-05
Rondonópolis,BR,MT,BRROO,ROO,Rondonopolis,1628S 05438W,-16.4708,-54.6356,America/Cuiaba,2012-08-03
Rio Verde,BR,GO,BRRVD,RVD,Rio Verde,,-17.7981,-50.9281,America/Sao_Paulo,2019-07-21
São Paulo,BR,SP,BRSAO,SAO,Sao Paulo,2334S 04634W,-23.5475,-46.6361,America/Sao_Paulo,2019-07-12
São Joaquim de Bicas,BR,MG,BRSBC,SBC,Sao Bernardo do Campo,2002S 04416W,-23.6939,-46.5650,America/Sao_Paulo,2014-03-05
São Mateus,BR,ES,BRSBJ,SBJ,Sao Mateus,1843S 03951W,-18.7201,-39.8589,America/Sao_Paulo,2013-12-31
Senhor do Bonfim,BR,BA,BRSEI,SEI,Senhor do Bonfim,,-10.4614,-40.1894,America/Bahia,2017-05-02
Santo Estevao,BR,BA,BRSET,SET,Serra Talhada,1242S 03836W,-7.9919,-38.2983,America/Recife,2018-05-27
Soure,BR,PA,BRSFK,SFK,Soure,,-0.7167,-48.5233,America/Belem,2012-08-03
Santa Fé do Sul,BR,SP,BRSFV,SFV,Santa Fe do Sul,2013S 05056W,-20.2111,-50.9258,America/Sao_Paulo,2017-08-13
Sao Joao do Caiua,BR,PR,BRSJC,SJC,Sao Jose dos Campos,,-23.1794,-45.8869,America/Sao_Paulo,2017-01-19
Sao José dos Campos,BR,SP,BRSJK,SJK,Sao Jose dos Campos,2311S 04553W,-23.1794,-45.8869,America/Sao_Paulo,2017-01-19
Sao Gabriel da Cachoeira,BR,AM,BRSJL,SJL,Sao Gabriel da Cachoeira,0008S 06705W,-0.1181,-67.0853,America/Manaus,2017-09-16
Sao José do Rio Prêto,BR,SP,BRSJP,SJP,Sao Jose do Rio Preto,2048S 04923W,-20.8197,-49.3794,America/Sao_Paulo,2012-03-10
São Luís,BR,MA,BRSLZ,SLZ,Sao Luis,0230S 04418W,-2.5297,-44.3028,America/Fortaleza,2017-12-27
Sorocaba,BR,SP,BRSOD,SOD,Sorocaba,,-23.5017,-47.4581,America/Sao_Paulo,2012-03-10
Sao Miguel do Araguaia,BR,GO,BRSQM,SQM,Sao Miguel do Araguaia,1319S 05013W,-13.2750,-50.1628,America/Sao_Paulo,2017-08-24
Sao Lourenço do Sul,BR,RS,BRSQY,SQY,Sao Lourenco do Sul,3122S 05158W,-31.3653,-51.9783,America/Sao_Paulo,2017-04-23
Santa Rosa,BR,RS,BRSRA,SRA,Santa Rosa,,-27.8708,-54.4814,America/Sao_Paulo,2012-08-03
Salvador,BR,BA,BRSSA,SSA,Salvador,,-12.9711,-38.5108,America/Bahia,2014-05-11
São Sebastião,BR,SP,BRSSO,SSO,Sao Lourenco,,-22.1164,-45.0544,America/Sao_Paulo,2013-10-22
Santos,BR,SP,BRSSZ,SSZ,Santos,2357S 04620W,-23.9608,-46.3336,America/Sao_Paulo,2019-09-05
Santarém,BR,PA,BRSTM,STM,Santarem,0226S 05443W,-2.4431,-54.7083,America/Santarem,2013-12-25
Tabatinga,BR,AM,BRTBT,TBT,Tabatinga,,-4.2312,-69.9386,America/Manaus,2014-07-24
Telêmaco Borba,BR,PR,BRTEC,TEC,Telemaco Borba,2421S 05037W,-24.3239,-50.6156,America/Sao_Paulo,2017-07-12
Tefé,BR,AM,BRTFF,TFF,Tefe,0322S 06442W,-3.3684,-64.7205,America/Manaus,2014-08-03
Teófilo Otoni,BR,MG,BRTFL,TFL,Teofilo Otoni,1751S 04130W,-17.8575,-41.5053,America/Sao_Paulo,2017-07-18
Teresina,BR,PI,BRTHE,THE,Teresina,0506S 04248W,-5.0892,-42.8019,America/Fortaleza,2019-09-05
Catalao,BR,GO,BRTLZ,TLZ,Catalao,1810S 04757W,-18.1658,-47.9464,America/Sao_Paulo,2017-09-23
Toledo,BR,PR,BRTOW,TOW,Toledo,,-24.7136,-53.7431,America/Sao_Paulo,2013-09-27
Tarauacá,BR,AC,BRTRQ,TRQ,Tarauaca,0810S 07046W,-8.1614,-70.7656,America/Rio_Branco,2013-04-21
Tucuruí,BR,PA,BRTUR,TUR,Tucurui,0342S 04942W,-3.7658,-49.6792,America/Belem,2014-08-17
Uberaba,BR,MG,BRUBA,UBA,Uberaba,,-19.7483,-47.9319,America/Sao_Paulo,2012-08-03
Ubatuba,BR,SP,BRUBT,UBT,Ubatuba,,-23.4339,-45.0711,America/Sao_Paulo,2013-12-28
Uberlândia,BR,MG,BRUDI,UDI,Uberlandia,1855S 04818W,-18.9186,-48.2772,America/Sao_Paulo,2015-08-15
Umuarama,BR,PR,BRUMU,UMU,Umuarama,,-23.7664,-53.3250,America/Sao_Paulo,2016-08-03
Una,BR,BA,BRUNA,UNA,Una,,-15.2933,-39.0753,America/Bahia,2013-06-30
Uruguaiana,BR,RS,BRURG,URG,Uruguaiana,,-29.7547,-57.0883,America/Sao_Paulo,2012-08-03
Varginha,BR,MG,BRVAG,VAG,Varginha,,-21.5514,-45.4303,America/Sao_Paulo,2012-08-03
Valenca,BR,BA,BRVAL,VAL,Valenca,,-13.3703,-39.0731,America/Bahia,2014-04-19
Vila do Conde Pt/Barcarena,BR,PA,BRVDC,VDC,Vitoria da Conquista,0132S 04844W,-14.8661,-40.8394,America/Bahia,2012-08-03
Videira,BR,SC,BRVIA,VIA,Videira,,-27.0083,-51.1517,America/Sao_Paulo,2012-08-03
Vitória Pt,BR,ES,BRVIX,VIX,Vitoria,2019S 04020W,-20.3194,-40.3378,America/Sao_Paulo,2012-08-03
Votuporanga,BR,SP,BRVOT,VOT,Votuporanga,,-20.4228,-49.9728,America/Sao_Paulo,2012-08-03
Xinguara,BR,PA,BRXIG,XIG,Xinguara,,-7.0983,-49.9435,America/Belem,2019-07-21
Freeport", Grand Bahama,BS,,BSFPO,FPO,Freeport,,26.5333,-78.7000,America/Nassau,2019-02-26
Nassau,BS,,BSNAS,NAS,Nassau,2505N 07721W,25.0582,-77.3431,America/Nassau,2019-09-05
Francistown,BW,NE,BWFRW,FRW,Francistown,2110S 02731E,-21.1700,27.5078,Africa/Gaborone,2019-09-05
Gaborone,BW,,BWGBE,GBE,Gaborone,2440S 02555E,-24.6545,25.9086,Africa/Gaborone,2019-09-05
Lobatse,BW,,BWLOQ,LOQ,Lobatse,,-25.2244,25.6773,Africa/Gaborone,2018-01-24
Maun,BW,,BWMUB,MUB,Maun,,-19.9833,23.4167,Africa/Gaborone,2019-09-05
Selebi-Phikwe,BW,,BWPKW,PKW,Selebi-Phikwe,,-21.9790,27.8430,Africa/Gaborone,2018-01-24
Brest,BY,,BYBQT,BQT,Brest,,52.0975,23.6878,Europe/Minsk,2017-05-07
Gomel,BY,,BYGME,GME,Homyel',,52.4345,30.9754,Europe/Minsk,2019-09-05
Grodna,BY,,BYGNA,GNA,Hrodna,,53.6884,23.8258,Europe/Minsk,2019-09-05
Minsk,BY,MI,BYMSQ,MSQ,Minsk,5354N 02734E,53.9000,27.5667,Europe/Minsk,2019-09-05
Mogilev,BY,,BYMVQ,MVQ,Mahilyow,,53.9168,30.3449,Europe/Minsk,2017-12-04
Vitebsk,BY,,BYVTB,VTB,Vitebsk,,55.1904,30.2049,Europe/Minsk,2018-10-27
Belize City,BZ,,BZBZE,BZE,Belize City,,17.4995,-88.1976,America/Belize,2013-09-27
Orange Walk,BZ,,BZORZ,ORZ,Orange Walk,,18.0812,-88.5633,America/Belize,2017-12-25
San Ignacio,BZ,CY,BZSQS,SQS,San Ignacio,1709N 08904W,17.1588,-89.0696,America/Belize,2016-10-16
Duncan/Quam,CA,BC,CADUQ,DUQ,Duncan,4847N 12343W,48.7829,-123.7027,America/Vancouver,2019-02-26
Florence,CA,ON,CAXFL,XFL,Shawinigan,4234N 08159W,46.5667,-72.7491,America/Toronto,2019-08-08
Bagotville Apt,CA,QC,CAYBG,YBG,Saguenay,,48.4168,-71.0657,America/Toronto,2016-06-22
Brandon,CA,MB,CAYBR,YBR,Brandon,4950N 09957W,49.8469,-99.9531,America/Winnipeg,2010-01-29
Amos,CA,QC,CAYEY,YEY,Amos,,48.5669,-78.1162,America/Toronto,2019-03-18
Halifax Apt,CA,NS,CAYHZ,YHZ,Halifax,,44.6464,-63.5729,America/Halifax,2019-09-23
Saint-Jean,CA,QC,CAYJN,YJN,Saint-Jean-sur-Richelieu,4519N 07315W,45.3071,-73.2626,America/Toronto,2016-06-22
Lloydminster,CA,AB,CAYLL,YLL,Lloydminster,5316N 10959W,53.2724,-110.0226,America/Edmonton,2019-08-08
Lytton,CA,BC,CAYLY,YLY,Langley,,49.1011,-122.6588,America/Vancouver,2019-02-26
Moose Jaw,CA,SK,CAYMJ,YMJ,Moose Jaw,5024N 10533W,50.4001,-105.5345,America/Regina,2013-09-22
Fort McMurray,CA,AB,CAYMM,YMM,Fort McMurray,5644N 11123W,56.7268,-111.3810,America/Edmonton,2011-10-08
Ottawa Apt,CA,ON,CAYOW,YOW,Ottawa,4519N 07539W,45.4112,-75.6981,America/Toronto,2019-09-05
Quebec Apt,CA,QC,CAYQB,YQB,Quebec,,46.8123,-71.2145,America/Toronto,2019-09-05
Red Deer,CA,AB,CAYQF,YQF,Red Deer,5216N 11348W,52.2668,-113.8020,America/Edmonton,2008-04-11
Kenora,CA,ON,CAYQK,YQK,Kenora,,49.7674,-94.4899,America/Winnipeg,2018-01-20
Regina Apt,CA,SK,CAYQR,YQR,Regina,,50.4501,-104.6178,America/Regina,2019-09-05
Grande Prairie,CA,AB,CAYQU,YQU,Grande Prairie,,55.1667,-118.8027,America/Edmonton,2019-09-05
Yorkton,CA,SK,CAYQV,YQV,Yorkton,,51.2167,-102.4677,America/Regina,2013-10-06
North Battleford,CA,SK,CAYQW,YQW,North Battleford,,52.7797,-108.2967,America/Regina,2013-10-06
Saint-John Apt,CA,NB,CAYSJ,YSJ,Saint John,4515N 06602W,45.2708,-66.0562,America/Moncton,2019-12-02
Alma,CA,QC,CAYTF,YTF,Alma,,48.5501,-71.6491,America/Toronto,2016-06-22
Metropolitan Area Apt/Toronto,CA,ON,CAYTO,YTO,Toronto,,43.7001,-79.4163,America/Toronto,2019-09-05
Timmins,CA,ON,CAYTS,YTS,Timmins,,48.4669,-81.3331,America/Toronto,2017-11-12
Rouyn-Noranda,CA,QC,CAYUY,YUY,Rouyn-Noranda,4814N 07901W,48.2366,-79.0231,America/Toronto,2019-08-08
Val-d'Or,CA,QC,CAYVO,YVO,Val-d'Or,4807N 07746W,48.0974,-77.7974,America/Toronto,2019-08-08
Vancouver Apt,CA,BC,CAYVR,YVR,Vancouver,,49.2497,-123.1193,America/Vancouver,2019-09-05
Petawawa,CA,ON,CAYWA,YWA,Petawawa,,45.8945,-77.2801,America/Toronto,2013-10-26
Winnipeg Apt,CA,MB,CAYWG,YWG,Winnipeg,,49.8844,-97.1470,America/Winnipeg,2019-09-05
Cranbrook,CA,BC,CAYXC,YXC,Cranbrook,,49.4999,-115.7688,America/Edmonton,2019-02-26
Saskatoon John G. Diefenbaker Apt,CA,SK,CAYXE,YXE,Saskatoon,5210N 10642W,52.1324,-106.6689,America/Regina,2019-09-05
Medicine Hat,CA,AB,CAYXH,YXH,Medicine Hat,5002N 11040W,50.0393,-110.6766,America/Edmonton,2016-04-02
Terrace,CA,BC,CAYXT,YXT,Terrace,,54.5163,-128.6035,America/Vancouver,2019-02-26
Whitehorse,CA,YT,CAYXY,YXY,Whitehorse,,60.7161,-135.0538,America/Whitehorse,2019-09-05
Calgary Apt,CA,AB,CAYYC,YYC,Calgary,,51.0501,-114.0853,America/Edmonton,2019-09-05
Penticton,CA,BC,CAYYF,YYF,Penticton,4930N 11935W,49.4806,-119.5858,America/Vancouver,2019-02-26
Saint-Johns-Apt,CA,NL,CAYYT,YYT,St. John's,4737N 05245W,47.5649,-52.7093,America/St_Johns,2019-09-05
Yellowknife,CA,NT,CAYZF,YZF,Yellowknife,,62.4541,-114.3725,America/Yellowknife,2019-09-05
Gbadolite,CD,,CDBDT,BDT,Gbadolite,,4.2790,21.0028,Africa/Kinshasa,2016-11-22
Bukavu,CD,,CDBKY,BKY,Bukavu,,-2.4908,28.8428,Africa/Lubumbashi,2015-05-25
Bumba,CD,,CDBMB,BMB,Bumba,,2.1877,22.4683,Africa/Kinshasa,2016-11-22
Boende,CD,,CDBNB,BNB,Boende,,-0.2816,20.8805,Africa/Kinshasa,2016-11-22
Beni,CD,,CDBNC,BNC,Beni,,0.4911,29.4731,Africa/Lubumbashi,2018-08-24
Boma,CD,,CDBOA,BOA,Boma,,-5.8510,13.0536,Africa/Kinshasa,2019-02-28
Bunia,CD,,CDBUX,BUX,Bunia,,1.5594,30.2522,Africa/Lubumbashi,2016-11-22
Buta,CD,,CDBZU,BZU,Buta,,2.7858,24.7300,Africa/Lubumbashi,2017-07-10
Lubumbashi,CD,,CDFBM,FBM,Lubumbashi,,-11.6609,27.4794,Africa/Lubumbashi,2019-09-05
Bandundu,CD,,CDFDU,FDU,Bandundu,,-3.3169,17.3806,Africa/Kinshasa,2016-11-22
Kinshasa,CD,,CDFIH,FIH,Kinshasa,,-4.3276,15.3136,Africa/Kinshasa,2020-05-28
Kisangani,CD,,CDFKI,FKI,Kisangani,,0.5153,25.1910,Africa/Lubumbashi,2016-11-22
Kalemie,CD,,CDFMI,FMI,Kalemie,,-5.9475,29.1947,Africa/Lubumbashi,2016-11-28
Gandajika,CD,,CDGDJ,GDJ,Gandajika,,-6.7450,23.9533,Africa/Lubumbashi,2015-01-07
Gemena,CD,,CDGMA,GMA,Gemena,,3.2565,19.7723,Africa/Kinshasa,2012-04-05
Goma,CD,,CDGOM,GOM,Goma,,-1.6741,29.2284,Africa/Lubumbashi,2012-12-05
Inongo,CD,,CDINO,INO,Inongo,,-1.9275,18.2881,Africa/Kinshasa,2016-11-22
Isiro,CD,,CDIRP,IRP,Isiro,,2.7739,27.6160,Africa/Lubumbashi,2019-02-28
Kabinda,CD,,CDKBN,KBN,Kabinda,,-6.1379,24.4818,Africa/Lubumbashi,2013-06-09
Kabalo,CD,,CDKBO,KBO,Kabalo,,-6.0526,26.9143,Africa/Lubumbashi,2016-11-29
Kananga,CD,,CDKGA,KGA,Kananga,,-5.8962,22.4166,Africa/Lubumbashi,2016-12-31
Kasongo-Lunda,CD,,CDKGN,KGN,Kasongo-Lunda,0628S 01649E,-6.4783,16.8174,Africa/Kinshasa,2016-11-22
Kikwit,CD,,CDKKW,KKW,Kikwit,,-5.0410,18.8162,Africa/Kinshasa,2017-07-10
Kamina,CD,,CDKMN,KMN,Kamina,,-8.7351,24.9980,Africa/Lubumbashi,2016-11-22
Kindu,CD,,CDKND,KND,Kindu,,-2.9437,25.9224,Africa/Lubumbashi,2013-02-08
Kongolo,CD,,CDKOO,KOO,Kongolo,,-5.3853,27.0003,Africa/Lubumbashi,2016-11-22
Kolwezi,CD,,CDKWZ,KWZ,Kolwezi,,-10.7148,25.4667,Africa/Lubumbashi,2016-11-28
Lusambo,CD,,CDLBO,LBO,Lusambo,,-4.9750,23.4439,Africa/Lubumbashi,2016-11-22
Libenge,CD,,CDLIE,LIE,Libenge,,3.6533,18.6357,Africa/Kinshasa,2016-11-22
Lisala,CD,,CDLIQ,LIQ,Lisala,,2.1513,21.5167,Africa/Kinshasa,2012-05-31
Lodja,CD,,CDLJA,LJA,Lodja,,-3.5210,23.6005,Africa/Lubumbashi,2016-11-22
Matadi,CD,,CDMAT,MAT,Matadi,,-5.8386,13.4631,Africa/Kinshasa,2019-09-05
Mbandaka,CD,,CDMDK,MDK,Mbandaka,,0.0486,18.2603,Africa/Kinshasa,2016-12-30
Mweka,CD,,CDMEW,MEW,Mweka,,-4.8519,21.5595,Africa/Lubumbashi,2016-11-22
Mbuji-Mayi,CD,,CDMJM,MJM,Mbuji-Mayi,0609S 02336E,-6.1360,23.5898,Africa/Lubumbashi,2012-06-11
Moanda,CD,,CDMNB,MNB,Moanda,,-5.9275,12.3715,Africa/Kinshasa,2017-09-01
Nioki,CD,,CDNIO,NIO,Nioki,,-2.7204,17.6900,Africa/Kinshasa,2016-11-22
Ilebo,CD,,CDPFR,PFR,Ilebo,,-4.3311,20.5864,Africa/Lubumbashi,2017-07-10
Tshikapa,CD,,CDTSH,TSH,Tshikapa,,-6.4162,20.7999,Africa/Lubumbashi,2016-11-28
Yangambi,CD,,CDYAN,YAN,Yangambi,,0.7675,24.4397,Africa/Lubumbashi,2016-11-29
Berbérati,CF,,CFBBT,BBT,Berberati,0416N 01547E,4.2612,15.7922,Africa/Bangui,2017-04-17
Bambari,CF,,CFBBY,BBY,Bambari,,5.7679,20.6757,Africa/Bangui,2016-06-22
Bangui,CF,,CFBGF,BGF,Bangui,,4.3612,18.5550,Africa/Bangui,2016-06-22
Bangassou,CF,,CFBGU,BGU,Bangassou,,4.7413,22.8184,Africa/Bangui,2017-04-17
Bria,CF,,CFBIV,BIV,Bria,,6.5423,21.9863,Africa/Bangui,2016-06-22
Bouar,CF,,CFBOP,BOP,Bouar,,5.9340,15.5960,Africa/Bangui,2016-06-22
Bozoum,CF,,CFBOZ,BOZ,Bozoum,,6.3193,16.3799,Africa/Bangui,2016-06-22
Bossangoa,CF,,CFBSN,BSN,Bossangoa,,6.4926,17.4552,Africa/Bangui,2016-06-22
Batangafo,CF,,CFBTG,BTG,Batangafo,,7.3008,18.2833,Africa/Bangui,2016-06-22
Carnot,CF,,CFCRF,CRF,Carnot,,4.9427,15.8773,Africa/Bangui,2016-06-22
Brazzaville,CG,,CGBZV,BZV,Brazzaville,,-4.2661,15.2832,Africa/Brazzaville,2012-04-25
Loubomo,CG,,CGDIS,DIS,Dolisie,,-4.1983,12.6666,Africa/Brazzaville,2013-04-22
Owando Apt,CG,,CGFTX,FTX,Owando,0058S 01600E,-0.4819,15.8999,Africa/Brazzaville,2011-10-27
Gamboma,CG,,CGGMM,GMM,Gamboma,,-1.8764,15.8644,Africa/Brazzaville,2012-05-05
Impfondo,CG,,CGION,ION,Impfondo,,1.6180,18.0598,Africa/Brazzaville,2013-05-08
Mossendjo,CG,,CGMSX,MSX,Mossendjo,,-2.9497,12.7042,Africa/Brazzaville,2013-05-09
Ouesso,CG,,CGOUE,OUE,Ouesso,,1.6136,16.0517,Africa/Brazzaville,2019-01-12
Pointe Noire,CG,16,CGPNR,PNR,Pointe-Noire,0448S 01151E,-4.7761,11.8635,Africa/Brazzaville,2019-01-09
Sibiti,CG,2,CGSIB,SIB,Sibiti,0341S 01320E,-3.6819,13.3498,Africa/Brazzaville,2011-10-26
Bern,CH,BE,CHBRN,BRN,Bern,,46.9481,7.4474,Europe/Zurich,2019-09-18
Basel,CH,BS,CHBSL,BSL,Basel,,47.5584,7.5733,Europe/Zurich,2020-03-21
Genève,CH,GE,CHGVA,GVA,Geneve,,46.2022,6.1457,Europe/Zurich,2019-09-05
Lugano,CH,TI,CHLUG,LUG,Lugano,,46.0101,8.9600,Europe/Zurich,2019-09-05
Neuchâtel,CH,NE,CHQNC,QNC,Neuchatel,4700N 00656E,46.9918,6.9310,Europe/Zurich,2019-09-10
Sion,CH,VS,CHSIR,SIR,Sitten,4615N 00721E,46.2274,7.3556,Europe/Zurich,2019-09-05
Vevey,CH,VD,CHZKZ,ZKZ,Vevey,,46.4630,6.8434,Europe/Zurich,2019-09-11
Zug,CH,ZG,CHZLM,ZLM,Zug,,47.1724,8.5175,Europe/Zurich,2018-08-28
Zurich,CH,ZH,CHZRH,ZRH,Zurich,,47.3667,8.5500,Europe/Zurich,2019-09-05
Abidjan,CI,AB,CIABJ,ABJ,Abidjan,0520N 00401W,5.3544,-4.0017,Africa/Abidjan,2020-07-02
Aboisso,CI,,CIABO,ABO,Aboisso,0528N 00312W,5.4678,-3.2071,Africa/Abidjan,2016-05-18
Yamoussoukro,CI,,CIASK,ASK,Yamoussoukro,,6.8205,-5.2767,Africa/Abidjan,2019-09-05
Bondoukou,CI,,CIBDK,BDK,Bondoukou,,8.0402,-2.8000,Africa/Abidjan,2012-02-28
Bouna,CI,,CIBQO,BQO,Bouna,0916N 00300W,9.2693,-2.9951,Africa/Abidjan,2016-12-03
Boundiali,CI,,CIBXI,BXI,Boundiali,0931N 00629W,9.5217,-6.4869,Africa/Abidjan,2016-12-03
Bouaké,CI,,CIBYK,BYK,Bouake,,7.6939,-5.0303,Africa/Abidjan,2020-06-10
Dimbokro,CI,,CIDIM,DIM,Dimbokro,0639N 00440W,6.6468,-4.7052,Africa/Abidjan,2014-01-10
Divo,CI,,CIDIV,DIV,Divo,0550N 00521W,5.8374,-5.3572,Africa/Abidjan,2016-05-18
Daloa,CI,,CIDJO,DJO,Daloa,,6.8773,-6.4502,Africa/Abidjan,2016-05-18
Gagnoa,CI,,CIGGN,GGN,Gagnoa,0608N 00556W,6.1319,-5.9506,Africa/Abidjan,2016-05-18
Guiglo,CI,,CIGGO,GGO,Guiglo,0632N 00729W,6.5437,-7.4935,Africa/Abidjan,2016-12-03
Korhogo,CI,,CIHGO,HGO,Korhogo,,9.4580,-5.6296,Africa/Abidjan,2017-12-28
Odienné,CI,,CIKEO,KEO,Odienne,0930N 00734W,9.5051,-7.5643,Africa/Abidjan,2017-04-23
Katiola,CI,,CIKTC,KTC,Katiola,0939N 00737W,8.1373,-5.1010,Africa/Abidjan,2016-12-18
Man,CI,,CIMJC,MJC,Man,,7.4125,-7.5538,Africa/Abidjan,2012-01-17
Abengourou,CI,,CIOGO,OGO,Abengourou,,6.7297,-3.4964,Africa/Abidjan,2016-05-21
San-Pédro,CI,09,CISPY,SPY,San-Pedro,0444N 00637W,4.7485,-6.6363,Africa/Abidjan,2019-02-26
Touba,CI,,CITOZ,TOZ,Touba,0816N 00740W,8.2833,-7.6833,Africa/Abidjan,2016-05-22
Tabou,CI,,CITXU,TXU,Tabou,,4.4230,-7.3528,Africa/Abidjan,2016-12-03
Sassandra,CI,,CIZSS,ZSS,Sassandra,,4.9538,-6.0853,Africa/Abidjan,2013-05-11
Rarotonga,CK,,CKRAR,RAR,Avarua,,-21.2075,-159.7755,Pacific/Rarotonga,2019-09-05
Antofagasta,CL,AN,CLANF,ANF,Antofagasta,2338S 07023W,-23.6524,-70.3954,America/Santiago,2013-01-11
Arica,CL,AP,CLARI,ARI,Arica,1829S 07019W,-18.4746,-70.2979,America/Santiago,2012-12-05
Concepción,CL,BI,CLCCP,CCP,Concepcion,3649S 07303W,-36.8270,-73.0498,America/Santiago,2019-09-05
Calama,CL,AN,CLCJC,CJC,Calama,2227S 06855W,-22.4567,-68.9237,America/Santiago,2018-02-06
Copiapó,CL,AT,CLCPO,CPO,Copiapo,2721S 07020W,-27.3668,-70.3314,America/Santiago,2013-01-11
Iquique,CL,TA,CLIQQ,IQQ,Iquique,2013S 07008W,-20.2133,-70.1503,America/Santiago,2018-02-28
Viña del Mar,CL,VS,CLKNA,KNA,Vina del Mar,3259S 07133W,-33.0246,-71.5518,America/Santiago,2017-02-20
La Serena,CL,CO,CLLSC,LSC,La Serena,2953S 07114W,-29.9045,-71.2489,America/Santiago,2013-01-11
Los Ángeles,CL,BI,CLLSQ,LSQ,Los Angeles,3727S 07221W,-37.4697,-72.3537,America/Santiago,2020-06-10
Ovalle,CL,CO,CLOVL,OVL,Ovalle,3035S 07112W,-30.6011,-71.1990,America/Santiago,2018-02-06
Puerto Montt,CL,LL,CLPMC,PMC,Puerto Montt,4128S 07257W,-41.4693,-72.9424,America/Santiago,2017-12-11
Puerto Natales,CL,MA,CLPNT,PNT,Puerto Natales,5143S 07230W,-51.7299,-72.5060,America/Punta_Arenas,2017-12-16
Punta Arenas,CL,MA,CLPUQ,PUQ,Punta Arenas,5308S 07056W,-53.1548,-70.9113,America/Punta_Arenas,2019-09-05
Rancagua,CL,LI,CLQRC,QRC,Rancagua,3409S 07043W,-34.1708,-70.7444,America/Santiago,2012-05-03
Santiago,CL,RM,CLSCL,SCL,Santiago,3327S 07038W,-33.4569,-70.6483,America/Santiago,2020-05-28
Talca,CL,ML,CLTLX,TLX,Talca,3525S 07139W,-35.4264,-71.6554,America/Santiago,2019-09-05
Tocopilla,CL,AN,CLTOQ,TOQ,Tocopilla,2205S 07011W,-22.0920,-70.1979,America/Santiago,2018-02-06
Valparaiso,CL,VS,CLVAP,VAP,Valparaiso,3302S 07138W,-33.0360,-71.6296,America/Santiago,2019-09-05
Vallenar,CL,AT,CLVLR,VLR,Vallenar,2834S 07045W,-28.5762,-70.7594,America/Santiago,2018-02-06
Castro,CL,LL,CLWCA,WCA,Castro,4228S 07346W,-42.4721,-73.7732,America/Santiago,2012-05-03
Puerto Aisén,CL,AI,CLWPA,WPA,Puerto Aysen,4523S 07242W,-45.4030,-72.6918,America/Santiago,2020-06-10
Chillán,CL,BI,CLYAI,YAI,Chillan,3636S 07206W,-36.6066,-72.1034,America/Santiago,2018-11-28
Valdivia,CL,LL,CLZAL,ZAL,Valdivia,3949S 07313W,-39.8142,-73.2459,America/Santiago,2019-09-05
Temuco,CL,AR,CLZCO,ZCO,Temuco,3843S 07234W,-38.7396,-72.5984,America/Santiago,2013-01-11
Victoria,CL,AR,CLZIC,ZIC,Victoria,3814S 07219W,-38.2329,-72.3329,America/Santiago,2013-01-11
Osorno,CL,LL,CLZOS,ZOS,Osorno,4034S 07309W,-40.5740,-73.1335,America/Santiago,2018-02-06
Pucón Apt,CL,AR,CLZPC,ZPC,Pucon,3917S 07154W,-39.2822,-71.9543,America/Santiago,2019-10-05
Ancud,CL,LL,CLZUD,ZUD,Ancud,4151S 07350W,-41.8707,-73.8162,America/Santiago,2013-01-11
Bafoussam,CM,,CMBFX,BFX,Bafoussam,,5.4778,10.4176,Africa/Douala,2013-09-05
Bali,CM,,CMBLC,BLC,Bali,,5.8874,10.0118,Africa/Douala,2014-06-04
Bamenda,CM,,CMBPC,BPC,Bamenda,0556N 01010E,5.9597,10.1460,Africa/Douala,2014-06-04
Bertoua,CM,,CMBTA,BTA,Bertoua,0435N 01341E,4.5773,13.6846,Africa/Douala,2012-04-07
Douala,CM,,CMDLA,DLA,Douala,,4.0483,9.7043,Africa/Douala,2019-09-05
Dschang,CM,,CMDSC,DSC,Dschang,,5.4440,10.0533,Africa/Douala,2013-07-04
Ebolowa,CM,,CMEBW,EBW,Ebolowa,,2.9000,11.1500,Africa/Douala,2020-06-10
Foumban,CM,,CMFOM,FOM,Foumban,0543N 01055E,5.7266,10.8986,Africa/Douala,2014-06-04
Garoua,CM,NO,CMGOU,GOU,Garoua,0918N 01324E,9.3014,13.3977,Africa/Douala,2014-01-08
Yagoua,CM,,CMGXX,GXX,Yagoua,1021N 01514E,10.3411,15.2329,Africa/Douala,2012-01-16
Kribi,CM,,CMKBI,KBI,Kribi,,2.9373,9.9077,Africa/Douala,2018-05-29
Kaele,CM,,CMKLE,KLE,Kaele,1007N 01426E,10.1092,14.4508,Africa/Douala,2018-11-02
Mamfe,CM,,CMMMF,MMF,Mamfe,,5.7513,9.3137,Africa/Douala,2015-01-28
Maroua,CM,,CMMVR,MVR,Maroua,,10.5909,14.3159,Africa/Douala,2012-01-16
Ngaoundéré,CM,AD,CMNGE,NGE,Ngaoundere,0719N 01335E,7.3277,13.5847,Africa/Douala,2013-10-22
Nkongsamba,CM,,CMNKS,NKS,Nkongsamba,0456N 00956E,4.9547,9.9404,Africa/Douala,2012-01-16
Batouri,CM,,CMOUR,OUR,Batouri,,4.4333,14.3667,Africa/Douala,2012-01-16
Tiko,CM,,CMTKC,TKC,Tiko,,4.0750,9.3600,Africa/Douala,2014-10-06
Yaoundé,CM,CE,CMYAO,YAO,Yaounde,0352N 01131E,3.8667,11.5167,Africa/Douala,2019-09-05
Altay,CN,XJ,CNAAT,AAT,Altay,4752N 08807E,47.8486,88.1336,Asia/Urumqi,2015-01-03
Ankang Wulipu Apt,CN,SN,CNAKA,AKA,Ankang,,32.6800,109.0172,Asia/Shanghai,2019-02-11
Aksu,CN,XJ,CNAKU,AKU,Aksu,3840N 07540E,41.1842,80.2792,Asia/Urumqi,2017-07-21
Anshan Teng'ao Apt,CN,LN,CNAOG,AOG,Anshan,4110N 12302E,41.1236,122.9900,Asia/Shanghai,2018-12-06
Anqing Pt,CN,AH,CNAQG,AQG,Anqing,3031N 11702E,30.5136,117.0472,Asia/Shanghai,2016-04-08
Beihai Fucheng Apt,CN,GX,CNBHY,BHY,Beihai,2132N 10917E,21.4833,109.1000,Asia/Shanghai,2012-01-18
Beijing,CN,BJ,CNBJS,BJS,Beijing,3955N 11624E,39.9075,116.3972,Asia/Shanghai,2019-09-05
Bangda,CN,XZ,CNBPX,BPX,Qamdo,3033N 09707E,31.1304,97.1798,Asia/Shanghai,2013-04-03
Guangzhou Baiyun International Apt,CN,GD,CNCAN,CAN,Guangzhou,,23.1167,113.2500,Asia/Shanghai,2020-05-28
Changde,CN,HN,CNCGD,CGD,Changde,2902N 11151E,29.0321,111.6984,Asia/Shanghai,2020-02-10
Zhengzhou Xinzheng International Apt,CN,HA,CNCGO,CGO,Zhengzhou,,34.7578,113.6486,Asia/Shanghai,2019-02-26
Changchun Longjia International Apt,CN,JL,CNCGQ,CGQ,Changchun,,43.8800,125.3228,Asia/Shanghai,2019-09-05
Chenghai,CN,GD,CNCHG,CHG,Chaoyang,,41.5703,120.4586,Asia/Shanghai,2018-12-06
Ulanhad Tuchengcity Apt,CN,NM,CNCIF,CIF,Chifeng,,42.2683,118.9636,Asia/Shanghai,2013-04-12
Chongqing Jiangbei International Apt,CN,CQ,CNCKG,CKG,Chongqing,,29.5628,106.5528,Asia/Shanghai,2019-09-19
Changsha Huanghua International Apt,CN,HN,CNCSX,CSX,Changsha,,28.1987,112.9709,Asia/Shanghai,2019-02-26
Chengdu Shuangliu International Apt,CN,SC,CNCTU,CTU,Chengdu,,30.6667,104.0667,Asia/Shanghai,2019-02-26
Changzhou Pt,CN,JS,CNCZX,CZX,Changzhou,3147N 11958E,31.7736,119.9540,Asia/Shanghai,2012-10-06
Datong,CN,SX,CNDAT,DAT,Datong,4006N 11317E,40.0936,113.2914,Asia/Shanghai,2012-01-18
Daxie Pt,CN,ZJ,CNDAX,DAX,Dazhou,2953N 12157E,31.2159,107.5009,Asia/Shanghai,2018-12-06
Dandong Pt,CN,LN,CNDDG,DDG,Dandong,,40.1292,124.3947,Asia/Shanghai,2018-12-06
Deqing,CN,GD,CNDEQ,DEQ,Deqing,2309N 11145E,30.5449,119.9599,Asia/Shanghai,2020-01-08
Deyang,CN,SC,CNDEY,DEY,Deyang,3108N 10424E,31.1302,104.3820,Asia/Shanghai,2015-08-29
Danzhou,CN,GX,CNDHU,DHU,Zhuzhou,2522N 10926E,27.8333,113.1500,Asia/Shanghai,2018-12-06
Dalian Zhoushuizi International Apt,CN,LN,CNDLC,DLC,Dalian,,38.9122,121.6022,Asia/Shanghai,2018-12-06
Dali Apt,CN,YN,CNDLU,DLU,Dali,,25.5847,100.2123,Asia/Shanghai,2013-04-03
Dongshan Pt,CN,FJ,CNDSN,DSN,Dongsheng,,39.8161,109.9776,Asia/Shanghai,2017-10-31
Zhangjiajie Hehua International Apt,CN,HN,CNDYG,DYG,Zhangjiajie,2906N 11026E,29.1294,110.4783,Asia/Shanghai,2012-01-18
Enshi Xujiaping Apt,CN,HB,CNENH,ENH,Enshi,,30.3000,109.4833,Asia/Shanghai,2018-12-06
Fuzhou Changle International Apt,CN,FJ,CNFOC,FOC,Fuzhou,,26.0614,119.3061,Asia/Shanghai,2019-02-26
Foshan Apt,CN,GD,CNFUO,FUO,Foshan,,23.0268,113.1315,Asia/Shanghai,2014-08-17
Guangyuan Panlong Apt,CN,SC,CNGYS,GYS,Guangyuan,,32.4420,105.8230,Asia/Shanghai,2013-11-24
Haikou Meilan International Apt,CN,HI,CNHAK,HAK,Haikou,,20.0458,110.3417,Asia/Shanghai,2019-09-05
Huadu Pt,CN,GD,CNHDG,HDG,Handan,,36.6006,114.4678,Asia/Shanghai,2012-01-18
Heihe,CN,HL,CNHEK,HEK,Heihe,5014N 12729E,50.2441,127.4902,Asia/Shanghai,2017-07-21
Hohhot Baita International Apt,CN,NM,CNHET,HET,Hohhot,,40.8106,111.6522,Asia/Shanghai,2017-07-21
Hefei Xinqiao International Apt,CN,AH,CNHFE,HFE,Hefei,,31.8639,117.2808,Asia/Shanghai,2019-02-26
Hangzhou Xiaoshan International Apt,CN,ZJ,CNHGH,HGH,Hangzhou,,30.2936,120.1614,Asia/Shanghai,2019-09-05
Huai'an,CN,JS,CNHIA,HIA,Huai'an,3330N 11908E,33.5886,119.0192,Asia/Shanghai,2018-11-23
Huaihua Zhijiang Apt,CN,HN,CNHJJ,HJJ,Huaihua,,27.5634,110.0040,Asia/Shanghai,2018-12-06
Hulunbuir Hailar Apt,CN,NM,CNHLD,HLD,Hailar,,49.2000,119.7000,Asia/Shanghai,2019-12-09
Ulan Hot Apt,CN,NM,CNHLH,HLH,Ulanhot,,46.0833,122.0833,Asia/Shanghai,2019-05-07
Hami,CN,XJ,CNHMI,HMI,Hami,4229N 09330E,42.8339,93.5060,Asia/Urumqi,2013-05-08
Hengyang,CN,HN,CNHNY,HNY,Hengyang,2653N 11237E,26.8895,112.6189,Asia/Shanghai,2018-12-06
Harbin Taiping International Apt,CN,HL,CNHRB,HRB,Harbin,,45.7500,126.6500,Asia/Shanghai,2019-09-05
Shaoguan New Pt,CN,GD,CNHSC,HSC,Shaoguan,2448N 11337E,24.8000,113.5833,Asia/Shanghai,2012-01-18
Heshan Pt,CN,GD,CNHSN,HSN,Zhoushan,2246N 11257E,29.9887,122.2049,Asia/Shanghai,2014-10-08
Hotan Apt,CN,XJ,CNHTN,HTN,Hotan,3702N 07952E,37.1075,79.9355,Asia/Urumqi,2014-04-30
Huazhou,CN,44,CNHUZ,HUZ,Huizhou,2138N 11035E,23.1115,114.4152,Asia/Shanghai,2015-03-15
Huangyan,CN,ZJ,CNHYN,HYN,Huangyan,2838N 12115E,28.6501,121.2659,Asia/Shanghai,2012-10-06
Hanzhong,CN,61,CNHZG,HZG,Hanzhong,3304N 10701E,33.0751,107.0221,Asia/Shanghai,2017-01-04
Yinchuan Hedong International Apt,CN,NX,CNINC,INC,Yinchuan,,38.4681,106.2731,Asia/Shanghai,2019-02-27
Jingdezhen,CN,JX,CNJDZ,JDZ,Jingdezhen,2917N 11713E,29.2947,117.2079,Asia/Shanghai,2012-01-18
Jiayuguan,CN,GS,CNJGN,JGN,Jiayuguan,,39.8112,98.2862,Asia/Shanghai,2014-08-20
Jinggangshan Apt,CN,JX,CNJGS,JGS,Ji'an,,27.1172,114.9793,Asia/Shanghai,2020-06-10
Xishuangbanna Gasa International Apt,CN,YN,CNJHG,JHG,Jinghong,,21.9910,100.7341,Asia/Shanghai,2012-01-18
Jiangcun,CN,GD,CNJIC,JIC,Jinchang,,38.5006,102.1938,Asia/Shanghai,2018-12-06
Jilin,CN,JL,CNJIL,JIL,Jilin,,43.8508,126.5603,Asia/Shanghai,2017-07-21
Jiujiang Pt,CN,JX,CNJIU,JIU,Jiujiang,2943N 11558E,29.7048,116.0021,Asia/Shanghai,2017-12-10
Quanzhou Jinjiang Apt,CN,FJ,CNJJN,JJN,Quanzhou,2449N 11834E,24.9139,118.5858,Asia/Shanghai,2016-07-04
Jiamusi Dongjiao Apt,CN,HL,CNJMU,JMU,Jiamusi,,46.7993,130.3163,Asia/Shanghai,2017-07-21
Jining,CN,SD,CNJNG,JNG,Jining,3523N 11633E,35.4050,116.5814,Asia/Shanghai,2013-04-13
Jiuzhen,CN,FJ,CNJUZ,JUZ,Quzhou,2402N 11742E,28.9594,118.8686,Asia/Shanghai,2012-01-18
Kuqa Apt,CN,XJ,CNKCA,KCA,Kuqa,,41.7171,82.9306,Asia/Urumqi,2019-07-10
Kangding,CN,SC,CNKGT,KGT,Kangding,3808N 10144E,30.0022,101.9569,Asia/Shanghai,2018-12-06
Kashi Apt,CN,XJ,CNKHG,KHG,Kashgar,,39.4707,75.9895,Asia/Urumqi,2017-07-21
Nanchang Changbei International Apt,CN,JX,CNKHN,KHN,Nanchang,,28.6840,115.8531,Asia/Shanghai,2019-09-05
Kunming Wujiaba International Apt,CN,YN,CNKMG,KMG,Kunming,,25.0389,102.7183,Asia/Shanghai,2014-08-14
Karamay,CN,XJ,CNKRY,KRY,Karamay,4530N 08455E,45.5847,84.8872,Asia/Urumqi,2018-12-06
Guiyang Longdongbao International Apt,CN,GZ,CNKWE,KWE,Guiyang,,26.5833,106.7167,Asia/Shanghai,2018-12-06
Guilin Liangjiang International Apt,CN,GX,CNKWL,KWL,Guilin,,25.2819,110.2864,Asia/Shanghai,2012-01-18
Guanghua,CN,HB,CNLHK,LHK,Laohekou,,32.3858,111.6678,Asia/Shanghai,2018-12-06
Lanzhou Zhongchuan Apt,CN,GS,CNLHW,LHW,Lanzhou,,36.0570,103.8399,Asia/Shanghai,2019-02-26
Lijiang Sanyi Apt,CN,YN,CNLJG,LJG,Lijiang,,26.8688,100.2207,Asia/Shanghai,2014-01-05
Lhasa Gongga Apt,CN,XZ,CNLXA,LXA,Lhasa,,29.6500,91.1000,Asia/Shanghai,2017-07-21
Luoyang Beijiao Apt,CN,HA,CNLYA,LYA,Luoyang,,34.6836,112.4536,Asia/Shanghai,2019-09-05
Linyizhan,CN,SD,CNLYI,LYI,Linyi,3503N 11820E,35.0631,118.3428,Asia/Shanghai,2012-01-18
Mudanjiang Hailang Apt,CN,HL,CNMDG,MDG,Mudanjiang,,44.5833,129.6000,Asia/Shanghai,2013-05-07
Mianyang Nanjiao Apt,CN,SC,CNMIG,MIG,Mianyang,,31.4678,104.6817,Asia/Shanghai,2015-08-29
Meixian Changgangji Apt,CN,GD,CNMXZ,MXZ,Meizhou,,24.2886,116.1177,Asia/Shanghai,2018-12-06
Qiqihar Sanjiazi Apt,CN,HL,CNNDG,NDG,Qiqihar,,47.3409,123.9604,Asia/Shanghai,2017-07-21
Ningbo Lishe International Apt,CN,ZJ,CNNGB,NGB,Ningbo,,29.8782,121.5494,Asia/Shanghai,2019-09-05
Nanjing Lukou International Apt,CN,JS,CNNKG,NKG,Nanjing,,32.0617,118.7778,Asia/Shanghai,2019-09-05
Nanning Wuxu International Apt,CN,GX,CNNNG,NNG,Nanning,,22.8167,108.3167,Asia/Shanghai,2012-01-18
Nantong Pt,CN,JS,CNNTG,NTG,Nantong,3201N 12051E,32.0303,120.8747,Asia/Shanghai,2014-10-08
Manzhouli Xijiao Apt,CN,NM,CNNZH,NZH,Manzhouli,,49.6000,117.4333,Asia/Shanghai,2012-01-18
Rikaze,CN,XZ,CNRKZ,RKZ,Rikaze,,29.2500,88.8833,Asia/Shanghai,2014-05-29
Shanghai Hongqiao International Apt,CN,SH,CNSHA,SHA,Shanghai,,31.2222,121.4581,Asia/Shanghai,2020-05-28
Shenyang Taoxian International Apt,CN,LN,CNSHE,SHE,Shenyang,,41.7922,123.4328,Asia/Shanghai,2019-09-05
Qinhuangdao Pt,CN,HE,CNSHP,SHP,Qinhuangdao,3955N 11935E,39.9317,119.5883,Asia/Shanghai,2018-12-06
Shashi,CN,HB,CNSHS,SHS,Shashi,3019N 11214E,30.3072,112.2447,Asia/Shanghai,2015-09-25
Xian Xianyang International Apt,CN,SN,CNSIA,SIA,Xi'an,,34.2583,108.9286,Asia/Shanghai,2020-06-10
Shijiazhuang Zhengding International Apt,CN,HE,CNSJW,SJW,Shijiazhuang,,38.0414,114.4786,Asia/Shanghai,2017-07-21
Jieyang Chaoshan Apt,CN,GD,CNSWA,SWA,Shantou,,23.3681,116.7148,Asia/Shanghai,2018-07-23
Sanya Fenghuang International Apt,CN,HI,CNSYX,SYX,Sanya,,18.2431,109.5050,Asia/Shanghai,2019-09-05
Shenzhen Baoan International Apt,CN,GD,CNSZX,SZX,Shenzhen,,22.5455,114.0683,Asia/Shanghai,2019-09-05
Qingdao Liuting International Apt,CN,SD,CNTAO,TAO,Qingdao,,36.0649,120.3804,Asia/Shanghai,2019-02-27
Tongren Fenhuang Apt,CN,QH,CNTEN,TEN,Tongren,3530N 10200E,27.7172,109.1853,Asia/Shanghai,2018-12-06
Tongliao Apt,CN,NM,CNTGO,TGO,Tongliao,4337N 12216E,43.6125,122.2653,Asia/Shanghai,2012-01-18
Jinan Yaoqiang International Apt,CN,SD,CNTNA,TNA,Jinan,,36.6683,116.9972,Asia/Shanghai,2019-09-05
Tianjin Binhai International Apt,CN,TJ,CNTSN,TSN,Tianjin,,39.1422,117.1767,Asia/Shanghai,2017-06-29
Huangshan Tunxi International Apt,CN,AH,CNTXN,TXN,Huangshan,,29.7114,118.3125,Asia/Shanghai,2013-04-02
Taiyuan Wusu International Apt,CN,SX,CNTYN,TYN,Taiyuan,,37.8694,112.5603,Asia/Shanghai,2014-08-14
Urumqi Diwobao International Apt,CN,XJ,CNURC,URC,Urumqi,,43.8010,87.6005,Asia/Urumqi,2017-07-21
Yulin,CN,HI,CNUYN,UYN,Yulinshi,1814N 10932E,38.2918,109.7375,Asia/Shanghai,2017-07-21
Wendeng,CN,37,CNWDS,WDS,Shiyan,3711N 12203E,32.6475,110.7781,Asia/Shanghai,2018-12-06
Wenchang,CN,HI,CNWEC,WEC,Wenchang,1937N 11045E,19.6157,110.7489,Asia/Shanghai,2017-09-12
Weifang Pt,CN,SD,CNWEF,WEF,Weifang,3643N 11906E,36.7100,119.1019,Asia/Shanghai,2012-01-18
Weihai Dashuipo Apt,CN,SD,CNWEH,WEH,Weihai,,37.5091,122.1136,Asia/Shanghai,2017-09-11
Wuchuan,CN,GD,CNWHU,WHU,Wuhu,2127N 11045E,31.3373,118.3735,Asia/Shanghai,2014-11-11
Wenzhou Longwan International Apt,CN,ZJ,CNWNZ,WNZ,Wenzhou,,27.9994,120.6668,Asia/Shanghai,2012-01-18
Wusha,CN,GD,CNWUA,WUA,Wuhai,,39.6844,106.8158,Asia/Shanghai,2013-08-05
Wuhan Tianhe International Apt,CN,HB,CNWUH,WUH,Wuhan,,30.5833,114.2667,Asia/Shanghai,2019-09-05
Wuyishan Apt,CN,FJ,CNWUS,WUS,Wuyishan,,27.7599,118.0307,Asia/Shanghai,2019-07-11
Sunan Shuofang International Apt,CN,JS,CNWUX,WUX,Wuxi,,31.5689,120.2886,Asia/Shanghai,2019-09-05
Wuzhou Pt,CN,GX,CNWUZ,WUZ,Wuzhou,2329N 11120E,23.4833,111.3167,Asia/Shanghai,2012-01-18
Xiaohudao,CN,GD,CNXHO,XHO,Dongguan,2305N 11326E,23.0180,113.7487,Asia/Shanghai,2019-02-26
Xichang Qingshan Apt,CN,SC,CNXIC,XIC,Xichang,2758N 10213E,27.8964,102.2634,Asia/Shanghai,2019-07-26
Xiamen Gaoqi International Apt,CN,FJ,CNXMN,XMN,Xiamen,,24.4798,118.0819,Asia/Shanghai,2019-02-27
Xining Caojiabao Apt,CN,QH,CNXNN,XNN,Xining,,36.6255,101.7574,Asia/Shanghai,2019-09-05
Xining,CN,QH,CNXNT,XNT,Xingtai,3638N 10148E,37.0631,114.4942,Asia/Shanghai,2014-09-05
Yibin Caiba Apt,CN,SC,CNYBP,YBP,Yibin,,28.7593,104.6399,Asia/Shanghai,2019-12-09
Guangong Apt/Yuncheng,CN,SX,CNYCU,YCU,Yuncheng,,35.0231,110.9928,Asia/Shanghai,2013-03-25
Yichang,CN,HB,CNYIC,YIC,Yichun,3042N 11117E,27.8333,114.4000,Asia/Shanghai,2013-02-03
Yichang Sanxia Apt,CN,HB,CNYIH,YIH,Yichang,,30.7144,111.2847,Asia/Shanghai,2020-02-05
Yilan Apt,CN,HL,CNYLN,YLN,Yilan,,46.3162,129.5546,Asia/Shanghai,2013-05-07
Yanji Chaoyangchuan Apt,CN,JL,CNYNJ,YNJ,Yanji,,42.9075,129.5078,Asia/Shanghai,2017-06-29
Yantai Laishan International Apt,CN,SD,CNYNT,YNT,Yantai,,37.4765,121.4408,Asia/Shanghai,2017-06-29
Yancheng Nanyang International Apt,CN,JS,CNYNZ,YNZ,Yancheng,,33.3575,120.1573,Asia/Shanghai,2014-04-30
Yueyang,CN,HN,CNYYA,YYA,Yueyang,2922N 11306E,29.3745,113.0948,Asia/Shanghai,2018-12-06
Yuyue Pt,CN,HB,CNYYP,YYP,Yuyao,,30.0500,121.1494,Asia/Shanghai,2018-12-06
Zhaotong Apt,CN,YN,CNZAT,ZAT,Zhaotong,,27.3167,103.7167,Asia/Shanghai,2012-01-18
Zhanjiang Potou Apt,CN,GD,CNZHA,ZHA,Zhanjiang,,21.2814,110.3427,Asia/Urumqi,2012-01-18
Zhuhai Pt,CN,GD,CNZUH,ZUH,Zhuhai,2217N 11334E,22.2769,113.5678,Asia/Shanghai,2020-04-05
Zunyi Xinzhou Apt,CN,GZ,CNZYI,ZYI,Zunyi,,27.6867,106.9072,Asia/Shanghai,2012-01-18
Andes,CO,ANT,COADN,ADN,Andes,0539N 07552W,5.6561,-75.8788,America/Bogota,2016-01-30
San Andres Island,CO,,COADZ,ADZ,San Andres,,12.5832,-81.7064,America/Bogota,2018-08-08
Apartado,CO,,COAPO,APO,Apartado,,7.8830,-76.6259,America/Bogota,2018-06-08
Arauca,CO,,COAUC,AUC,Arauca,,7.0847,-70.7591,America/Bogota,2016-01-28
Armenia,CO,,COAXM,AXM,Armenia,,4.5339,-75.6811,America/Bogota,2018-04-18
Ayapel,CO,,COAYA,AYA,Ayapel,0819N 07508W,8.3137,-75.1398,America/Bogota,2018-07-04
Barranquilla,CO,,COBAQ,BAQ,Barranquilla,,10.9685,-74.7813,America/Bogota,2019-09-05
Bucaramanga,CO,,COBGA,BGA,Bucaramanga,,7.1254,-73.1198,America/Bogota,2019-09-05
Bogotá,CO,CUN,COBOG,BOG,Bogota,0436N 07405W,4.6097,-74.0817,America/Bogota,2019-10-08
Buenaventura,CO,,COBUN,BUN,Buenaventura,,3.8801,-77.0312,America/Bogota,2018-09-05
Caucasia,CO,ANT,COCAQ,CAQ,Caucasia,0759N 07512W,7.9865,-75.1935,America/Bogota,2018-06-08
Cali,CO,,COCLO,CLO,Cali,,3.4372,-76.5225,America/Bogota,2016-01-28
Chaparral,CO,TOL,COCPL,CPL,Chaparral,0342N 07545W,3.7231,-75.4832,America/Bogota,2018-09-05
Cartago,CO,,COCRC,CRC,Cartago,,4.7464,-75.9117,America/Bogota,2016-01-28
Cartagena,CO,,COCTG,CTG,Cartagena,,10.3997,-75.5144,America/Bogota,2018-04-20
Cucuta,CO,,COCUC,CUC,Cucuta,,7.8939,-72.5078,America/Bogota,2019-09-05
Corozal,CO,,COCZU,CZU,Corozal,,9.3185,-75.2933,America/Bogota,2018-09-05
El Bagre,CO,,COEBG,EBG,El Bagre,,7.6035,-74.8095,America/Bogota,2016-01-28
El Charco,CO,NAR,COECR,ECR,El Charco,0228N 07801W,2.4793,-78.1097,America/Bogota,2018-08-08
Barrancabermeja,CO,,COEJA,EJA,Barrancabermeja,,7.0653,-73.8547,America/Bogota,2018-09-05
El Banco,CO,MAG,COELB,ELB,El Banco,0902N 07358W,9.0011,-73.9758,America/Bogota,2018-08-08
El Yopal,CO,CAS,COEYP,EYP,Yopal,0520N 07222W,5.3377,-72.3959,America/Bogota,2016-10-23
Florencia,CO,,COFLA,FLA,Florencia,,1.6144,-75.6062,America/Bogota,2016-01-28
Girardot,CO,CUN,COGIR,GIR,Girardot City,0417N 07448W,4.3008,-74.8075,America/Bogota,2018-04-23
Ibaque,CO,TOL,COIBE,IBE,Ibague,0426N 07514W,4.4389,-75.2322,America/Bogota,2019-09-05
Chigorodó,CO,ANT,COIGO,IGO,Chigorodo,0741N 07641W,7.6664,-76.6811,America/Bogota,2018-06-08
Ipiales,CO,NAR,COIPI,IPI,Ipiales,0049N 07738W,0.8250,-77.6397,America/Bogota,2019-09-05
Leticia,CO,AMA,COLET,LET,Leticia,0413S 06956W,-4.2153,-69.9406,America/Bogota,2016-03-01
Maicao,CO,,COMCJ,MCJ,Maicao,,11.3784,-72.2395,America/Bogota,2018-07-04
Medellín,CO,ANT,COMDE,MDE,Medellin,0617N 07532W,6.2518,-75.5636,America/Bogota,2019-09-05
Magangue,CO,BOL,COMGN,MGN,Magangue,0917N 07450W,9.2420,-74.7547,America/Bogota,2020-06-11
Mariquita,CO,TOL,COMQU,MQU,San Sebastian de Mariquita,,5.1989,-74.8929,America/Bogota,2020-06-11
Montelíbano,CO,COR,COMTB,MTB,Montelibano,0759N 07525W,7.9792,-75.4202,America/Bogota,2016-01-28
Monteria,CO,,COMTR,MTR,Monteria,,8.7480,-75.8814,America/Bogota,2016-01-28
Manizales,CO,,COMZL,MZL,Manizales,,5.0689,-75.5174,America/Bogota,2016-01-28
Neiva,CO,HUI,CONVA,NVA,Neiva,0255N 07516W,2.9273,-75.2819,America/Bogota,2018-04-19
Ocana,CO,NSA,COOCV,OCV,Ocana,0814N 07320W,8.2377,-73.3560,America/Bogota,2018-08-08
Puerto Berrio,CO,,COPBE,PBE,Puerto Berrio,,6.4916,-74.4033,America/Bogota,2018-06-08
Pereira,CO,,COPEI,PEI,Pereira,,4.8133,-75.6961,America/Bogota,2019-02-26
Planeta Rica,CO,COR,COPLC,PLC,Planeta Rica,0825N 07535W,8.4115,-75.5851,America/Bogota,2014-12-10
Plato,CO,MAG,COPLT,PLT,Plato,0946N 07446W,9.7903,-74.7824,America/Bogota,2018-08-08
Popayán,CO,CAU,COPPN,PPN,Popayan,0226N 07537W,2.4382,-76.6132,America/Bogota,2016-01-28
Pasto,CO,,COPSO,PSO,Pasto,,1.2136,-77.2811,America/Bogota,2018-04-19
Pitalito,CO,HUI,COPTX,PTX,Pitalito,0151N 07602W,1.8537,-76.0507,America/Bogota,2015-06-21
Puerto Asís,CO,PUT,COPUU,PUU,Puerto Asis,0031N 07630W,0.5051,-76.4957,America/Bogota,2018-08-08
Puerto Boyaca,CO,BOY,COPYA,PYA,Puerto Boyaca,0545N 07424W,5.9760,-74.5852,America/Bogota,2018-06-08
Riohacha,CO,,CORCH,RCH,Riohacha,,11.5444,-72.9072,America/Bogota,2018-05-18
San Jose del Gua,CO,GUV,COSJE,SJE,San Jose del Guaviare,0234N 07239W,2.5729,-72.6459,America/Bogota,2016-11-27
San Juan del Cesar,CO,LAG,COSJH,SJH,San Juan del Cesar,1046N 07301W,10.7711,-73.0031,America/Bogota,2018-07-04
Santa Marta,CO,,COSMR,SMR,Santa Marta,,11.2408,-74.1990,America/Bogota,2018-04-19
Sogamoso,CO,BOY,COSOX,SOX,Sogamoso,0543N 07256W,5.7143,-72.9339,America/Bogota,2018-06-08
San Marcos,CO,SUC,COSRS,SRS,San Marcos,0838N 07507W,8.6597,-75.1281,America/Bogota,2018-09-05
Tumaco,CO,,COTCO,TCO,Tumaco,,1.7911,-78.7927,America/Bogota,2018-08-08
Tolú,CO,SUC,COTLU,TLU,Santiago de Tolu,0932N 07535W,9.5239,-75.5814,America/Bogota,2018-09-05
Tame,CO,ARA,COTME,TME,Tame,0630N 07146W,6.4607,-71.7362,America/Bogota,2018-07-04
Turbo,CO,ANT,COTRB,TRB,Turbo,0805N 07643W,8.0926,-76.7282,America/Bogota,2018-04-19
Quibdó,CO,CHO,COUIB,UIB,Quibdo,0542N 07640W,5.6919,-76.6583,America/Bogota,2015-08-30
Tulua,CO,VAC,COULQ,ULQ,Tulua,0405N 07613W,4.0847,-76.1954,America/Bogota,2018-09-05
Urrao,CO,ANT,COURR,URR,Urrao,0619N 07611W,6.3170,-76.1342,America/Bogota,2016-01-28
Valledupar,CO,,COVUP,VUP,Valledupar,,10.4631,-73.2532,America/Bogota,2016-01-28
Villavicencio,CO,MET,COVVC,VVC,Villavicencio,0404N 07333W,4.1420,-73.6266,America/Bogota,2015-04-04
Canas,CR,,CRCSC,CSC,Canas,,10.4311,-85.0982,America/Costa_Rica,2016-09-07
Punta Renes,CR,,CRJAP,JAP,Puntarenas,1057N 08551W,9.9763,-84.8384,America/Costa_Rica,2016-09-07
Puerto Limón,CR,L,CRLIO,LIO,Limon,1000N 08302W,9.9907,-83.0360,America/Costa_Rica,2016-09-07
Liberia,CR,G,CRLIR,LIR,Liberia,1038N 08526W,10.6350,-85.4377,America/Costa_Rica,2016-09-07
Nicoya,CR,G,CRNCT,NCT,Nicoya,1009N 08527W,10.1504,-85.4509,America/Costa_Rica,2016-09-07
San José,CR,SJ,CRSJO,SJO,San Jose,0956N 08405W,9.9333,-84.0833,America/Costa_Rica,2019-10-07
Maximo Gomez Apt,CU,,CUAVI,AVI,Ciego de Avila,2201N 07847W,21.8400,-78.7619,America/Havana,2018-01-11
Baracoa,CU,,CUBCA,BCA,Baracoa,,20.3471,-74.4962,America/Havana,2016-03-10
Bayamo,CU,,CUBYM,BYM,Bayamo,,20.3742,-76.6436,America/Havana,2019-02-27
Cienfuegos,CU,,CUCFG,CFG,Cienfuegos,,22.1496,-80.4466,America/Havana,2019-09-05
Camagüey,CU,,CUCMW,CMW,Camaguey,2123N 07755W,21.3808,-77.9169,America/Havana,2020-06-10
Los Canos Apt/Guantanamo,CU,,CUGAO,GAO,Guantanamo,,20.1444,-75.2092,America/Havana,2020-06-10
Nueva Gerona,CU,,CUGER,GER,Nueva Gerona,,21.8867,-82.8056,America/Havana,2016-01-07
La Habana,CU,03,CUHAV,HAV,Havana,2307N 08221W,23.1330,-82.3830,America/Havana,2019-09-05
Holguin,CU,,CUHOG,HOG,Holguin,,20.8872,-76.2631,America/Havana,2020-06-10
La Coloma,CU,,CULCL,LCL,Pinar del Rio,2220N 08338W,22.4167,-83.6967,America/Havana,2016-11-21
Moa,CU,,CUMOA,MOA,Moa,,20.6578,-74.9507,America/Havana,2014-08-14
Manzanillo,CU,,CUMZO,MZO,Manzanillo,,20.3417,-77.1213,America/Havana,2016-01-07
Colon,CU,,CUQCO,QCO,Colon,,22.7206,-80.9049,America/Havana,2016-01-07
Matanzas,CU,,CUQMA,QMA,Matanzas,,23.0411,-81.5775,America/Havana,2019-09-05
Santiago de Cuba,CU,,CUSCU,SCU,Santiago de Cuba,,20.0208,-75.8267,America/Havana,2019-09-05
Santa Clara,CU,,CUSNU,SNU,Santa Clara,,22.4069,-79.9647,America/Havana,2016-01-07
Trinidad,CU,,CUTND,TND,Trinidad,,21.8022,-79.9847,America/Havana,2019-09-05
Punta de Maisi,CU,14,CUUMA,UMA,Maisi,2015N 07409W,20.2467,-74.1518,America/Havana,2013-09-22
Santi Spiritus,CU,,CUUSS,USS,Sancti Spiritus,2155N 07926W,21.9297,-79.4425,America/Havana,2017-05-07
Varadero,CU,04,CUVRA,VRA,Varadero,2309N 08115W,23.1568,-81.2444,America/Havana,2020-03-03
Las Tunas,CU,10,CUVTU,VTU,Las Tunas,2057N 07657W,20.9617,-76.9511,America/Havana,2019-02-26
Praia,CV,,CVRAI,RAI,Praia,,14.9315,-23.5125,Atlantic/Cape_Verde,2019-09-05
Larnaca,CY,03,CYLCA,LCA,Larnaca,3455N 03337E,34.9229,33.6233,Asia/Nicosia,2017-07-03
Nicosia,CY,01,CYNIC,NIC,Nicosia,3510N 03322E,35.1753,33.3642,Asia/Nicosia,2019-09-05
Paphos,CY,05,CYPFO,PFO,Paphos,3446N 03225E,34.7768,32.4245,Asia/Nicosia,2014-06-04
Brno,CZ,JM,CZBRQ,BRQ,Brno,4912N 01638E,49.1952,16.6080,Europe/Prague,2019-09-05
Karlovy Vary,CZ,,CZKLV,KLV,Karlovy Vary,,50.2327,12.8712,Europe/Prague,2019-09-05
Olomouc,CZ,,CZOLO,OLO,Olomouc,,49.5955,17.2518,Europe/Prague,2019-09-05
Ostrava,CZ,,CZOSR,OSR,Ostrava,,49.8347,18.2820,Europe/Prague,2018-09-08
Praha,CZ,,CZPRG,PRG,Prague,,50.0880,14.4208,Europe/Prague,2020-05-28
Prerov,CZ,,CZPRV,PRV,Prerov,,49.4551,17.4509,Europe/Prague,2019-03-20
Uherské Hradiste,CZ,,CZUHE,UHE,Uherske Hradiste,4904N 01727E,49.0697,17.4597,Europe/Prague,2019-03-20
Aachen,DE,NW,DEAAH,AAH,Aachen,,50.7766,6.0834,Europe/Berlin,2014-05-11
Alfeld/Leine,DE,NI,DEALF,ALF,Alfeld,,51.9838,9.8199,Europe/Berlin,2014-07-22
Barth,DE,MV,DEBBH,BBH,Stralsund,,54.3091,13.0818,Europe/Berlin,2019-09-05
Berlin,DE,BE,DEBER,BER,Berlin,5231N 01323E,52.5244,13.4105,Europe/Berlin,2019-07-13
Bielefeld,DE,NW,DEBFE,BFE,Bielefeld,,52.0333,8.5333,Europe/Berlin,2019-09-05
Bremen,DE,HB,DEBRE,BRE,Bremen,,53.0758,8.8072,Europe/Berlin,2019-12-17
Bremerhaven,DE,HB,DEBRV,BRV,Bremerhaven,,53.5361,8.5930,Europe/Berlin,2020-03-08
Braunschweig,DE,NI,DEBWE,BWE,Wolfsburg,5216N 01030E,52.4245,10.7815,Europe/Berlin,2019-09-05
Bayreuth,DE,BY,DEBYU,BYU,Bayreuth,,49.9478,11.5789,Europe/Berlin,2019-09-05
Köln,DE,NW,DECGN,CGN,Koeln,5057N 00656E,50.9333,6.9500,Europe/Berlin,2019-09-05
Cochstedt,DE,ST,DECSO,CSO,Magdeburg,5153N 01125E,52.1277,11.6292,Europe/Berlin,2019-09-05
Dresden,DE,SN,DEDRS,DRS,Dresden,,51.0509,13.7383,Europe/Berlin,2019-09-05
Dortmund,DE,NW,DEDTM,DTM,Dortmund,5130N 00729E,51.5149,7.4660,Europe/Berlin,2019-09-05
Duisburg,DE,NW,DEDUI,DUI,Duisburg,5128N 00645E,51.4325,6.7652,Europe/Berlin,2019-09-05
Düsseldorf,DE,NW,DEDUS,DUS,Duesseldorf,5114N 00647E,51.2217,6.7762,Europe/Berlin,2019-02-26
Einbeck,DE,NI,DEEIB,EIB,Eisenach,5149N 00952E,50.9807,10.3152,Europe/Berlin,2019-09-05
Emden,DE,NI,DEEME,EME,Emden,5322N 00713E,53.3674,7.2078,Europe/Berlin,2019-09-05
Erfurt,DE,TH,DEERF,ERF,Erfurt,,50.9787,11.0328,Europe/Berlin,2019-09-05
Essen,DE,NW,DEESS,ESS,Essen,,51.4566,7.0123,Europe/Berlin,2019-10-22
Friedrichshafen,DE,BW,DEFDH,FDH,Friedrichshafen,,47.6569,9.4755,Europe/Berlin,2019-09-05
Fürstenfeldbruck,DE,BY,DEFEL,FEL,Fuerstenfeldbruck,,48.1790,11.2547,Europe/Berlin,2019-09-05
Falkenberg,DE,BY,DEFKB,FKB,Karlsruhe,4828N 01244E,49.0094,8.4044,Europe/Berlin,2019-09-05
Flensburg,DE,SH,DEFLF,FLF,Flensburg,,54.7843,9.4396,Europe/Berlin,2019-09-05
Frammersbach,DE,BY,DEFMM,FMM,Memmingen,5004N 00928E,47.9837,10.1853,Europe/Berlin,2019-09-05
Münster-Osnabrück International Apt,DE,NW,DEFMO,FMO,Muenster,5208N 00741E,51.9624,7.6257,Europe/Berlin,2020-08-31
Fichtenberg,DE,BW,DEFNB,FNB,Neubrandenburg,4859N 00942E,53.5641,13.2753,Europe/Berlin,2015-09-05
Frankfurt am Main,DE,HE,DEFRA,FRA,Frankfurt am Main,5007N 00841E,50.1155,8.6842,Europe/Berlin,2020-05-28
Friedrichsdorf,DE,HE,DEFRF,FRF,Oschersleben,5016N 00839E,52.0304,11.2290,Europe/Berlin,2017-09-17
Gütersloh,DE,NW,DEGUT,GUT,Guetersloh,,51.9069,8.3785,Europe/Berlin,2015-09-05
Hannover,DE,NI,DEHAJ,HAJ,Hannover,5222N 00943E,52.3705,9.7332,Europe/Berlin,2019-09-12
Hamburg,DE,HH,DEHAM,HAM,Hamburg,5331N 00956E,53.5507,9.9930,Europe/Berlin,2019-11-28
Heroldsbach,DE,BY,DEHDB,HDB,Heidelberg,4942N 01100E,49.4077,8.6908,Europe/Berlin,2020-05-21
Heidelberg,DE,BW,DEHEI,HEI,Heide,4925N 00842E,54.1958,9.0988,Europe/Berlin,2015-09-04
Hof,DE,BY,DEHOQ,HOQ,Hof,,50.3130,11.9126,Europe/Berlin,2014-11-02
Briest,DE,BB,DEIES,IES,Riesa,5227N 01226E,51.3078,13.2917,Europe/Berlin,2015-09-05
Kiel,DE,SH,DEKEL,KEL,Kiel,5420N 01008E,54.3213,10.1349,Europe/Berlin,2019-09-05
Kaiserslautern,DE,RP,DEKLT,KLT,Kaiserslautern,,49.4430,7.7716,Europe/Berlin,2017-08-02
Karlsdorf,DE,TH,DEKSF,KSF,Kassel,5048N 01148E,51.3167,9.5000,Europe/Berlin,2019-09-05
Kötzting,DE,BY,DEKZG,KZG,Kitzingen,4910N 01251E,49.7397,10.1507,Europe/Berlin,2014-01-15
Leipzig,DE,SN,DELEJ,LEJ,Leipzig,,51.3396,12.3713,Europe/Berlin,2019-09-05
Lahnau,DE,HE,DELHA,LHA,Lahr,5035N 00833E,48.3404,7.8689,Europe/Berlin,2017-09-22
Mönchengladbach,DE,NW,DEMGL,MGL,Moenchengladbach,5112N 00626E,51.1854,6.4417,Europe/Berlin,2020-06-10
Mannheim,DE,BW,DEMHG,MHG,Mannheim,4929N 00827E,49.4891,8.4669,Europe/Berlin,2019-09-05
München,DE,BY,DEMUC,MUC,Munich,4809N 01135E,48.1374,11.5755,Europe/Berlin,2019-09-05
Norden,DE,NI,DENOD,NOD,Norden,,53.5955,7.2064,Europe/Berlin,2017-01-13
Nürnberg,DE,BY,DENUE,NUE,Nuernberg,4926N 01104E,49.4542,11.0775,Europe/Berlin,2019-09-05
Paderborn,DE,NW,DEPAD,PAD,Paderborn,,51.7191,8.7544,Europe/Berlin,2019-09-05
Borstel bei Neumünster,DE,SH,DERBM,RBM,Straubing,5358N 00946E,48.8813,12.5739,Europe/Berlin,2019-09-05
Raubling,DE,BY,DERLG,RLG,Rostock,,54.0887,12.1405,Europe/Berlin,2019-09-05
Saarbrücken,DE,SL,DESCN,SCN,Saarbruecken,,49.2326,7.0098,Europe/Berlin,2019-09-05
Siegen,DE,NW,DESGE,SGE,Siegen,,50.8748,8.0243,Europe/Berlin,2015-09-04
Stuttgart,DE,BW,DESTR,STR,Stuttgart,4846N 00911E,48.7823,9.1770,Europe/Berlin,2019-09-05
Salzwedel,DE,ST,DESZW,SZW,Schwerin,,53.6294,11.4132,Europe/Berlin,2019-09-05
Westerburg/Westerwaldkreis,DE,RP,DEWBG,WBG,Schleswig,,54.5216,9.5586,Europe/Berlin,2015-09-04
Wiesens,DE,NI,DEWIE,WIE,Wiesbaden,5327N 00735E,50.0826,8.2493,Europe/Berlin,2019-09-05
Wilhelmshaven,DE,NI,DEWVN,WVN,Wilhelmshaven,5331N 00808E,53.5300,8.1125,Europe/Berlin,2019-09-05
Möglingen,DE,BW,DEZCB,ZCB,Aschaffenburg,4914N 00926E,49.9770,9.1521,Europe/Berlin,2020-02-28
Morschen,DE,HE,DEZCD,ZCD,Bamberg,5103N 00936E,49.8987,10.9007,Europe/Berlin,2019-09-05
Carlsberg,DE,RP,DEZCG,ZCG,Bergisch Gladbach,4930N 00802E,50.9856,7.1330,Europe/Berlin,2018-03-09
Schillingsfürst (Ansbach),DE,BY,DEZCH,ZCH,Bergkamen,4917N 01016E,51.6163,7.6445,Europe/Berlin,2015-09-05
Mörnsheim,DE,BY,DEZCI,ZCI,Bocholt,4853N 01100E,51.8388,6.6153,Europe/Berlin,2015-09-04
Neuhofen,DE,RP,DEZCM,ZCM,Castrop-Rauxel,4925N 00825E,51.5566,7.3116,Europe/Berlin,2015-09-04
Clausen,DE,RP,DEZCN,ZCN,Celle,4916N 00741E,52.6226,10.0805,Europe/Berlin,2019-09-05
Niederkumbd,DE,RP,DEZCR,ZCR,Dachau,5001N 00732E,48.2600,11.4340,Europe/Berlin,2018-09-12
Neuenkirchen/Cuxhaven,DE,NI,DEZCS,ZCS,Darmstadt,5346N 00854E,49.8717,8.6503,Europe/Berlin,2019-09-05
Neumark,DE,SN,DEZCT,ZCT,Delmenhorst,5040N 01221E,53.0511,8.6309,Europe/Berlin,2019-09-05
Zauchwitz,DE,BB,DEZCW,ZCW,Dormagen,5213N 01303E,51.0968,6.8317,Europe/Berlin,2015-09-05
Nienburg,DE,ST,DEZCX,ZCX,Dorsten,5150N 01145E,51.6617,6.9651,Europe/Berlin,2015-09-04
Winzer,DE,BY,DEZCZ,ZCZ,Erlangen,4844N 01304E,49.5910,11.0078,Europe/Berlin,2019-09-05
Röfingen,DE,BY,DEZEA,ZEA,Eschweiler,4826N 01026E,50.8185,6.2718,Europe/Berlin,2015-09-04
Eberhardzell,DE,BW,DEZEB,ZEB,Esslingen,4800N 00949E,48.7396,9.3047,Europe/Berlin,2017-09-22
Pfalzfeld,DE,RP,DEZED,ZED,Euskirchen,5007N 00735E,50.6606,6.7872,Europe/Berlin,2015-09-04
Zeestow,DE,BB,DEZEE,ZEE,Fulda,5234N 01258E,50.5516,9.6752,Europe/Berlin,2019-09-05
Zell am Harmersbach,DE,BW,DEZEH,ZEH,Garbsen,,52.4137,9.5899,Europe/Berlin,2014-07-09
Zeil am Main,DE,BY,DEZEI,ZEI,Garmisch-Partenkirchen,,47.4921,11.0958,Europe/Berlin,2014-01-15
Büchenbach (Roth),DE,BY,DEZEJ,ZEJ,Gelsenkirchen,4916N 01104E,51.5051,7.0965,Europe/Berlin,2019-09-05
Eibenstock,DE,SN,DEZEK,ZEK,Gladbeck,5031N 01236E,51.5708,6.9859,Europe/Berlin,2019-09-05
Rosengarten,DE,NI,DEZES,ZES,Goeppingen,5325N 00952E,48.7035,9.6521,Europe/Berlin,2014-01-15
Zetel,DE,NI,DEZET,ZET,Goslar,5325N 00759E,51.9042,10.4277,Europe/Berlin,2015-11-29
Zeulenroda-Triebes,DE,TH,DEZEU,ZEU,Goettingen,,51.5344,9.9323,Europe/Berlin,2019-09-05
Zeven,DE,NI,DEZEV,ZEV,Grevenbroich,5318N 00917E,51.0910,6.5827,Europe/Berlin,2015-09-05
Zell im Wiesental,DE,BW,DEZEW,ZEW,Gummersbach,4742N 00751E,51.0261,7.5647,Europe/Berlin,2015-09-04
Röthenbach,DE,BY,DEZEY,ZEY,Hagen,5003N 01210E,51.3608,7.4717,Europe/Berlin,2018-12-17
Zeitz,DE,ST,DEZEZ,ZEZ,Hameln,,52.1040,9.3562,Europe/Berlin,2019-09-05
Schrozberg,DE,BW,DEZFR,ZFR,Frankfurt (Oder),4920N 00958E,52.3471,14.5506,Europe/Berlin,2020-04-21
Stein an der Traun,DE,BY,DEZGW,ZGW,Greifswald,4759N 01233E,54.0931,13.3879,Europe/Berlin,2019-09-05
Teising,DE,BY,DEZIO,ZIO,Solingen,4821N 01229E,51.1734,7.0845,Europe/Berlin,2019-09-05
Zittau,DE,SN,DEZIT,ZIT,Zittau,,50.8977,14.8076,Europe/Berlin,2015-09-05
Salzweg,DE,BY,DEZJS,ZJS,Jena,4837N 01329E,50.9288,11.5899,Europe/Berlin,2019-09-05
Zernien,DE,NI,DEZNN,ZNN,Hilden,,51.1682,6.9309,Europe/Berlin,2018-07-25
Höttingen,DE,BY,DEZNO,ZNO,Hildesheim,4904N 01101E,52.1508,9.9511,Europe/Berlin,2019-09-05
Zirndorf (Auhausen),DE,BY,DEZOA,ZOA,Leverkusen,4901N 01037E,51.0303,6.9843,Europe/Berlin,2019-02-28
Kottweiler-Schwanden,DE,RP,DEZON,ZON,Moers,4929N 00732E,51.4534,6.6326,Europe/Berlin,2019-09-05
Zell (Romrod),DE,HE,DEZOO,ZOO,Muelheim,5043N 00913E,51.4322,6.8797,Europe/Berlin,2018-04-09
Zossen (Wünschendorf/Elster),DE,TH,DEZOT,ZOT,Neu-Ulm,5048N 01206E,48.3928,10.0111,Europe/Berlin,2019-09-05
Poesing,DE,BY,DEZPG,ZPG,Peine,4914N 01233E,52.3193,10.2352,Europe/Berlin,2019-12-26
Zirndorf (Wieseth),DE,BY,DEZRW,ZRW,Rastatt,4910N 01029E,48.8585,8.2096,Europe/Berlin,2014-01-16
Hötensleben,DE,ST,DEZSN,ZSN,Stendal,5207N 01101E,52.6069,11.8587,Europe/Berlin,2015-09-04
Ali Sabieh,DJ,AS,DJAII,AII,'Ali Sabieh,1109N 04242E,11.1558,42.7125,Africa/Djibouti,2019-04-17
Djibouti,DJ,,DJJIB,JIB,Djibouti,,11.5890,43.1450,Africa/Djibouti,2019-09-05
Obock,DJ,,DJOBC,OBC,Obock,1158N 04315E,11.9669,43.2884,Africa/Djibouti,2019-09-05
Tadjoura,DJ,,DJTDJ,TDJ,Tadjourah,1146N 04254E,11.7878,42.8822,Africa/Djibouti,2019-09-05
Aalborg,DK,,DKAAL,AAL,Aalborg,,57.0480,9.9187,Europe/Copenhagen,2019-09-05
København,DK,84,DKCPH,CPH,Copenhagen,5540N 01235E,55.6759,12.5655,Europe/Copenhagen,2012-11-26
Esbjerg,DK,,DKEBJ,EBJ,Esbjerg,,55.4703,8.4519,Europe/Copenhagen,2017-10-18
Odense,DK,,DKODE,ODE,Odense,,55.3959,10.3883,Europe/Copenhagen,2019-09-05
Roskilde,DK,,DKRKE,RKE,Roskilde,,55.6415,12.0803,Europe/Copenhagen,2019-09-05
Sønderborg,DK,83,DKSGD,SGD,Sonderborg,5454N 00947E,54.9090,9.7892,Europe/Copenhagen,2020-04-16
Barahona,DO,,DOBRX,BRX,Santa Cruz de Barahona,,18.2085,-71.1008,America/Santo_Domingo,2016-06-05
La Romana,DO,,DOLRM,LRM,La Romana,,18.4273,-68.9728,America/Santo_Domingo,2016-06-05
Puerto Plata,DO,,DOPOP,POP,Puerto Plata,,19.7934,-70.6884,America/Santo_Domingo,2016-06-05
Punta Cana Apt,DO,,DOPUJ,PUJ,Punta Cana,1834N 06821W,18.5818,-68.4043,America/Santo_Domingo,2016-06-05
Santo Domingo,DO,01,DOSDQ,SDQ,Santo Domingo,1828N 06954W,18.4719,-69.8923,America/Santo_Domingo,2020-02-22
San Juan de la Maguana,DO,,DOSJM,SJM,San Juan de la Maguana,1848N 07113W,18.8059,-71.2299,America/Santo_Domingo,2016-06-05
Santiago de los Caballeros,DO,,DOSTI,STI,Santiago de los Caballeros,,19.4517,-70.6970,America/Santo_Domingo,2016-06-05
Annaba (ex Bone),DZ,,DZAAE,AAE,Annaba,,36.9000,7.7667,Africa/Algiers,2019-02-07
Alger (Algiers),DZ,16,DZALG,ALG,Algiers,3645N 00303E,36.7323,3.0875,Africa/Algiers,2019-09-05
Adrar,DZ,01,DZAZR,AZR,Adrar,2752N 00017W,27.8743,-0.2939,Africa/Algiers,2016-01-30
Bejaia (ex Bougie),DZ,,DZBJA,BJA,Bejaia,,36.7559,5.0843,Africa/Algiers,2020-06-11
Batna,DZ,05,DZBLJ,BLJ,Batna,3533N 00610E,35.5560,6.1741,Africa/Algiers,2019-09-05
Biskra,DZ,,DZBSK,BSK,Biskra,3451N 00544E,34.8504,5.7280,Africa/Algiers,2018-08-08
Bechar,DZ,08,DZCBH,CBH,Bechar,3137N 00213W,31.6167,-2.2167,Africa/Algiers,2018-08-08
Constantine,DZ,,DZCZL,CZL,Constantine,,36.3650,6.6147,Africa/Algiers,2018-08-09
El Bayadh,DZ,32,DZEBH,EBH,El Bayadh,3341N 00100E,33.6832,1.0193,Africa/Algiers,2018-08-08
El Qued,DZ,39,DZELU,ELU,El Oued,3319N 00652E,33.3561,6.8632,Africa/Algiers,2018-08-08
Ghardaïa,DZ,,DZGHA,GHA,Ghardaia,3229N 00340E,32.4909,3.6735,Africa/Algiers,2017-06-04
Jijel,DZ,18,DZGJL,GJL,Jijel,,36.8210,5.7635,Africa/Algiers,2019-10-14
Hassi Messaoud,DZ,,DZHME,HME,Hassi Messaoud,3140N 00608E,31.6804,6.0729,Africa/Algiers,2010-10-07
Laghouat,DZ,03,DZLOO,LOO,Laghouat,,33.8000,2.8651,Africa/Algiers,2018-08-08
Mascara,DZ,29,DZMUW,MUW,Mascara,,35.3966,0.1403,Africa/Algiers,2018-08-08
Ouargla,DZ,30,DZOGX,OGX,Ouargla,3155N 00524E,31.9493,5.3250,Africa/Algiers,2010-08-03
Oran,DZ,,DZORN,ORN,Oran,,35.6991,-0.6359,Africa/Algiers,2019-09-05
Ain Beida,DZ,04,DZQBP,QBP,Ain Beida,3156N 00635E,35.7964,7.3928,Africa/Algiers,2013-04-21
Bouira,DZ,,DZQBZ,QBZ,Bouira,3623N 00354E,36.3749,3.9020,Africa/Algiers,2020-05-31
Djelfa,DZ,17,DZQDJ,QDJ,Djelfa,3440N 00315E,34.6728,3.2630,Africa/Algiers,2018-08-08
'Ain El Hadjar,DZ,,DZQEH,QEH,El Hadjar,3446N 00090E,36.8038,7.7368,Africa/Algiers,2012-01-19
Boufarik,DZ,09,DZQFD,QFD,Boufarik,3633N 00252E,36.5741,2.9121,Africa/Algiers,2012-01-19
Guelma,DZ,24,DZQGE,QGE,Guelma,3628N 00726E,36.4621,7.4261,Africa/Algiers,2018-08-08
Sig,DZ,31,DZQIL,QIL,Sig,3532N 00011W,35.5283,-0.1937,Africa/Algiers,2012-01-19
Kenchela,DZ,40,DZQKJ,QKJ,Khenchela,3527N 00708E,35.4358,7.1433,Africa/Algiers,2018-08-08
El Kala,DZ,36,DZQLK,QLK,El Kala,3645N 00826E,36.8956,8.4433,Africa/Algiers,2016-09-18
Oum El Bouaghi,DZ,04,DZQMH,QMH,Oum el Bouaghi,3553N 00707E,35.8754,7.1135,Africa/Algiers,2018-08-08
Souk Ahras,DZ,41,DZQSK,QSK,Souk Ahras,3617N 00757E,36.2864,7.9511,Africa/Algiers,2018-08-08
Relizane,DZ,48,DZQZN,QZN,Relizane,3545N 00037E,35.7373,0.5560,Africa/Algiers,2018-08-08
Skikda (ex Philippeville),DZ,,DZSKI,SKI,Skikda,,36.8762,6.9092,Africa/Algiers,2020-03-22
Tbessa,DZ,,DZTEE,TEE,Tebessa,,35.4042,8.1242,Africa/Algiers,2020-06-11
Touggourt,DZ,30,DZTGR,TGR,Touggourt,,33.1053,6.0580,Africa/Algiers,2012-01-19
Tiaret,DZ,,DZTID,TID,Tiaret,3528N 00121E,35.3710,1.3170,Africa/Algiers,2018-08-08
Tindouf,DZ,37,DZTIN,TIN,Tindouf,2743N 00810W,27.6711,-8.1474,Africa/Algiers,2019-11-25
Tlemcen,DZ,13,DZTLM,TLM,Tlemcen,3452N 00118W,34.8783,-1.3150,Africa/Algiers,2019-09-05
Tamanrasset,DZ,,DZTMR,TMR,Tamanrasset,2248N 00527E,22.7850,5.5228,Africa/Algiers,2018-08-08
Timimoun,DZ,01,DZTMX,TMX,Timimoun,2914N 00016E,29.2639,0.2310,Africa/Algiers,2019-11-25
Bou Kadir,DZ,02,DZZAB,ZAB,Boukadir,3604N 00107E,36.0663,1.1260,Africa/Algiers,2013-10-27
El Eulma,DZ,19,DZZAE,ZAE,El Eulma,3609N 00541E,36.1528,5.6902,Africa/Algiers,2012-01-19
Berriane,DZ,,DZZBI,ZBI,Berriane,3250N 00346E,32.8265,3.7669,Africa/Algiers,2012-05-06
Azazga,DZ,15,DZZZA,ZZA,Azazga,3645N 00422E,36.7447,4.3722,Africa/Algiers,2012-01-19
Barika,DZ,05,DZZZB,ZZB,Barika,3523N 00523E,35.3890,5.3658,Africa/Algiers,2019-09-07
M'sila,DZ,28,DZZZS,ZZS,M'Sila,3542N 00433E,35.7058,4.5419,Africa/Algiers,2018-08-08
Ambato,EC,,ECATF,ATF,Ambato,,-1.2491,-78.6167,America/Guayaquil,2017-02-07
Bahía de Caráquez,EC,M,ECBHA,BHA,Bahia de Caraquez,0033S 08030W,-0.5979,-80.4237,America/Guayaquil,2020-06-10
Cuenca,EC,A,ECCUE,CUE,Cuenca,0253S 07859W,-2.9005,-79.0045,America/Guayaquil,2019-09-05
Esmeraldas,EC,E,ECESM,ESM,Esmeraldas,0059N 07942W,0.9592,-79.6540,America/Guayaquil,2017-02-07
Guayaquil,EC,G,ECGYE,GYE,Guayaquil,0210S 07954W,-2.1962,-79.8862,America/Guayaquil,2019-09-05
Jipijapa,EC,M,ECJIP,JIP,Jipijapa,0120S 08035W,-1.3487,-80.5787,America/Guayaquil,2017-02-07
Loja,EC,,ECLOH,LOH,Loja,,-3.9931,-79.2042,America/Guayaquil,2017-02-07
Machala,EC,,ECMCH,MCH,Machala,,-3.2586,-79.9605,America/Guayaquil,2019-09-05
Manta,EC,M,ECMEC,MEC,Manta,0057S 08044W,-0.9621,-80.7127,America/Guayaquil,2019-09-05
Coca,EC,N,ECOCC,OCC,Puerto Francisco de Orellana,0029S 07658W,-0.4664,-76.9872,America/Guayaquil,2017-02-07
Portoviejo,EC,M,ECPVO,PVO,Portoviejo,0103S 08027W,-1.0546,-80.4544,America/Guayaquil,2019-09-05
Salinas,EC,G,ECSNC,SNC,Salinas,0213S 08058W,-2.2145,-80.9515,America/Guayaquil,2017-02-07
Tulcan,EC,,ECTUA,TUA,Tulcan,0048N 07742W,0.8119,-77.7173,America/Guayaquil,2019-09-05
Quito,EC,,ECUIO,UIO,Quito,,-0.2298,-78.5250,America/Guayaquil,2019-09-05
Macas,EC,S,ECXMS,XMS,Macas,0219S 07807W,-2.3087,-78.1114,America/Guayaquil,2017-02-07
Tartu,EE,78,EETAY,TAY,Tartu,5821N 02644E,58.3806,26.7251,Europe/Tallinn,2019-02-26
Tallinn,EE,37,EETLL,TLL,Tallinn,5926N 02444E,59.4370,24.7535,Europe/Tallinn,2019-09-05
El'Arish,EG,,EGAAC,AAC,Arish,,31.1316,33.7984,Africa/Cairo,2017-11-10
El Iskandariya (Alexandria),EG,ALX,EGALY,ALY,Alexandria,3111N 02955E,31.2018,29.9158,Africa/Cairo,2019-09-05
Aswan,EG,,EGASW,ASW,Aswan,,24.0908,32.8994,Africa/Cairo,2019-09-05
Assiut,EG,,EGATZ,ATZ,Asyut,2711N 03111E,27.1810,31.1837,Africa/Cairo,2020-06-11
El Qahira (Cairo),EG,C,EGCAI,CAI,Cairo,3003N 03115E,30.0626,31.2497,Africa/Cairo,2020-05-28
Minyat Al Hayt,EG,FYM,EGEMY,EMY,Al Minya,2913N 03044E,28.0919,30.7581,Africa/Cairo,2020-06-11
Hurghada,EG,,EGHRG,HRG,Hurghada,,27.2574,33.8129,Africa/Cairo,2019-09-05
Luxor,EG,,EGLXR,LXR,Luxor,,25.6989,32.6421,Africa/Cairo,2019-09-05
Al Minya,EG,GZ,EGMIN,MIN,Minyat an Nasr,2944N 03117E,31.1262,31.6431,Africa/Cairo,2013-07-06
Matruh,EG,,EGMUH,MUH,Mersa Matruh,3122N 02714E,31.3529,27.2372,Africa/Cairo,2014-05-28
Port Said,EG,,EGPSD,PSD,Port Said,,31.2653,32.3019,Africa/Cairo,2019-10-28
Az Zaqaziq,EG,SHR,EGQZZ,QZZ,Zagazig,3035N 03130E,30.5877,31.5020,Africa/Cairo,2020-06-11
New Valley,EG,,EGUVL,UVL,Al Kharijah,,25.4514,30.5464,Africa/Cairo,2020-06-11
Assab,ER,DK,ERASA,ASA,Assab,1300N 04244E,13.0092,42.7394,Africa/Asmara,2012-01-19
Asmara,ER,MA,ERASM,ASM,Asmara,1520N 03856E,15.3381,38.9318,Africa/Asmara,2019-09-05
Massawa (Mitsiwa),ER,SK,ERMSW,MSW,Massawa,1536N 03927E,15.6081,39.4746,Africa/Asmara,2012-08-05
Arbúcies,ES,GI,ESABC,ABC,Albacete,4149N 00231E,38.9942,-1.8564,Europe/Madrid,2020-05-15
Lanzarote,ES,GC,ESACE,ACE,Arrecife,2858N 01332W,28.9630,-13.5477,Atlantic/Canary,2012-03-04
Albalat de la Ribera,ES,,ESAEI,AEI,Algeciras,3912N 00023W,36.1333,-5.4505,Europe/Madrid,2016-02-12
Málaga,ES,MA,ESAGP,AGP,Malaga,3643N 00425W,36.7202,-4.4203,Europe/Madrid,2020-08-30
Alicante,ES,,ESALC,ALC,Alicante,,38.3452,-0.4815,Europe/Madrid,2019-09-05
Barcelona,ES,,ESBCN,BCN,Barcelona,,41.3888,2.1590,Europe/Madrid,2019-09-05
Bilbao,ES,BI,ESBIO,BIO,Bilbao,4315N 00258W,43.2627,-2.9253,Europe/Madrid,2019-09-05
Badajoz,ES,,ESBJZ,BJZ,Badajoz,,38.8779,-6.9706,Europe/Madrid,2019-03-29
Cornellà del Terri,ES,GI,ESCDT,CDT,Castello de la Plana,4205N 00249E,39.9857,-0.0493,Europe/Madrid,2016-05-11
Canaleja,ES,AB,ESCEJ,CEJ,Cuenca,3842N 00233W,40.0667,-2.1333,Europe/Madrid,2019-09-05
San Sebastian,ES,,ESEAS,EAS,San Sebastian,,43.3128,-1.9750,Europe/Madrid,2020-03-18
Godelleta,ES,,ESGDU,GDU,Guadalajara,,40.6286,-3.1618,Europe/Madrid,2013-07-06
Gerena,ES,SE,ESGEN,GEN,Puente-Genil,3732N 00609W,37.3894,-4.7669,Europe/Madrid,2013-07-22
Gerona (Girona),ES,GI,ESGRO,GRO,Girona,4159N 00249E,41.9831,2.8249,Europe/Madrid,2018-03-09
Granada,ES,,ESGRX,GRX,Granada,,37.1882,-3.6067,Europe/Madrid,2019-09-05
Hueva,ES,,ESHEV,HEV,Huelva,4027N 00257W,37.2664,-6.9400,Europe/Madrid,2018-04-25
Ibiza,ES,PM,ESIBZ,IBZ,Ibiza,3854N 00126E,38.9088,1.4330,Europe/Madrid,2016-01-14
La Coruña (A Coruña),ES,C,ESLCG,LCG,A Coruna,4322N 00823W,43.3713,-8.3960,Europe/Madrid,2015-04-24
Almería,ES,AL,ESLEI,LEI,Almeria,3650N 00227W,36.8381,-2.4597,Europe/Madrid,2019-09-16
Leon,ES,,ESLEN,LEN,Leon,,42.6000,-5.5703,Europe/Madrid,2013-07-06
Las Palmas de Gran Canaria,ES,GC,ESLPA,LPA,Las Palmas de Gran Canaria,2806N 01525W,28.0997,-15.4134,Atlantic/Canary,2018-03-09
Madrid,ES,,ESMAD,MAD,Madrid,,40.4165,-3.7026,Europe/Madrid,2019-09-05
Murcia,ES,MU,ESMJV,MJV,San Javier,3758N 00107W,37.8063,-0.8374,Europe/Madrid,2015-10-24
Melilla,ES,ML,ESMLN,MLN,Melilla,3519N 00253W,35.2937,-2.9383,Africa/Ceuta,2019-02-26
Córdoba,ES,,ESODB,ODB,Cordoba,3753N 00446W,37.8916,-4.7728,Europe/Madrid,2020-06-11
Oteruelo de la Valdoncina,ES,LE,ESOVD,OVD,Oviedo,4235N 00536W,43.3603,-5.8448,Europe/Madrid,2019-09-05
Picanya,ES,V,ESPCI,PCI,Palencia,3926N 00026W,42.0095,-4.5241,Europe/Madrid,2019-09-05
Palma de Mallorca,ES,,ESPMI,PMI,Palma,3934N 00238E,39.5694,2.6502,Europe/Madrid,2018-08-27
Pamplona,ES,,ESPNA,PNA,Pamplona,,42.8169,-1.6432,Europe/Madrid,2019-09-05
Petrer,ES,A,ESPTE,PTE,Pontevedra,3829N 00046W,42.4310,-8.6443,Europe/Madrid,2012-12-08
Ciudadela,ES,,ESQIU,QIU,Ciutadella,,40.0011,3.8414,Europe/Madrid,2016-03-13
Alpedrete,ES,M,ESQSA,QSA,Sabadell,4040N 00401W,41.5433,2.1094,Europe/Madrid,2018-03-09
Rojales,ES,A,ESRJL,RJL,Logrono,3850N 00043W,42.4667,-2.4500,Europe/Madrid,2019-10-04
La Rozona,ES,O,ESROZ,ROZ,Rota,4332N 00553W,36.6255,-6.3622,Europe/Madrid,2015-09-30
Alcarras,ES,L,ESRRA,RRA,Ronda,4137N 00037E,36.7423,-5.1671,Europe/Madrid,2012-12-15
Santiago de Compostela,ES,,ESSCQ,SCQ,Santiago de Compostela,,42.8805,-8.5457,Europe/Madrid,2019-09-05
Santander,ES,,ESSDR,SDR,Santander,,43.4647,-3.8044,Europe/Madrid,2019-09-05
Salamanca,ES,,ESSLM,SLM,Salamanca,,40.9688,-5.6639,Europe/Madrid,2018-03-09
Santa Cruz de La Palma,ES,GC,ESSPC,SPC,Santa Cruz de la Palma,2841N 01746W,28.6835,-17.7642,Atlantic/Canary,2017-10-31
Sevilla,ES,,ESSVQ,SVQ,Sevilla,,37.3828,-5.9732,Europe/Madrid,2019-09-05
Tenerife,ES,GC,ESTCI,TCI,Santa Cruz de Tenerife,2819N 01634W,28.4682,-16.2546,Atlantic/Canary,2019-09-05
Taradell,ES,,ESTEJ,TEJ,Teruel,,40.3456,-1.1065,Europe/Madrid,2019-09-05
Figueroles,ES,CS,ESUER,UER,Puertollano,4007N 00014W,38.6871,-4.1073,Europe/Madrid,2012-03-04
Vigo,ES,,ESVGO,VGO,Vigo,,42.2328,-8.7226,Europe/Madrid,2019-09-05
Vitoria-Gasteiz,ES,,ESVIT,VIT,Gasteiz / Vitoria,4251N 00240W,42.8500,-2.6727,Europe/Madrid,2018-01-01
Valencia,ES,,ESVLC,VLC,Valencia,,39.4697,-0.3774,Europe/Madrid,2019-09-05
Valladolid,ES,VA,ESVLL,VLL,Valladolid,,41.6552,-4.7237,Europe/Madrid,2019-09-05
Zaragoza,ES,,ESZAZ,ZAZ,Zaragoza,,41.6561,-0.8773,Europe/Madrid,2019-02-25
Herrera de los Navarros,ES,Z,ESZGZ,ZGZ,Zaragoza,4112N 00105W,41.6561,-0.8773,Europe/Madrid,2019-02-25
Carchuna,ES,,ESZOB,ZOB,Zamora,3642N 00326W,41.5063,-5.7446,Europe/Madrid,2012-12-22
Addis Ababa,ET,,ETADD,ADD,Addis Ababa,,9.0250,38.7469,Africa/Addis_Ababa,2020-05-28
Arba Mintch,ET,,ETAMH,AMH,Arba Minch,,6.0333,37.5500,Africa/Addis_Ababa,2016-11-21
Asosa,ET,,ETASO,ASO,Asosa,,10.0667,34.5333,Africa/Addis_Ababa,2018-01-12
Awassa,ET,,ETAWA,AWA,Hawassa,,7.0621,38.4763,Africa/Addis_Ababa,2013-05-18
Axum,ET,,ETAXU,AXU,Axum,,14.1211,38.7234,Africa/Addis_Ababa,2015-11-22
Bahar Dar,ET,,ETBJR,BJR,Bahir Dar,,11.5936,37.3908,Africa/Addis_Ababa,2013-04-21
